id,listingType,url,price,tagClassName,tagText,date,street,suburb,state,postcode,lat,lng,beds,baths,parking,propertyType,propertyTypeFormatted,isRural,landSize,landUnit,isRetirement
2018126384,listing,/189-brougham-street-woolloomooloo-nsw-2011-2018126384,Price Withheld,is-sold,Sold by private treaty 28 Feb 2023,20230228,189 Brougham Street,WOOLLOOMOOLOO,NSW,2011,-33.8743362,151.221451,7,4,-,House,House,False,0,m2,False
2018314558,listing,/108-81-macleay-street-potts-point-nsw-2011-2018314558,2200000,is-sold,Sold by private treaty 27 Feb 2023,20230227,108/81 Macleay Street,POTTS POINT,NSW,2011,-33.8702621,151.224976,2,2,1,ApartmentUnitFlat,Apartment / Unit / Flat,False,0,m2,False
2018172706,listing,/25-64-bayswater-road-rushcutters-bay-nsw-2011-2018172706,Price Withheld,is-sold,Sold by private treaty 16 Feb 2023,20230216,25/64 Bayswater Road,RUSHCUTTERS BAY,NSW,2011,-33.8758469,151.226349,-,1,-,Studio,Studio,False,0,m2,False
2018223837,listing,/35-dowling-street-woolloomooloo-nsw-2011-2018223837,Price Withheld,is-sold,Sold by private treaty 14 Feb 2023,20230214,35 Dowling street,WOOLLOOMOOLOO,NSW,2011,-33.870575,151.221161,3,2,-,Terrace,Terrace,False,0,m2,False
2018270917,listing,/12-66-roslyn-gardens-elizabeth-bay-nsw-2011-2018270917,1075000,is-sold,Sold by private treaty 24 Feb 2023,20230224,12/66 Roslyn Gardens,ELIZABETH BAY,NSW,2011,-33.87458,151.227081,2,1,-,ApartmentUnitFlat,Apartment / Unit / Flat,False,0,m2,False
2018298236,listing,/41-8-birtley-place-elizabeth-bay-nsw-2011-2018298236,1765000,is-sold,Sold prior to auction 23 Feb 2023,20230223,41/8 Birtley Place,ELIZABETH BAY,NSW,2011,-33.87204,151.226959,1,1,-,ApartmentUnitFlat,Apartment / Unit / Flat,False,0,m2,False
2018304031,listing,/20-234-william-street-potts-point-nsw-2011-2018304031,Price Withheld,is-sold,Sold at auction 11 Feb 2023,20230211,20/234 William Street,POTTS POINT,NSW,2011,-33.87492,151.221649,1,1,-,ApartmentUnitFlat,Apartment / Unit / Flat,False,0,m2,False
2018311408,listing,/7-16-clement-street-rushcutters-bay-nsw-2011-2018311408,690000,is-sold,Sold at auction 23 Feb 2023,20230223,7/16 Clement Street,RUSHCUTTERS BAY,NSW,2011,-33.87561,151.226578,1,1,-,ApartmentUnitFlat,Apartment / Unit / Flat,False,0,m2,False
2018312663,listing,/56-27-51-palmer-street-woolloomooloo-nsw-2011-2018312663,Price Withheld,is-sold,Sold prior to auction 22 Feb 2023,20230222,56/27-51 Palmer Street,WOOLLOOMOOLOO,NSW,2011,-33.8716965,151.217529,2,2,1,ApartmentUnitFlat,Apartment / Unit / Flat,False,0,m2,False
2018313895,listing,/10-2-elizabeth-bay-crescent-elizabeth-bay-nsw-2011-2018313895,Price Withheld,is-sold,Sold at auction 28 Feb 2023,20230228,10/2 Elizabeth Bay Crescent,ELIZABETH BAY,NSW,2011,-33.8721428,151.230438,2,1,1,ApartmentUnitFlat,Apartment / Unit / Flat,False,0,m2,False
2018314556,listing,/1509-81-macleay-street-potts-point-nsw-2011-2018314556,Price Withheld,is-sold,Sold prior to auction 21 Feb 2023,20230221,1509/81 Macleay Street,POTTS POINT,NSW,2011,-33.8702621,151.224976,2,2,2,ApartmentUnitFlat,Apartment / Unit / Flat,False,0,m2,False
2018316249,listing,/1306-7-rockwall-crescent-potts-point-nsw-2011-2018316249,2850000,is-sold,Sold prior to auction 14 Feb 2023,20230214,1306/7 Rockwall Crescent,POTTS POINT,NSW,2011,-33.86995,151.225143,2,2,1,ApartmentUnitFlat,Apartment / Unit / Flat,False,0,m2,False
2018321535,listing,/107-2-springfield-avenue-potts-point-nsw-2011-2018321535,1260000,is-sold,Sold at auction 25 Feb 2023,20230225,107/2 Springfield Avenue,POTTS POINT,NSW,2011,-33.87231,151.2236,2,1,1,ApartmentUnitFlat,Apartment / Unit / Flat,False,0,m2,False
2018331883,listing,/56-68-sir-john-young-crescent-woolloomooloo-nsw-2011-2018331883,1001000,is-sold,Sold at auction 25 Feb 2023,20230225,56/68 Sir John Young Crescent,WOOLLOOMOOLOO,NSW,2011,-33.8717766,151.216476,1,1,1,ApartmentUnitFlat,Apartment / Unit / Flat,False,0,m2,False
2018343920,listing,/805-12-macleay-street-potts-point-nsw-2011-2018343920,1500000,is-sold,Sold prior to auction 24 Feb 2023,20230224,805/12 Macleay Street,POTTS POINT,NSW,2011,-33.86862,151.226,1,1,-,ApartmentUnitFlat,Apartment / Unit / Flat,False,76,m2,False
2018352789,listing,/76-117-macleay-street-potts-point-nsw-2011-2018352789,515000,is-sold,Sold by private treaty 20 Feb 2023,20230220,76/117 Macleay Street,POTTS POINT,NSW,2011,-33.8723946,151.2246,-,1,-,Studio,Studio,False,0,m2,False
2018356659,listing,/8-23-39-bourke-street-woolloomooloo-nsw-2011-2018356659,Price Withheld,is-sold,Sold by private treaty 20 Feb 2023,20230220,8/23-39 Bourke Street,WOOLLOOMOOLOO,NSW,2011,-33.8694534,151.219025,2,2,1,ApartmentUnitFlat,Apartment / Unit / Flat,False,0,m2,False
2018356950,listing,/9-4-ward-avenue-elizabeth-bay-nsw-2011-2018356950,800000,is-sold,Sold by private treaty 15 Feb 2023,20230215,9/4 Ward Avenue,ELIZABETH BAY,NSW,2011,-33.87384,151.225861,1,1,-,ApartmentUnitFlat,Apartment / Unit / Flat,False,0,m2,False
2018357281,listing,/512-50-macleay-street-potts-point-nsw-2011-2018357281,1550000,is-sold,Sold prior to auction 24 Feb 2023,20230224,512/50 Macleay Street,POTTS POINT,NSW,2011,-33.8719063,151.2252,1,1,1,ApartmentUnitFlat,Apartment / Unit / Flat,False,92,m2,False
2018376123,listing,/15-4-ward-avenue-elizabeth-bay-nsw-2011-2018376123,Price Withheld,is-sold,Sold by private treaty 24 Feb 2023,20230224,15/4 Ward Avenue,ELIZABETH BAY,NSW,2011,-33.87384,151.225861,1,1,-,ApartmentUnitFlat,Apartment / Unit / Flat,False,44,m2,False
2017748030,listing,/182-victoria-street-potts-point-nsw-2011-2017748030,3050000,is-sold,Sold by private treaty 30 Jan 2023,20230130,182 Victoria Street,POTTS POINT,NSW,2011,-33.8732376,151.222824,5,2,-,Terrace,Terrace,False,0,m2,False
2018064268,listing,/1602-73-victoria-street-potts-point-nsw-2011-2018064268,1950000,is-sold,Sold at auction 08 Feb 2023,20230208,1602/73 Victoria Street,POTTS POINT,NSW,2011,-33.87065,151.222885,2,2,1,ApartmentUnitFlat,Apartment / Unit / Flat,False,0,m2,False
2018108514,listing,/16-4-waratah-street-rushcutters-bay-nsw-2011-2018108514,Price Withheld,is-sold,Sold by private treaty 03 Feb 2023,20230203,16/4 Waratah Street,RUSHCUTTERS BAY,NSW,2011,-33.873497,151.22821,1,1,-,ApartmentUnitFlat,Apartment / Unit / Flat,False,0,m2,False
2018115291,listing,/18-101-macleay-street-potts-point-nsw-2011-2018115291,475000,is-sold,Sold by private treaty 02 Feb 2023,20230202,18/101 Macleay Street,POTTS POINT,NSW,2011,-33.8717842,151.22493,-,1,-,Studio,Studio,False,30,m2,False
2018190690,listing,/3-61-63-mclachlan-avenue-rushcutters-bay-nsw-2011-2018190690,Price Withheld,is-sold,Sold by private treaty 07 Feb 2023,20230207,3/61-63 McLachlan Avenue,RUSHCUTTERS BAY,NSW,2011,-33.87788,151.22673,2,1,1,ApartmentUnitFlat,Apartment / Unit / Flat,False,0,m2,False
2018222568,listing,/408-18-bayswater-road-potts-point-nsw-2011-2018222568,690000,is-sold,Sold by private treaty 03 Feb 2023,20230203,408/18 Bayswater Road,POTTS POINT,NSW,2011,-33.8747749,151.223663,-,1,-,Studio,Studio,False,0,m2,False
2018227059,listing,/19-8a-hughes-street-potts-point-nsw-2011-2018227059,380000,is-sold,Sold by private treaty 09 Feb 2023,20230209,19/8A Hughes Street,POTTS POINT,NSW,2011,-33.87139,151.224411,-,1,-,Studio,Studio,False,0,m2,False
2018229535,listing,/6-1-hughes-street-potts-point-nsw-2011-2018229535,455000,is-sold,Sold prior to auction 06 Feb 2023,20230206,6/1 Hughes Street,POTTS POINT,NSW,2011,-33.8715,151.223343,-,1,-,ApartmentUnitFlat,Apartment / Unit / Flat,False,28,m2,False
2018287277,listing,/2-14-16-onslow-avenue-elizabeth-bay-nsw-2011-2018287277,1570000,is-sold,Sold at auction 08 Feb 2023,20230208,2/14-16 Onslow Avenue,ELIZABETH BAY,NSW,2011,-33.8709755,151.227249,2,2,1,ApartmentUnitFlat,Apartment / Unit / Flat,False,0,m2,False
2018287335,listing,/20-10-challis-avenue-potts-point-nsw-2011-2018287335,712000,is-sold,Sold at auction 09 Feb 2023,20230209,20/10 Challis Avenue,POTTS POINT,NSW,2011,-33.86867,151.2248,1,1,-,ApartmentUnitFlat,Apartment / Unit / Flat,False,0,m2,False
2018296815,listing,/8-67-cowper-wharf-road-woolloomooloo-nsw-2011-2018296815,Price Withheld,is-sold,Sold at auction 03 Feb 2023,20230203,8/67 Cowper Wharf Road,WOOLLOOMOOLOO,NSW,2011,-33.8693581,151.222183,2,2,1,ApartmentUnitFlat,Apartment / Unit / Flat,False,0,m2,False
2018303120,listing,/9-93-99-palmer-street-woolloomooloo-nsw-2011-2018303120,1135000,is-sold,Sold at auction 11 Feb 2023,20230211,9/93-99 Palmer Street,WOOLLOOMOOLOO,NSW,2011,-33.8729362,151.217239,2,1,1,ApartmentUnitFlat,Apartment / Unit / Flat,False,0,m2,False
2018305541,listing,/14-224-226-william-street-woolloomooloo-nsw-2011-2018305541,710000,is-sold,Sold prior to auction 09 Feb 2023,20230209,14/224-226 William Street,WOOLLOOMOOLOO,NSW,2011,-33.87485,151.221222,1,1,-,ApartmentUnitFlat,Apartment / Unit / Flat,False,0,m2,False
2018309524,listing,/6-104-elizabeth-bay-road-elizabeth-bay-nsw-2011-2018309524,2850000,is-sold,Sold at auction 10 Feb 2023,20230210,6/104 Elizabeth Bay Road,ELIZABETH BAY,NSW,2011,-33.87073,151.229752,2,1,1,ApartmentUnitFlat,Apartment / Unit / Flat,False,0,m2,False
2018315322,listing,/207-87-91-cathedral-street-woolloomooloo-nsw-2011-2018315322,Price Withheld,is-sold,Sold prior to auction 07 Feb 2023,20230207,207/87-91 Cathedral Street,WOOLLOOMOOLOO,NSW,2011,-33.8725052,151.2162,1,1,2,ApartmentUnitFlat,Apartment / Unit / Flat,False,0,m2,False
2018323724,listing,/1-27-billyard-avenue-elizabeth-bay-nsw-2011-2018323724,650000,is-sold,Sold by private treaty 01 Feb 2023,20230201,1/27 Billyard Avenue,ELIZABETH BAY,NSW,2011,-33.87071,151.227875,-,1,-,Studio,Studio,False,0,m2,False
2018325356,listing,/317-5-ward-avenue-potts-point-nsw-2011-2018325356,Price Withheld,is-sold,Sold by private treaty 01 Feb 2023,20230201,317/5 Ward Avenue,POTTS POINT,NSW,2011,-33.87367,151.22525,1,1,-,ApartmentUnitFlat,Apartment / Unit / Flat,False,0,m2,False
2018329993,listing,/9-27-51-palmer-street-woolloomooloo-nsw-2011-2018329993,Price Withheld,is-sold,Sold by private treaty 30 Jan 2023,20230130,9/27-51 Palmer Street,WOOLLOOMOOLOO,NSW,2011,-33.8716965,151.217529,3,2,1,ApartmentUnitFlat,Apartment / Unit / Flat,False,0,m2,False
2018330134,listing,/611-2-springfield-avenue-potts-point-nsw-2011-2018330134,1500000,is-sold,Sold prior to auction 08 Feb 2023,20230208,611/2 Springfield Avenue,POTTS POINT,NSW,2011,-33.87231,151.2236,2,1,1,ApartmentUnitFlat,Apartment / Unit / Flat,False,75,m2,False
2018349569,listing,/520-81-macleay-street-potts-point-nsw-2011-2018349569,1550000,is-sold,Sold by private treaty 10 Feb 2023,20230210,520/81 Macleay Street,POTTS POINT,NSW,2011,-33.8702621,151.224976,1,1,1,ApartmentUnitFlat,Apartment / Unit / Flat,False,0,m2,False
2017869407,listing,/359-6-cowper-wharf-roadway-woolloomooloo-nsw-2011-2017869407,Price Withheld,is-sold,Sold by private treaty 20 Jan 2023,20230120,359/6 Cowper Wharf Roadway,WOOLLOOMOOLOO,NSW,2011,-33.8671837,151.221191,-,1,-,Studio,Studio,False,0,m2,False
2018024618,listing,/1716-226-victoria-street-potts-point-nsw-2011-2018024618,2550000,is-sold,Sold by private treaty 23 Dec 2022,20221223,1716/226 Victoria Street,POTTS POINT,NSW,2011,-33.8743935,151.222458,2,3,1,ApartmentUnitFlat,Apartment / Unit / Flat,False,0,m2,False
2018031883,listing,/g11-2a-elizabeth-bay-road-elizabeth-bay-nsw-2011-2018031883,700000,is-sold,Sold by private treaty 05 Jan 2023,20230105,G11/2A Elizabeth Bay Road,ELIZABETH BAY,NSW,2011,-33.8724136,151.226059,1,1,-,ApartmentUnitFlat,Apartment / Unit / Flat,False,0,m2,False
2018115288,listing,/24-204-victoria-street-potts-point-nsw-2011-2018115288,1200000,is-sold,Sold by private treaty 22 Dec 2022,20221222,24/204 Victoria Street,POTTS POINT,NSW,2011,-33.8738136,151.222672,2,1,1,ApartmentUnitFlat,Apartment / Unit / Flat,False,87,m2,False
2018149365,listing,/902-15-bayswater-road-potts-point-nsw-2011-2018149365,Price Withheld,is-sold,Sold by private treaty 20 Dec 2022,20221220,902/15 Bayswater Road,POTTS POINT,NSW,2011,-33.8753128,151.2233,3,3,2,ApartmentUnitFlat,Apartment / Unit / Flat,False,0,m2,False
2018169719,listing,/18-8a-wylde-street-potts-point-nsw-2011-2018169719,1640000,is-sold,Sold by private treaty 25 Jan 2023,20230125,18/8A Wylde Street,POTTS POINT,NSW,2011,-33.86618,151.225586,2,1,-,ApartmentUnitFlat,Apartment / Unit / Flat,False,0,m2,False
2018170777,listing,/29-68-sir-john-young-crescent-woolloomooloo-nsw-2011-2018170777,760000,is-sold,Sold by private treaty 21 Dec 2022,20221221,29/68 Sir John Young Crescent,WOOLLOOMOOLOO,NSW,2011,-33.8717766,151.216476,1,1,-,ApartmentUnitFlat,Apartment / Unit / Flat,False,0,m2,False
2018190499,listing,/1-4-mcdonald-street-potts-point-nsw-2011-2018190499,362500,is-sold,Sold by private treaty 19 Dec 2022,20221219,1/4 McDonald Street,POTTS POINT,NSW,2011,-33.86799,151.22525,-,1,-,Studio,Studio,False,0,m2,False
2018192657,listing,/20-123-125-macleay-street-potts-point-nsw-2011-2018192657,Price Withheld,is-sold,Sold by private treaty 13 Jan 2023,20230113,20/123-125 Macleay Street,POTTS POINT,NSW,2011,-33.87274,151.2246,2,1,-,ApartmentUnitFlat,Apartment / Unit / Flat,False,0,m2,False
2018220406,listing,/202-2-elizabeth-bay-road-elizabeth-bay-nsw-2011-2018220406,1090000,is-sold,Sold at auction 17 Dec 2022,20221217,202/2 Elizabeth Bay Road,ELIZABETH BAY,NSW,2011,-33.8724365,151.226059,1,1,1,ApartmentUnitFlat,Apartment / Unit / Flat,False,0,m2,False
2018237673,listing,/217-15-bayswater-road-potts-point-nsw-2011-2018237673,Price Withheld,is-sold,Sold by private treaty 27 Jan 2023,20230127,217/15 Bayswater Road,POTTS POINT,NSW,2011,-33.8753128,151.2233,1,1,-,ApartmentUnitFlat,Apartment / Unit / Flat,False,0,m2,False
2018245630,listing,/107-74-76-roslyn-gardens-rushcutters-bay-nsw-2011-2018245630,455000,is-sold,Sold by private treaty 22 Dec 2022,20221222,107/74-76 Roslyn Gardens,RUSHCUTTERS BAY,NSW,2011,-33.8750954,151.226868,-,1,-,Studio,Studio,False,0,m2,False
2018264502,listing,/65-108-elizabeth-bay-road-elizabeth-bay-nsw-2011-2018264502,Price Withheld,is-sold,Sold by private treaty 20 Dec 2022,20221220,65/108 Elizabeth Bay Road,ELIZABETH BAY,NSW,2011,-33.87026,151.230331,2,1,-,ApartmentUnitFlat,Apartment / Unit / Flat,False,0,m2,False
2018267836,listing,/1501-19-23-elizabeth-bay-road-elizabeth-bay-nsw-2011-2018267836,Price Withheld,is-sold,Sold by private treaty 20 Dec 2022,20221220,1501/19-23 Elizabeth Bay Road,ELIZABETH BAY,NSW,2011,-33.87294,151.2271,3,2,2,ApartmentUnitFlat,Apartment / Unit / Flat,False,0,m2,False
2018277688,listing,/14-97-99-macleay-street-potts-point-nsw-2011-2018277688,Price Withheld,is-sold,Sold prior to auction 13 Jan 2023,20230113,14/97-99 Macleay Street,POTTS POINT,NSW,2011,-33.871666,151.224838,3,1,-,ApartmentUnitFlat,Apartment / Unit / Flat,False,0,m2,False
2018281065,listing,/3-68-elizabeth-bay-road-elizabeth-bay-nsw-2011-2018281065,1500000,is-sold,Sold by private treaty 09 Jan 2023,20230109,3/68 Elizabeth Bay Road,ELIZABETH BAY,NSW,2011,-33.87181,151.228088,2,1,-,ApartmentUnitFlat,Apartment / Unit / Flat,False,0,m2,False
2018282620,listing,/18-2-mcdonald-street-potts-point-nsw-2011-2018282620,472500,is-sold,Sold by private treaty 10 Jan 2023,20230110,18/2 McDonald Street,POTTS POINT,NSW,2011,-33.8679543,151.225037,-,1,-,Studio,Studio,False,0,m2,False
2018296150,listing,/15-26-28-kings-cross-road-potts-point-nsw-2011-2018296150,977000,is-sold,Sold by private treaty 25 Jan 2023,20230125,15/26-28 Kings Cross Road,POTTS POINT,NSW,2011,-33.8756332,151.2235,2,1,-,ApartmentUnitFlat,Apartment / Unit / Flat,False,0,m2,False
2018298911,listing,/7-97-99-macleay-street-potts-point-nsw-2011-2018298911,1400000,is-sold,Sold prior to auction 24 Jan 2023,20230124,7/97-99 Macleay Street,POTTS POINT,NSW,2011,-33.871666,151.224838,2,1,-,ApartmentUnitFlat,Apartment / Unit / Flat,False,0,m2,False
2018343536,listing,/level-7-706-46-48-riley-street-woolloomooloo-nsw-2011-2018343536,6400000,is-sold,Sold by private treaty 22 Dec 2022,20221222,"Level 7, 706/46-48 Riley Street",WOOLLOOMOOLOO,NSW,2011,-33.8737,151.215958,3,3,2,ApartmentUnitFlat,Apartment / Unit / Flat,False,0,m2,False
2018006461,listing,/12a-6a-greenknowe-avenue-elizabeth-bay-nsw-2011-2018006461,2000000,is-sold,Sold by private treaty 01 Dec 2022,20221201,12A/6A Greenknowe Avenue,ELIZABETH BAY,NSW,2011,-33.8711128,151.226349,2,1,1,ApartmentUnitFlat,Apartment / Unit / Flat,False,0,m2,False
2018086253,listing,/93-1-mcdonald-street-potts-point-nsw-2011-2018086253,765000,is-sold,Sold by private treaty 06 Dec 2022,20221206,93/1 McDonald Street,POTTS POINT,NSW,2011,-33.86823,151.224472,1,1,1,ApartmentUnitFlat,Apartment / Unit / Flat,False,0,m2,False
2018123464,listing,/215-50-macleay-street-potts-point-nsw-2011-2018123464,3100000,is-sold,Sold by private treaty 10 Dec 2022,20221210,215/50 Macleay Street,POTTS POINT,NSW,2011,-33.8719063,151.2252,4,3,2,ApartmentUnitFlat,Apartment / Unit / Flat,False,0,m2,False
2018130545,listing,/4-68-sir-john-young-crescent-woolloomooloo-nsw-2011-2018130545,860000,is-sold,Sold by private treaty 09 Dec 2022,20221209,4/68 Sir John Young Crescent,WOOLLOOMOOLOO,NSW,2011,-33.8717766,151.216476,1,1,-,ApartmentUnitFlat,Apartment / Unit / Flat,False,0,m2,False
2018144303,listing,/14-20-22-springfield-avenue-potts-point-nsw-2011-2018144303,455000,is-sold,Sold by private treaty 09 Dec 2022,20221209,14/20-22 Springfield Avenue,POTTS POINT,NSW,2011,-33.872673,151.2241,-,1,-,Studio,Studio,False,0,m2,False
2018155433,listing,/71-141-bayswater-road-rushcutters-bay-nsw-2011-2018155433,1147500,is-sold,Sold by private treaty 09 Dec 2022,20221209,71/141 Bayswater Road,RUSHCUTTERS BAY,NSW,2011,-33.8764648,151.228119,2,1,1,ApartmentUnitFlat,Apartment / Unit / Flat,False,0,m2,False
2018161875,listing,/69-50-58-roslyn-gardens-rushcutters-bay-nsw-2011-2018161875,500000,is-sold,Sold by private treaty 30 Nov 2022,20221130,69/50-58 Roslyn Gardens,RUSHCUTTERS BAY,NSW,2011,-33.874424,151.227539,1,1,1,BlockOfUnits,Block of Units,False,2397,m2,False
2018170291,listing,/501-115-macleay-street-potts-point-nsw-2011-2018170291,850000,is-sold,Sold at auction 14 Dec 2022,20221214,501/115 Macleay Street,POTTS POINT,NSW,2011,-33.8722343,151.2247,1,1,-,ApartmentUnitFlat,Apartment / Unit / Flat,False,0,m2,False
2018176196,listing,/601-3-5-greenknowe-avenue-elizabeth-bay-nsw-2011-2018176196,785000,is-sold,Sold at auction 14 Dec 2022,20221214,601/3-5 Greenknowe Avenue,ELIZABETH BAY,NSW,2011,-33.8717728,151.225754,1,1,1,ApartmentUnitFlat,Apartment / Unit / Flat,False,0,m2,False
2018176208,listing,/105-14-macleay-street-potts-point-nsw-2011-2018176208,Price Withheld,is-sold,Sold by private treaty 09 Dec 2022,20221209,105/14 Macleay Street,POTTS POINT,NSW,2011,-33.8688736,151.225967,2,2,1,ApartmentUnitFlat,Apartment / Unit / Flat,False,0,m2,False
2018192073,listing,/10c-15-19-onslow-avenue-elizabeth-bay-nsw-2011-2018192073,2370000,is-sold,Sold at auction 15 Dec 2022,20221215,10C/15-19 Onslow Avenue,ELIZABETH BAY,NSW,2011,-33.87134,151.226608,2,1,1,ApartmentUnitFlat,Apartment / Unit / Flat,False,0,m2,False
2018195293,listing,/502-2-elizabeth-bay-road-elizabeth-bay-nsw-2011-2018195293,1275000,is-sold,Sold by private treaty 17 Dec 2022,20221217,502/2 Elizabeth Bay Road,ELIZABETH BAY,NSW,2011,-33.8724365,151.226059,1,1,1,ApartmentUnitFlat,Apartment / Unit / Flat,False,71,m2,False
2018203307,listing,/504-72-78-bayswater-road-rushcutters-bay-nsw-2011-2018203307,1220000,is-sold,Sold at auction 08 Dec 2022,20221208,504/72-78 Bayswater Road,RUSHCUTTERS BAY,NSW,2011,-33.87595,151.227081,1,1,1,ApartmentUnitFlat,Apartment / Unit / Flat,False,0,m2,False
2018204111,listing,/1-114-victoria-street-potts-point-nsw-2011-2018204111,505000,is-sold,Sold at auction 08 Dec 2022,20221208,1/114 Victoria Street,POTTS POINT,NSW,2011,-33.8714066,151.223145,1,1,-,ApartmentUnitFlat,Apartment / Unit / Flat,False,0,m2,False
2018205329,listing,/1-53-55-elizabeth-bay-road-elizabeth-bay-nsw-2011-2018205329,970000,is-sold,Sold by private treaty 17 Dec 2022,20221217,1/53-55 Elizabeth Bay Road,ELIZABETH BAY,NSW,2011,-33.8725662,151.228729,2,1,1,ApartmentUnitFlat,Apartment / Unit / Flat,False,0,m2,False
2018210309,listing,/1003-2-elizabeth-bay-road-elizabeth-bay-nsw-2011-2018210309,2100000,is-sold,Sold at auction 08 Dec 2022,20221208,1003/2 Elizabeth Bay Road,ELIZABETH BAY,NSW,2011,-33.8724365,151.226059,2,2,1,ApartmentUnitFlat,Apartment / Unit / Flat,False,96,m2,False
2018214644,listing,/103-74-76-roslyn-gardens-rushcutters-bay-nsw-2011-2018214644,490000,is-sold,Sold by private treaty 09 Dec 2022,20221209,103/74-76 Roslyn Gardens,RUSHCUTTERS BAY,NSW,2011,-33.8750954,151.226868,-,1,-,Studio,Studio,False,0,m2,False
2018218614,listing,/4-1a-roslyn-street-potts-point-nsw-2011-2018218614,435000,is-sold,Sold by private treaty 16 Dec 2022,20221216,4/1A Roslyn Street,POTTS POINT,NSW,2011,-33.873806,151.224243,1,1,-,ApartmentUnitFlat,Apartment / Unit / Flat,False,0,m2,False
2018252112,listing,/103-5-ward-avenue-potts-point-nsw-2011-2018252112,795000,is-sold,Sold by private treaty 12 Dec 2022,20221212,103/5 Ward Avenue,POTTS POINT,NSW,2011,-33.87367,151.22525,1,1,1,ApartmentUnitFlat,Apartment / Unit / Flat,False,0,m2,False
2018259225,listing,/76-41-49-roslyn-gardens-elizabeth-bay-nsw-2011-2018259225,1010000,is-sold,Sold by private treaty 16 Dec 2022,20221216,76/41-49 Roslyn Gardens,ELIZABETH BAY,NSW,2011,-33.8734779,151.2271,1,1,1,ApartmentUnitFlat,Apartment / Unit / Flat,False,0,m2,False
2018042126,listing,/131-6-cowper-wharf-roadway-woolloomooloo-nsw-2011-2018042126,1550000,is-sold,Sold by private treaty 18 Nov 2022,20221118,131/6 Cowper Wharf Roadway,WOOLLOOMOOLOO,NSW,2011,-33.8671837,151.221191,1,1,-,ApartmentUnitFlat,Apartment / Unit / Flat,False,86,m2,False
2018055318,listing,/6-1-springfield-avenue-potts-point-nsw-2011-2018055318,1975000,is-sold,Sold by private treaty 18 Nov 2022,20221118,6/1 Springfield Avenue,POTTS POINT,NSW,2011,-33.8724632,151.223511,2,2,1,ApartmentUnitFlat,Apartment / Unit / Flat,False,0,m2,False
2018056747,listing,/314-81-macleay-street-potts-point-nsw-2011-2018056747,1400000,is-sold,Sold by private treaty 18 Nov 2022,20221118,314/81 Macleay Street,POTTS POINT,NSW,2011,-33.8702621,151.224976,1,1,1,ApartmentUnitFlat,Apartment / Unit / Flat,False,0,m2,False
2018084192,listing,/3-6a-greenknowe-avenue-elizabeth-bay-nsw-2011-2018084192,Price Withheld,is-sold,Sold by private treaty 18 Nov 2022,20221118,3/6A Greenknowe Avenue,ELIZABETH BAY,NSW,2011,-33.8711128,151.226349,2,1,-,ApartmentUnitFlat,Apartment / Unit / Flat,False,0,m2,False
2018115915,listing,/14-5-7-esplanade-elizabeth-bay-nsw-2011-2018115915,816000,is-sold,Sold at auction 17 Nov 2022,20221117,14/5-7 Esplanade,ELIZABETH BAY,NSW,2011,-33.87093,151.22908,1,1,1,ApartmentUnitFlat,Apartment / Unit / Flat,False,39,m2,False
2018133228,listing,/1905-226-victoria-street-potts-point-nsw-2011-2018133228,12500000,is-sold,Sold by private treaty 23 Nov 2022,20221123,1905/226 Victoria Street,POTTS POINT,NSW,2011,-33.8743935,151.222458,4,4,2,ApartmentUnitFlat,Apartment / Unit / Flat,False,0,m2,False
2018137626,listing,/506-22-40-sir-john-young-crescent-woolloomooloo-nsw-2011-2018137626,680000,is-sold,Sold by private treaty 21 Nov 2022,20221121,506/22-40 Sir John Young Crescent,WOOLLOOMOOLOO,NSW,2011,-33.8685455,151.21788,1,1,-,ApartmentUnitFlat,Apartment / Unit / Flat,False,0,m2,False
2018138160,listing,/81-victoria-street-potts-point-nsw-2011-2018138160,Price Withheld,is-sold,Sold prior to auction 21 Nov 2022,20221121,81 Victoria Street,POTTS POINT,NSW,2011,-33.8701935,151.222931,3,3,1,House,House,False,122,m2,False
2018144736,listing,/206-63-crown-street-woolloomooloo-nsw-2011-2018144736,1175000,is-sold,Sold prior to auction 25 Nov 2022,20221125,206/63 Crown Street,WOOLLOOMOOLOO,NSW,2011,-33.8733635,151.216049,1,1,1,ApartmentUnitFlat,Apartment / Unit / Flat,False,0,m2,False
2018160613,listing,/111-1a-clement-place-rushcutters-bay-nsw-2011-2018160613,1915000,is-sold,Sold at auction 19 Nov 2022,20221119,111/1A Clement Place,RUSHCUTTERS BAY,NSW,2011,-33.87557,151.22908,2,2,2,ApartmentUnitFlat,Apartment / Unit / Flat,False,0,m2,False
2018161735,listing,/43-150-forbes-street-woolloomooloo-nsw-2011-2018161735,1130000,is-sold,Sold prior to auction 30 Nov 2022,20221130,43/150 Forbes Street,WOOLLOOMOOLOO,NSW,2011,-33.8735542,151.21962,2,1,1,ApartmentUnitFlat,Apartment / Unit / Flat,False,139,m2,False
2018171831,listing,/42-51-roslyn-gardens-elizabeth-bay-nsw-2011-2018171831,405000,is-sold,Sold at auction 24 Nov 2022,20221124,42/51 Roslyn Gardens,ELIZABETH BAY,NSW,2011,-33.87382,151.226852,-,1,-,Studio,Studio,False,0,m2,False
2018175530,listing,/17-greenknowe-avenue-elizabeth-bay-nsw-2011-2018175530,3255000,is-sold,Sold prior to auction 18 Nov 2022,20221118,17 Greenknowe Avenue,ELIZABETH BAY,NSW,2011,-33.8718529,151.226822,3,2,1,Terrace,Terrace,False,0,m2,False
2018189781,listing,/7-2-crick-avenue-potts-point-nsw-2011-2018189781,399000,is-sold,Sold by private treaty 29 Nov 2022,20221129,7/2 Crick Avenue,POTTS POINT,NSW,2011,-33.8710251,151.226318,-,1,-,Studio,Studio,False,0,m2,False
2018190389,listing,/6-9-clement-street-rushcutters-bay-nsw-2011-2018190389,641000,is-sold,Sold at auction 29 Nov 2022,20221129,6/9 Clement Street,RUSHCUTTERS BAY,NSW,2011,-33.8752441,151.227066,1,1,1,ApartmentUnitFlat,Apartment / Unit / Flat,False,0,m2,False
2018194604,listing,/43-40-victoria-street-potts-point-nsw-2011-2018194604,950000,is-sold,Sold prior to auction 25 Nov 2022,20221125,43/40 Victoria Street,POTTS POINT,NSW,2011,-33.8681946,151.223877,1,1,1,ApartmentUnitFlat,Apartment / Unit / Flat,False,38,m2,False
2018211390,listing,/64-41-49-roslyn-gardens-elizabeth-bay-nsw-2011-2018211390,840000,is-sold,Sold by private treaty 18 Nov 2022,20221118,64/41-49 Roslyn Gardens,ELIZABETH BAY,NSW,2011,-33.8734779,151.2271,1,1,1,ApartmentUnitFlat,Apartment / Unit / Flat,False,0,m2,False
2018216203,listing,/801-46-48-riley-street-woolloomooloo-nsw-2011-2018216203,3600000,is-sold,Sold by private treaty 22 Nov 2022,20221122,801/46-48 Riley Street,WOOLLOOMOOLOO,NSW,2011,-33.8737,151.215958,2,2,1,ApartmentUnitFlat,Apartment / Unit / Flat,False,0,m2,False
2018222828,listing,/33-8-birtley-place-elizabeth-bay-nsw-2011-2018222828,1450000,is-sold,Sold prior to auction 25 Nov 2022,20221125,33/8 Birtley Place,ELIZABETH BAY,NSW,2011,-33.87204,151.226959,2,1,1,ApartmentUnitFlat,Apartment / Unit / Flat,False,0,m2,False
2018317569,listing,/17-greenknowe-avenue-elizabeth-bay-nsw-2011-2018317569,3255000,is-sold,Sold prior to auction 18 Nov 2022,20221118,17 Greenknowe Avenue,ELIZABETH BAY,NSW,2011,-33.8718529,151.226822,3,2,1,Terrace,Terrace,False,0,m2,False
2017981959,listing,/17-85-bourke-street-woolloomooloo-nsw-2011-2017981959,730000,is-sold,Sold by private treaty 04 Nov 2022,20221104,17/85 Bourke Street,WOOLLOOMOOLOO,NSW,2011,-33.8710251,151.218613,1,1,-,ApartmentUnitFlat,Apartment / Unit / Flat,False,0,m2,False
2018014130,listing,/1211-73-victoria-st-potts-point-nsw-2011-2018014130,4500000,is-sold,Sold by private treaty 03 Nov 2022,20221103,1211/73 Victoria St,POTTS POINT,NSW,2011,-33.87064,151.2228,3,2,3,ApartmentUnitFlat,Apartment / Unit / Flat,False,0,m2,False
2018105851,listing,/9-20-22-roslyn-gardens-rushcutters-bay-nsw-2011-2018105851,1210000,is-sold,Sold prior to auction 04 Nov 2022,20221104,9/20-22 Roslyn Gardens,RUSHCUTTERS BAY,NSW,2011,-33.87324,151.228027,2,1,-,ApartmentUnitFlat,Apartment / Unit / Flat,False,0,m2,False
2018108598,listing,/6-2b-tusculum-street-potts-point-nsw-2011-2018108598,540000,is-sold,Sold by private treaty 03 Nov 2022,20221103,6/2B Tusculum Street,POTTS POINT,NSW,2011,-33.8710175,151.224274,1,1,-,ApartmentUnitFlat,Apartment / Unit / Flat,False,0,m2,False
2018114289,listing,/36-8-birtley-place-elizabeth-bay-nsw-2011-2018114289,Price Withheld,is-sold,Sold at auction 03 Nov 2022,20221103,36/8 Birtley Place,ELIZABETH BAY,NSW,2011,-33.87204,151.226959,1,1,-,ApartmentUnitFlat,Apartment / Unit / Flat,False,0,m2,False
2018115292,listing,/165-19-tusculum-street-potts-point-nsw-2011-2018115292,508250,is-sold,Sold by private treaty 10 Nov 2022,20221110,165/19 Tusculum Street,POTTS POINT,NSW,2011,-33.871254,151.2238,1,1,-,ApartmentUnitFlat,Apartment / Unit / Flat,False,36,m2,False
2018116077,listing,/1-128-victoria-street-potts-point-nsw-2011-2018116077,1350000,is-sold,Sold by private treaty 03 Nov 2022,20221103,1/128 Victoria Street,POTTS POINT,NSW,2011,-33.8718224,151.223068,2,1,-,ApartmentUnitFlat,Apartment / Unit / Flat,False,82,m2,False
2018121170,listing,/23-2-greenknowe-avenue-potts-point-nsw-2011-2018121170,Price Withheld,is-sold,Sold by private treaty 07 Nov 2022,20221107,23/2 Greenknowe Avenue,POTTS POINT,NSW,2011,-33.87127,151.2262,-,1,-,Studio,Studio,False,0,m2,False
2018122998,listing,/8d-85-elizabeth-bay-road-elizabeth-bay-nsw-2011-2018122998,550000,is-sold,Sold by private treaty 08 Nov 2022,20221108,8D/85 Elizabeth Bay Road,ELIZABETH BAY,NSW,2011,-33.8721924,151.230347,1,1,-,ApartmentUnitFlat,Apartment / Unit / Flat,False,0,m2,False
2018125223,listing,/72-brougham-street-potts-point-nsw-2011-2018125223,2000000,is-sold,Sold prior to auction 11 Nov 2022,20221111,72 Brougham Street,POTTS POINT,NSW,2011,-33.8725433,151.222122,3,1,-,Terrace,Terrace,False,0,m2,False
2018127770,listing,/1903-73-victoria-street-potts-point-nsw-2011-2018127770,Price Withheld,is-sold,Sold prior to auction 17 Nov 2022,20221117,1903/73 Victoria Street,POTTS POINT,NSW,2011,-33.87064,151.2228,2,1,1,ApartmentUnitFlat,Apartment / Unit / Flat,False,0,m2,False
2018129611,listing,/7-corfu-street-woolloomooloo-nsw-2011-2018129611,1217000,is-sold,Sold at auction 05 Nov 2022,20221105,7 Corfu Street,WOOLLOOMOOLOO,NSW,2011,-33.87408,151.218781,2,1,-,House,House,False,0,m2,False
2018131873,listing,/315-50-macleay-street-potts-point-nsw-2011-2018131873,2275000,is-sold,Sold at auction 10 Nov 2022,20221110,315/50 Macleay Street,POTTS POINT,NSW,2011,-33.8719063,151.2252,1,2,1,ApartmentUnitFlat,Apartment / Unit / Flat,False,134,m2,False
2018132444,listing,/4-10-wylde-street-potts-point-nsw-2011-2018132444,1925000,is-sold,Sold at auction 10 Nov 2022,20221110,4/10 Wylde Street,POTTS POINT,NSW,2011,-33.866436,151.225037,1,1,1,ApartmentUnitFlat,Apartment / Unit / Flat,False,0,m2,False
2018141588,listing,/32-97-99-macleay-street-potts-point-nsw-2011-2018141588,Price Withheld,is-sold,Sold by private treaty 09 Nov 2022,20221109,32/97-99 Macleay Street,POTTS POINT,NSW,2011,-33.871666,151.224838,2,1,-,ApartmentUnitFlat,Apartment / Unit / Flat,False,0,m2,False
2018145905,listing,/16-29-orwell-street-potts-point-nsw-2011-2018145905,530000,is-sold,Sold prior to auction 10 Nov 2022,20221110,16/29 Orwell Street,POTTS POINT,NSW,2011,-33.87239,151.224335,1,1,-,ApartmentUnitFlat,Apartment / Unit / Flat,False,0,m2,False
2018177210,listing,/1211-73-victoria-street-potts-point-nsw-2011-2018177210,4500000,is-sold,Sold prior to auction 03 Nov 2022,20221103,1211/73 Victoria Street,POTTS POINT,NSW,2011,-33.87064,151.2228,3,2,3,ApartmentUnitFlat,Apartment / Unit / Flat,False,0,m2,False
2018178463,listing,/26-68-sir-john-young-crescent-woolloomooloo-nsw-2011-2018178463,975000,is-sold,Sold at auction 17 Nov 2022,20221117,26/68 Sir John Young Crescent,WOOLLOOMOOLOO,NSW,2011,-33.8717766,151.216476,1,1,1,ApartmentUnitFlat,Apartment / Unit / Flat,False,0,m2,False
2018194701,listing,/19-10-orwell-street-potts-point-nsw-2011-2018194701,370000,is-sold,Sold by private treaty 11 Nov 2022,20221111,19/10 Orwell Street,POTTS POINT,NSW,2011,-33.87182,151.223572,-,1,-,Studio,Studio,False,0,m2,False
2018198909,listing,/52-68-roslyn-gardens-rushcutters-bay-nsw-2011-2018198909,550000,is-sold,Sold by private treaty 07 Nov 2022,20221107,52/68 Roslyn Gardens,RUSHCUTTERS BAY,NSW,2011,-33.8748741,151.227158,-,1,-,Studio,Studio,False,0,m2,False
2017871743,listing,/9-25-hughes-street-potts-point-nsw-2011-2017871743,415000,is-sold,Sold by private treaty 25 Oct 2022,20221025,9/25 Hughes Street,POTTS POINT,NSW,2011,-33.87162,151.224289,1,1,-,ApartmentUnitFlat,Apartment / Unit / Flat,False,0,m2,False
2017945291,listing,/17-67-cowper-wharf-roadway-woolloomooloo-nsw-2011-2017945291,Price Withheld,is-sold,Sold by private treaty 28 Oct 2022,20221028,17/67 Cowper Wharf Roadway,WOOLLOOMOOLOO,NSW,2011,-33.86939,151.222183,2,2,1,ApartmentUnitFlat,Apartment / Unit / Flat,False,0,m2,False
2017964682,listing,/8-22-wylde-street-potts-point-nsw-2011-2017964682,5950000,is-sold,Sold prior to auction 21 Oct 2022,20221021,8/22 Wylde Street,POTTS POINT,NSW,2011,-33.8675346,151.2263,3,2,2,ApartmentUnitFlat,Apartment / Unit / Flat,False,0,m2,False
2017968883,listing,/6-66-bayswater-road-rushcutters-bay-nsw-2011-2017968883,400000,is-sold,Sold by private treaty 02 Nov 2022,20221102,6/66 Bayswater Road,RUSHCUTTERS BAY,NSW,2011,-33.8759079,151.2265,-,1,-,Studio,Studio,False,0,m2,False
2017975538,listing,/363-6c-cowper-wharf-roadway-woolloomooloo-nsw-2011-2017975538,Price Withheld,is-sold,Sold prior to auction 28 Oct 2022,20221028,363/6C Cowper Wharf Roadway,WOOLLOOMOOLOO,NSW,2011,-33.8671837,151.221191,1,1,-,ApartmentUnitFlat,Apartment / Unit / Flat,False,0,m2,False
2018007035,listing,/23-234-william-street-potts-point-nsw-2011-2018007035,1680000,is-sold,Sold by private treaty 21 Oct 2022,20221021,23/234 William Street,POTTS POINT,NSW,2011,-33.87492,151.221649,2,2,1,ApartmentUnitFlat,Apartment / Unit / Flat,False,0,m2,False
2018022097,listing,/16-20-st-neot-avenue-potts-point-nsw-2011-2018022097,1185000,is-sold,Sold by private treaty 02 Nov 2022,20221102,16/20 St Neot Avenue,POTTS POINT,NSW,2011,-33.8673935,151.225021,2,1,1,ApartmentUnitFlat,Apartment / Unit / Flat,False,0,m2,False
2018056252,listing,/803-2-elizabeth-bay-road-elizabeth-bay-nsw-2011-2018056252,2100000,is-sold,Sold by private treaty 27 Oct 2022,20221027,803/2 Elizabeth Bay Road,ELIZABETH BAY,NSW,2011,-33.8724365,151.226059,2,2,1,ApartmentUnitFlat,Apartment / Unit / Flat,False,96,m2,False
2018066898,listing,/14-st-neot-avenue-potts-point-nsw-2011-2018066898,9000000,is-sold,Sold by private treaty 31 Oct 2022,20221031,14 St Neot Avenue,POTTS POINT,NSW,2011,-33.86741,151.2247,3,4,3,House,House,False,0,m2,False
2018068308,listing,/7-9-11-queens-avenue-rushcutters-bay-nsw-2011-2018068308,1534000,is-sold,Sold at auction 29 Oct 2022,20221029,7/9-11 Queens Avenue,RUSHCUTTERS BAY,NSW,2011,-33.8750572,151.228027,2,1,1,ApartmentUnitFlat,Apartment / Unit / Flat,False,0,m2,False
2018070406,listing,/2-234-william-street-potts-point-nsw-2011-2018070406,Price Withheld,is-sold,Sold by private treaty 27 Oct 2022,20221027,2/234 William Street,POTTS POINT,NSW,2011,-33.87492,151.221649,1,1,-,ApartmentUnitFlat,Apartment / Unit / Flat,False,0,m2,False
2018100069,listing,/31-64-bayswater-road-rushcutters-bay-nsw-2011-2018100069,410000,is-sold,Sold by private treaty 28 Oct 2022,20221028,31/64 Bayswater Road,RUSHCUTTERS BAY,NSW,2011,-33.8758469,151.226364,-,1,-,Studio,Studio,False,0,m2,False
2018101154,listing,/5-16-clement-street-rushcutters-bay-nsw-2011-2018101154,820000,is-sold,Sold at auction 01 Nov 2022,20221101,5/16 Clement Street,RUSHCUTTERS BAY,NSW,2011,-33.87562,151.2266,1,1,-,ApartmentUnitFlat,Apartment / Unit / Flat,False,55,m2,False
2018106474,listing,/137a-victoria-street-potts-point-nsw-2011-2018106474,1250000,is-sold,Sold at auction 27 Oct 2022,20221027,137A Victoria Street,POTTS POINT,NSW,2011,-33.87199,151.222565,1,1,-,ApartmentUnitFlat,Apartment / Unit / Flat,False,0,m2,False
2018113172,listing,/21-7-springfield-avenue-potts-point-nsw-2011-2018113172,1187500,is-sold,Sold at auction 27 Oct 2022,20221027,21/7 Springfield Avenue,POTTS POINT,NSW,2011,-33.87281,151.223465,2,1,-,ApartmentUnitFlat,Apartment / Unit / Flat,False,0,m2,False
2018148093,listing,/205-161-brougham-street-woolloomooloo-nsw-2011-2018148093,2260000,is-sold,Sold prior to auction 31 Oct 2022,20221031,205/161 Brougham Street,WOOLLOOMOOLOO,NSW,2011,-33.8737564,151.221558,2,2,1,ApartmentUnitFlat,Apartment / Unit / Flat,False,98,m2,False
2018164787,listing,/30-51-59-roslyn-gardens-elizabeth-bay-nsw-2011-2018164787,Price Withheld,is-sold,Sold by private treaty 21 Oct 2022,20221021,30/51-59 Roslyn Gardens,ELIZABETH BAY,NSW,2011,-33.87381,151.226837,-,1,-,Studio,Studio,False,32,m2,False
2018167291,listing,/5-150-forbes-street-woolloomooloo-nsw-2011-2018167291,660000,is-sold,Sold by private treaty 31 Oct 2022,20221031,5/150 Forbes Street,WOOLLOOMOOLOO,NSW,2011,-33.8735542,151.21962,1,1,-,ApartmentUnitFlat,Apartment / Unit / Flat,False,0,m2,False
2018171969,listing,/8-36b-macleay-street-elizabeth-bay-nsw-2011-2018171969,525000,is-sold,Sold by private treaty 02 Nov 2022,20221102,8/36B Macleay Street,ELIZABETH BAY,NSW,2011,-33.87011,151.2257,-,1,-,ApartmentUnitFlat,Apartment / Unit / Flat,False,28,m2,False
2018199752,listing,/14-st-neot-avenue-potts-point-nsw-2011-2018199752,9000000,is-sold,Sold by private treaty 31 Oct 2022,20221031,14 St Neot Avenue,POTTS POINT,NSW,2011,-33.86741,151.2247,3,4,3,House,House,False,0,m2,False
2017695441,listing,/202-37-41-bayswater-road-potts-point-nsw-2011-2017695441,980000,is-sold,Sold by private treaty 20 Oct 2022,20221020,202/37-41 Bayswater Road,POTTS POINT,NSW,2011,-33.8752861,151.224319,1,1,-,ApartmentUnitFlat,Apartment / Unit / Flat,False,0,m2,False
2017877787,listing,/16-20-22-springfield-avenue-potts-point-nsw-2011-2017877787,740000,is-sold,Sold by private treaty 19 Oct 2022,20221019,16/20-22 Springfield Avenue,POTTS POINT,NSW,2011,-33.872673,151.2241,1,1,-,ApartmentUnitFlat,Apartment / Unit / Flat,False,0,m2,False
2017943394,listing,/906-81-macleay-street-potts-point-nsw-2011-2017943394,4500000,is-sold,Sold prior to auction 17 Oct 2022,20221017,906/81 Macleay Street,POTTS POINT,NSW,2011,-33.8702621,151.224976,3,2,2,ApartmentUnitFlat,Apartment / Unit / Flat,False,0,m2,False
2018043141,listing,/135-19-tusculum-street-potts-point-nsw-2011-2018043141,500000,is-sold,Sold by private treaty 11 Oct 2022,20221011,135/19 Tusculum Street,POTTS POINT,NSW,2011,-33.871254,151.2238,1,1,-,ApartmentUnitFlat,Apartment / Unit / Flat,False,0,m2,False
2018053062,listing,/19-8a-wylde-street-potts-point-nsw-2011-2018053062,Price Withheld,is-sold,Sold prior to auction 21 Oct 2022,20221021,19/8A Wylde Street,POTTS POINT,NSW,2011,-33.86618,151.225586,2,1,1,ApartmentUnitFlat,Apartment / Unit / Flat,False,0,m2,False
2018066751,listing,/191-victoria-street-potts-point-nsw-2011-2018066751,Price Withheld,is-sold,Sold by private treaty 14 Oct 2022,20221014,191 Victoria Street,POTTS POINT,NSW,2011,-33.8735542,151.222214,5,4,-,BlockOfUnits,Block of Units,False,0,m2,False
2018069286,listing,/164-victoria-street-potts-point-nsw-2011-2018069286,4800000,is-sold,Sold at auction 13 Oct 2022,20221013,164 Victoria Street,POTTS POINT,NSW,2011,-33.87277,151.222839,5,2,2,House,House,False,230,m2,False
2018069688,listing,/207-1-boomerang-place-woolloomooloo-nsw-2011-2018069688,940000,is-sold,Sold by private treaty 18 Oct 2022,20221018,207/1 Boomerang Place,WOOLLOOMOOLOO,NSW,2011,-33.8736153,151.2146,2,1,1,ApartmentUnitFlat,Apartment / Unit / Flat,False,0,m2,False
2018079959,listing,/83-1-mcdonald-street-potts-point-nsw-2011-2018079959,585000,is-sold,Sold by private treaty 13 Oct 2022,20221013,83/1 McDonald Street,POTTS POINT,NSW,2011,-33.86823,151.224472,-,1,1,Studio,Studio,False,0,m2,False
2018084082,listing,/8-40a-42-macleay-street-potts-point-nsw-2011-2018084082,6000000,is-sold,Sold at auction 20 Oct 2022,20221020,8/40a - 42 Macleay Street,POTTS POINT,NSW,2011,-33.87045,151.225754,3,2,1,ApartmentUnitFlat,Apartment / Unit / Flat,False,0,m2,False
2018084337,listing,/903-73-victoria-street-potts-point-nsw-2011-2018084337,1150000,is-sold,Sold at auction 20 Oct 2022,20221020,903/73 Victoria Street,POTTS POINT,NSW,2011,-33.87064,151.2228,1,1,1,ApartmentUnitFlat,Apartment / Unit / Flat,False,0,m2,False
2018085844,listing,/10-3-5-st-neot-avenue-potts-point-nsw-2011-2018085844,1290000,is-sold,Sold prior to auction 20 Oct 2022,20221020,10/3-5 St Neot Avenue,POTTS POINT,NSW,2011,-33.86778,151.224411,2,1,1,ApartmentUnitFlat,Apartment / Unit / Flat,False,0,m2,False
2018086582,listing,/35-61-65-bayswater-road-rushcutters-bay-nsw-2011-2018086582,541000,is-sold,Sold at auction 19 Oct 2022,20221019,35/61-65 Bayswater Road,RUSHCUTTERS BAY,NSW,2011,-33.87563,151.224991,-,1,1,Studio,Studio,False,0,m2,False
2018094374,listing,/34-97-99-macleay-street-potts-point-nsw-2011-2018094374,Price Withheld,is-sold,Sold by private treaty 13 Oct 2022,20221013,34/97-99 Macleay Street,POTTS POINT,NSW,2011,-33.871666,151.224838,3,1,1,ApartmentUnitFlat,Apartment / Unit / Flat,False,0,m2,False
2018095133,listing,/98-103-victoria-street-potts-point-nsw-2011-2018095133,4250000,is-sold,Sold prior to auction 14 Oct 2022,20221014,98/103 Victoria Street,POTTS POINT,NSW,2011,-33.8708839,151.222717,3,2,2,ApartmentUnitFlat,Apartment / Unit / Flat,False,0,m2,False
2018099355,listing,/7-2-tusculum-st-potts-point-nsw-2011-2018099355,720000,is-sold,Sold prior to auction 21 Oct 2022,20221021,7/2 Tusculum St,POTTS POINT,NSW,2011,-33.87088,151.2243,1,1,-,ApartmentUnitFlat,Apartment / Unit / Flat,False,0,m2,False
2018105807,listing,/7-15-wylde-street-potts-point-nsw-2011-2018105807,480000,is-sold,Sold by private treaty 14 Oct 2022,20221014,7/15 Wylde Street,POTTS POINT,NSW,2011,-33.8670845,151.224838,-,1,1,Studio,Studio,False,0,m2,False
2018116310,listing,/301-14-macleay-street-elizabeth-bay-nsw-2011-2018116310,7750000,is-sold,Sold prior to auction 17 Oct 2022,20221017,301/14 Macleay Street,ELIZABETH BAY,NSW,2011,-33.8688736,151.225967,3,2,2,ApartmentUnitFlat,Apartment / Unit / Flat,False,0,m2,False
2018120247,listing,/575-6-cowper-wharf-roadway-woolloomooloo-nsw-2011-2018120247,Price Withheld,is-sold,Sold prior to auction 21 Oct 2022,20221021,575/6 Cowper Wharf Roadway,WOOLLOOMOOLOO,NSW,2011,-33.8671837,151.221191,2,2,-,ApartmentUnitFlat,Apartment / Unit / Flat,False,0,m2,False
2018132164,listing,/14-120-130-brougham-street-potts-point-nsw-2011-2018132164,770000,is-sold,Sold by private treaty 14 Oct 2022,20221014,14/120-130 Brougham Street,POTTS POINT,NSW,2011,-33.8740463,151.221786,1,1,-,ApartmentUnitFlat,Apartment / Unit / Flat,False,0,m2,False
2017783448,listing,/11-2-b-tusculum-street-potts-point-nsw-2011-2017783448,517500,is-sold,Sold by private treaty 10 Oct 2022,20221010,11/2 B Tusculum Street,POTTS POINT,NSW,2011,-33.8710175,151.224274,1,1,-,ApartmentUnitFlat,Apartment / Unit / Flat,False,0,m2,False
2017926167,listing,/2-4-mcdonald-street-potts-point-nsw-2011-2017926167,350000,is-sold,Sold by private treaty 28 Sep 2022,20220928,2/4 McDonald Street,POTTS POINT,NSW,2011,-33.86799,151.22525,-,1,-,Studio,Studio,False,0,m2,False
2017933071,listing,/50-40-44-victoria-street-potts-point-nsw-2011-2017933071,726000,is-sold,Sold by private treaty 20 Sep 2022,20220920,50/40-44 Victoria Street,POTTS POINT,NSW,2011,-33.8682137,151.223892,1,1,1,ApartmentUnitFlat,Apartment / Unit / Flat,False,0,m2,False
2017975540,listing,/232-6e-cowper-wharf-roadway-woolloomooloo-nsw-2011-2017975540,Price Withheld,is-sold,Sold at auction 30 Sep 2022,20220930,232/6E Cowper Wharf Roadway,WOOLLOOMOOLOO,NSW,2011,-33.8671875,151.221222,2,2,1,ApartmentUnitFlat,Apartment / Unit / Flat,False,0,m2,False
2018014731,listing,/7-93-99-palmer-street-woolloomooloo-nsw-2011-2018014731,1025000,is-sold,Sold by private treaty 01 Oct 2022,20221001,7/93-99 Palmer Street,WOOLLOOMOOLOO,NSW,2011,-33.8729362,151.217239,2,1,-,ApartmentUnitFlat,Apartment / Unit / Flat,False,0,m2,False
2018023681,listing,/301-2-6-birtley-place-elizabeth-bay-nsw-2011-2018023681,1305000,is-sold,Sold at auction 21 Sep 2022,20220921,301/2-6 Birtley Place,ELIZABETH BAY,NSW,2011,-33.8752251,151.223129,2,2,1,ApartmentUnitFlat,Apartment / Unit / Flat,False,0,m2,False
2018040035,listing,/14-10-wylde-street-potts-point-nsw-2011-2018040035,5100000,is-sold,Sold prior to auction 27 Sep 2022,20220927,14/10 Wylde Street,POTTS POINT,NSW,2011,-33.866436,151.225037,2,2,2,ApartmentUnitFlat,Apartment / Unit / Flat,False,0,m2,False
2018041283,listing,/12-riley-street-woolloomooloo-nsw-2011-2018041283,Price Withheld,is-sold,Sold at auction 24 Sep 2022,20220924,12 Riley Street,WOOLLOOMOOLOO,NSW,2011,-33.8726959,151.2159,3,1,-,House,House,False,99,m2,False
2018050670,listing,/1101-2-elizabeth-bay-road-elizabeth-bay-nsw-2011-2018050670,2060000,is-sold,Sold at auction 06 Oct 2022,20221006,1101/2 Elizabeth Bay Road,ELIZABETH BAY,NSW,2011,-33.8724365,151.226059,2,2,1,ApartmentUnitFlat,Apartment / Unit / Flat,False,0,m2,False
2018055705,listing,/16-3-mcdonald-street-potts-point-nsw-2011-2018055705,675000,is-sold,Sold at auction 08 Oct 2022,20221008,16/3 Mcdonald Street,POTTS POINT,NSW,2011,-33.8682137,151.224854,1,1,-,ApartmentUnitFlat,Apartment / Unit / Flat,False,0,m2,False
2018062641,listing,/11-2-waratah-street-rushcutters-bay-nsw-2011-2018062641,1600000,is-sold,Sold prior to auction 30 Sep 2022,20220930,11/2 Waratah Street,RUSHCUTTERS BAY,NSW,2011,-33.8733864,151.227936,2,1,-,ApartmentUnitFlat,Apartment / Unit / Flat,False,0,m2,False
2018072560,listing,/11-34-kings-cross-road-potts-point-nsw-2011-2018072560,455000,is-sold,Sold by private treaty 28 Sep 2022,20220928,11/34 Kings Cross Road,POTTS POINT,NSW,2011,-33.8756638,151.223831,-,1,-,Studio,Studio,False,0,m2,False
2018078968,listing,/29-9-ward-avenue-potts-point-nsw-2011-2018078968,317000,is-sold,Sold by private treaty 29 Sep 2022,20220929,29/9 Ward Avenue,POTTS POINT,NSW,2011,-33.873867,151.225189,-,1,-,Studio,Studio,False,23,m2,False
2018079711,listing,/406-50-58-macleay-street-elizabeth-bay-nsw-2011-2018079711,1030000,is-sold,Sold by private treaty 29 Sep 2022,20220929,406/50-58 Macleay Street,ELIZABETH BAY,NSW,2011,-33.8698,151.225525,1,1,1,ApartmentUnitFlat,Apartment / Unit / Flat,False,0,m2,False
2018087593,listing,/64-71-victoria-street-potts-point-nsw-2011-2018087593,1325000,is-sold,Sold prior to auction 06 Oct 2022,20221006,64/71 Victoria Street,POTTS POINT,NSW,2011,-33.8697624,151.223038,2,1,2,ApartmentUnitFlat,Apartment / Unit / Flat,False,64,m2,False
2018089631,listing,/3-29-35-roslyn-gardens-elizabeth-bay-nsw-2011-2018089631,1650000,is-sold,Sold by private treaty 23 Sep 2022,20220923,3/29-35 Roslyn Gardens,ELIZABETH BAY,NSW,2011,-33.8730049,151.227478,2,1,1,ApartmentUnitFlat,Apartment / Unit / Flat,False,0,m2,False
2018091416,listing,/30-97-99-macleay-street-potts-point-nsw-2011-2018091416,3400000,is-sold,Sold by private treaty 24 Sep 2022,20220924,30/97-99 Macleay Street,POTTS POINT,NSW,2011,-33.871666,151.224838,3,1,-,ApartmentUnitFlat,Apartment / Unit / Flat,False,0,m2,False
2018096320,listing,/10-6-challis-avenue-potts-point-nsw-2011-2018096320,1900000,is-sold,Sold by private treaty 21 Sep 2022,20220921,10/6 Challis Avenue,POTTS POINT,NSW,2011,-33.86859,151.224319,2,1,1,ApartmentUnitFlat,Apartment / Unit / Flat,False,0,m2,False
2018097648,listing,/20-97-99-macleay-street-potts-point-nsw-2011-2018097648,1480000,is-sold,Sold prior to auction 06 Oct 2022,20221006,20/97-99 Macleay Street,POTTS POINT,NSW,2011,-33.871666,151.224838,2,1,-,ApartmentUnitFlat,Apartment / Unit / Flat,False,76,m2,False
2018151366,listing,/10-6-challis-avenue-potts-point-nsw-2011-2018151366,1900000,is-sold,Sold by private treaty 21 Sep 2022,20220921,10/6 Challis Avenue,POTTS POINT,NSW,2011,-33.86859,151.224319,2,1,1,ApartmentUnitFlat,Apartment / Unit / Flat,False,0,m2,False
2017810355,listing,/141-brougham-street-woolloomooloo-nsw-2011-2017810355,4000000,is-sold,Sold by private treaty 06 Sep 2022,20220906,141 Brougham Street,WOOLLOOMOOLOO,NSW,2011,-33.8730659,151.221527,4,1,1,House,House,False,0,m2,False
2017854612,listing,/164-19-tusculum-street-potts-point-nsw-2011-2017854612,Price Withheld,is-sold,Sold by private treaty 13 Sep 2022,20220913,164/19 Tusculum Street,POTTS POINT,NSW,2011,-33.871254,151.2238,2,1,-,ApartmentUnitFlat,Apartment / Unit / Flat,False,0,m2,False
2017911774,listing,/23-8b-hughes-street-potts-point-nsw-2011-2017911774,Price Withheld,is-sold,Sold by private treaty 06 Sep 2022,20220906,23/8B Hughes Street,POTTS POINT,NSW,2011,-33.8711853,151.224518,1,1,-,ApartmentUnitFlat,Apartment / Unit / Flat,False,53,m2,False
2017920328,listing,/411-13-15-bayswater-road-potts-point-nsw-2011-2017920328,875000,is-sold,Sold by private treaty 01 Sep 2022,20220901,411/13-15 Bayswater Road,POTTS POINT,NSW,2011,-33.8752,151.223282,1,1,1,ApartmentUnitFlat,Apartment / Unit / Flat,False,0,m2,False
2017958753,listing,/24-3-ward-avenue-potts-point-nsw-2011-2017958753,535000,is-sold,Sold by private treaty 02 Sep 2022,20220902,24/3 Ward Avenue,POTTS POINT,NSW,2011,-33.87356,151.2254,1,1,-,ApartmentUnitFlat,Apartment / Unit / Flat,False,0,m2,False
2017960604,listing,/1902-73-victoria-street-potts-point-nsw-2011-2017960604,2200000,is-sold,Sold by private treaty 14 Sep 2022,20220914,1902/73 Victoria Street,POTTS POINT,NSW,2011,-33.87065,151.222885,2,2,1,ApartmentUnitFlat,Apartment / Unit / Flat,False,0,m2,False
2017981016,listing,/43-64-bayswater-road-rushcutters-bay-nsw-2011-2017981016,390000,is-sold,Sold by private treaty 01 Sep 2022,20220901,43/64 Bayswater Road,RUSHCUTTERS BAY,NSW,2011,-33.8758469,151.226364,-,1,-,Studio,Studio,False,0,m2,False
2018006458,listing,/6-150-forbes-street-woolloomooloo-nsw-2011-2018006458,Price Withheld,is-sold,Sold prior to auction 01 Sep 2022,20220901,6/150 Forbes Street,WOOLLOOMOOLOO,NSW,2011,-33.8735542,151.21962,1,1,-,ApartmentUnitFlat,Apartment / Unit / Flat,False,0,m2,False
2018009343,listing,/2c-6-macleay-street-potts-point-nsw-2011-2018009343,1080000,is-sold,Sold at auction 13 Sep 2022,20220913,2C/6 Macleay Street,POTTS POINT,NSW,2011,-33.8682327,151.22612,2,1,1,ApartmentUnitFlat,Apartment / Unit / Flat,False,0,m2,False
2018010722,listing,/110-6-8-ward-avenue-potts-point-nsw-2011-2018010722,470000,is-sold,Sold by private treaty 09 Sep 2022,20220909,110/6-8 Ward Avenue,POTTS POINT,NSW,2011,-33.8739433,151.2257,1,1,-,ApartmentUnitFlat,Apartment / Unit / Flat,False,0,m2,False
2018011131,listing,/6f-153-169-bayswater-road-rushcutters-bay-nsw-2011-2018011131,720000,is-sold,Sold at auction 02 Sep 2022,20220902,6F/153-169 Bayswater Road,RUSHCUTTERS BAY,NSW,2011,-33.87655,151.229156,1,1,1,ApartmentUnitFlat,Apartment / Unit / Flat,False,0,m2,False
2018022868,listing,/5-3-5-greenknowe-avenue-elizabeth-bay-nsw-2011-2018022868,525000,is-sold,Sold by private treaty 14 Sep 2022,20220914,5/3-5 Greenknowe Avenue,ELIZABETH BAY,NSW,2011,-33.8717728,151.225754,-,1,-,Studio,Studio,False,0,m2,False
2018023706,listing,/7-2-mcdonald-street-potts-point-nsw-2011-2018023706,536000,is-sold,Sold prior to auction 09 Sep 2022,20220909,7/2 McDonald Street,POTTS POINT,NSW,2011,-33.8679543,151.225037,-,1,-,Studio,Studio,False,0,m2,False
2018050632,listing,/15-8-greenknowe-avenue-elizabeth-bay-nsw-2011-2018050632,1675000,is-sold,Sold by private treaty 06 Sep 2022,20220906,15/8 Greenknowe Avenue,ELIZABETH BAY,NSW,2011,-33.8714561,151.226868,1,1,1,ApartmentUnitFlat,Apartment / Unit / Flat,False,0,m2,False
2018052640,listing,/508-50-macleay-street-potts-point-nsw-2011-2018052640,1035000,is-sold,Sold by private treaty 06 Sep 2022,20220906,508/50 Macleay Street,POTTS POINT,NSW,2011,-33.8719063,151.2252,1,1,1,ApartmentUnitFlat,Apartment / Unit / Flat,False,0,m2,False
2018055597,listing,/5-2-clement-street-rushcutters-bay-nsw-2011-2018055597,2100000,is-sold,Sold by private treaty 17 Sep 2022,20220917,5/2 Clement Street,RUSHCUTTERS BAY,NSW,2011,-33.8757477,151.227478,3,2,2,ApartmentUnitFlat,Apartment / Unit / Flat,False,0,m2,False
2018057345,listing,/10-16-20-kings-cross-road-potts-point-nsw-2011-2018057345,670000,is-sold,Sold by private treaty 08 Sep 2022,20220908,10/16-20 Kings Cross Road,POTTS POINT,NSW,2011,-33.8755836,151.223175,2,1,-,ApartmentUnitFlat,Apartment / Unit / Flat,False,0,m2,False
2018061162,listing,/17-5-7-the-esplande-elizabeth-bay-nsw-2011-2018061162,390000,is-sold,Sold by private treaty 09 Sep 2022,20220909,17/5-7 The Esplande,ELIZABETH BAY,NSW,2011,-33.87093,151.22908,-,1,-,Studio,Studio,False,0,m2,False
2018067497,listing,/21-40-44-victoria-street-potts-point-nsw-2011-2018067497,765000,is-sold,Sold by private treaty 14 Sep 2022,20220914,21/40-44 Victoria Street,POTTS POINT,NSW,2011,-33.8682137,151.223892,-,1,-,Studio,Studio,False,0,m2,False
2018070807,listing,/306-3-5-greenknowe-avenue-elizabeth-bay-nsw-2011-2018070807,525000,is-sold,Sold by private treaty 15 Sep 2022,20220915,306/3-5 Greenknowe Avenue,ELIZABETH BAY,NSW,2011,-33.8717728,151.225754,-,1,-,ApartmentUnitFlat,Apartment / Unit / Flat,False,0,m2,False
2017682248,listing,/7-18-springfield-avenue-potts-point-nsw-2011-2017682248,360000,is-sold,Sold by private treaty 26 Aug 2022,20220826,7/18 Springfield Avenue,POTTS POINT,NSW,2011,-33.8725357,151.2241,-,1,-,Studio,Studio,False,0,m2,False
2017736779,listing,/208-1-boomerang-place-woolloomooloo-nsw-2011-2017736779,690000,is-sold,Sold by private treaty 30 Aug 2022,20220830,208/1 Boomerang Place,WOOLLOOMOOLOO,NSW,2011,-33.8736153,151.2146,1,1,-,ApartmentUnitFlat,Apartment / Unit / Flat,False,0,m2,False
2017782377,listing,/12a-5-wylde-street-potts-point-nsw-2011-2017782377,Price Withheld,is-sold,Sold by private treaty 24 Aug 2022,20220824,12A/5 Wylde Street,POTTS POINT,NSW,2011,-33.8663864,151.224609,1,1,-,ApartmentUnitFlat,Apartment / Unit / Flat,False,0,m2,False
2017898341,listing,/7-1-hughes-street-potts-point-nsw-2011-2017898341,500000,is-sold,Sold by private treaty 24 Aug 2022,20220824,7/1 Hughes Street,POTTS POINT,NSW,2011,-33.8715,151.223343,1,1,-,ApartmentUnitFlat,Apartment / Unit / Flat,False,0,m2,False
2017916290,listing,/304-6-cowper-wharf-roadway-woolloomooloo-nsw-2011-2017916290,Price Withheld,is-sold,Sold by private treaty 27 Aug 2022,20220827,304/6 Cowper Wharf Roadway,WOOLLOOMOOLOO,NSW,2011,-33.8671837,151.221191,1,1,-,ApartmentUnitFlat,Apartment / Unit / Flat,False,0,m2,False
2017923189,listing,/203-12-ithaca-road-elizabeth-bay-nsw-2011-2017923189,1525000,is-sold,Sold by private treaty 27 Aug 2022,20220827,203/12 Ithaca Road,ELIZABETH BAY,NSW,2011,-33.87181,151.228882,2,1,1,ApartmentUnitFlat,Apartment / Unit / Flat,False,0,m2,False
2017934229,listing,/25-16-macleay-street-potts-point-nsw-2011-2017934229,1160000,is-sold,Sold by private treaty 30 Aug 2022,20220830,25/16 Macleay Street,POTTS POINT,NSW,2011,-33.86912,151.225861,2,1,-,ApartmentUnitFlat,Apartment / Unit / Flat,False,0,m2,False
2017935842,listing,/504-50-58-macleay-street-elizabeth-bay-nsw-2011-2017935842,905000,is-sold,Sold by private treaty 25 Aug 2022,20220825,504/50-58 Macleay Street,ELIZABETH BAY,NSW,2011,-33.8721,151.225586,1,1,1,ApartmentUnitFlat,Apartment / Unit / Flat,False,0,m2,False
2017943491,listing,/307-37-bayswater-road-potts-point-nsw-2011-2017943491,1800000,is-sold,Sold by private treaty 23 Aug 2022,20220823,307/37 Bayswater Road,POTTS POINT,NSW,2011,-33.8753662,151.224213,2,2,2,ApartmentUnitFlat,Apartment / Unit / Flat,False,0,m2,False
2017947659,listing,/3-119-macleay-street-potts-point-nsw-2011-2017947659,1200000,is-sold,Sold by private treaty 25 Aug 2022,20220825,3/119 Macleay Street,POTTS POINT,NSW,2011,-33.87258,151.224609,2,1,-,ApartmentUnitFlat,Apartment / Unit / Flat,False,0,m2,False
2017962396,listing,/36-8-greenknowe-avenue-elizabeth-bay-nsw-2011-2017962396,2500000,is-sold,Sold at auction 25 Aug 2022,20220825,36/8 Greenknowe Avenue,ELIZABETH BAY,NSW,2011,-33.8714561,151.226868,1,1,1,ApartmentUnitFlat,Apartment / Unit / Flat,False,0,m2,False
2017976487,listing,/1405-73-victoria-street-potts-point-nsw-2011-2017976487,1350000,is-sold,Sold by private treaty 31 Aug 2022,20220831,1405/73 Victoria Street,POTTS POINT,NSW,2011,-33.87068,151.2228,2,2,-,ApartmentUnitFlat,Apartment / Unit / Flat,False,0,m2,False
2017979710,listing,/71-95-elizabeth-bay-road-elizabeth-bay-nsw-2011-2017979710,6400000,is-sold,Sold prior to auction 23 Aug 2022,20220823,71/95 Elizabeth Bay Road,ELIZABETH BAY,NSW,2011,-33.87151,151.2305,3,2,2,ApartmentUnitFlat,Apartment / Unit / Flat,False,0,m2,False
2017991687,listing,/125-127-cathedral-street-woolloomooloo-nsw-2011-2017991687,Price Withheld,is-sold,Sold at auction 30 Aug 2022,20220830,125-127 Cathedral Street,WOOLLOOMOOLOO,NSW,2011,-33.87266,151.2173,8,4,2,House,House,False,198,m2,False
2017995235,listing,/10-29-35-roslyn-gardens-elizabeth-bay-nsw-2011-2017995235,1685000,is-sold,Sold at auction 26 Aug 2022,20220826,10/29-35 Roslyn Gardens,ELIZABETH BAY,NSW,2011,-33.8730049,151.227478,2,1,1,ApartmentUnitFlat,Apartment / Unit / Flat,False,0,m2,False
2017996823,listing,/55-17-elizabeth-bay-road-elizabeth-bay-nsw-2011-2017996823,670000,is-sold,Sold by private treaty 23 Aug 2022,20220823,55/17 Elizabeth Bay Road,ELIZABETH BAY,NSW,2011,-33.87295,151.226776,1,1,-,ApartmentUnitFlat,Apartment / Unit / Flat,False,0,m2,False
2017996958,listing,/16-17-elizabeth-bay-road-elizabeth-bay-nsw-2011-2017996958,770000,is-sold,Sold by private treaty 23 Aug 2022,20220823,16/17 Elizabeth Bay Road,ELIZABETH BAY,NSW,2011,-33.87295,151.226776,2,1,-,ApartmentUnitFlat,Apartment / Unit / Flat,False,0,m2,False
2018001341,listing,/18-8-onslow-ave-elizabeth-bay-nsw-2011-2018001341,1540000,is-sold,Sold prior to auction 23 Aug 2022,20220823,18/8 Onslow Ave,ELIZABETH BAY,NSW,2011,-33.8703423,151.227036,2,1,-,ApartmentUnitFlat,Apartment / Unit / Flat,False,0,m2,False
2018021373,listing,/1403-81-macleay-street-potts-point-nsw-2011-2018021373,7300000,is-sold,Sold by private treaty 23 Aug 2022,20220823,1403/81 Macleay Street,POTTS POINT,NSW,2011,-33.8702621,151.224976,3,2,2,ApartmentUnitFlat,Apartment / Unit / Flat,False,0,m2,False
2018024665,listing,/602-1a-tusculum-street-potts-point-nsw-2011-2018024665,1800000,is-sold,Sold prior to auction 29 Aug 2022,20220829,602/1A Tusculum Street,POTTS POINT,NSW,2011,-33.87031,151.224442,1,1,1,ApartmentUnitFlat,Apartment / Unit / Flat,False,0,m2,False
2017651992,listing,/12-19-23-forbes-street-woolloomooloo-nsw-2011-2017651992,392500,is-sold,Sold by private treaty 05 Aug 2022,20220805,12/19-23 Forbes Street,WOOLLOOMOOLOO,NSW,2011,-33.87034,151.219543,-,1,1,Studio,Studio,False,0,m2,False
2017758185,listing,/9-5-wylde-street-potts-point-nsw-2011-2017758185,Price Withheld,is-sold,Sold by private treaty 06 Aug 2022,20220806,9/5 Wylde Street,POTTS POINT,NSW,2011,-33.8663864,151.224609,1,1,-,ApartmentUnitFlat,Apartment / Unit / Flat,False,0,m2,False
2017784491,listing,/7-2-kurraghein-avenue-rushcutters-bay-nsw-2011-2017784491,405000,is-sold,Sold by private treaty 12 Aug 2022,20220812,7/2 Kurraghein Avenue,RUSHCUTTERS BAY,NSW,2011,-33.8756065,151.226776,-,1,-,Studio,Studio,False,0,m2,False
2017785161,listing,/2-1-grantham-street-potts-point-nsw-2011-2017785161,10000000,is-sold,Sold prior to auction 09 Aug 2022,20220809,2/1 Grantham Street,POTTS POINT,NSW,2011,-33.8672142,151.224243,3,3,2,ApartmentUnitFlat,Apartment / Unit / Flat,False,0,m2,False
2017839376,listing,/2a-153-bayswater-road-rushcutters-bay-nsw-2011-2017839376,Price Withheld,is-sold,Sold by private treaty 11 Aug 2022,20220811,2A/153 Bayswater Road,RUSHCUTTERS BAY,NSW,2011,-33.8764572,151.228943,2,2,1,ApartmentUnitFlat,Apartment / Unit / Flat,False,0,m2,False
2017870227,listing,/405-18-bayswater-road-potts-point-nsw-2011-2017870227,Price Withheld,is-sold,Sold by private treaty 11 Aug 2022,20220811,405/18 Bayswater Road,POTTS POINT,NSW,2011,-33.8747749,151.223663,1,1,-,ApartmentUnitFlat,Apartment / Unit / Flat,False,0,m2,False
2017897715,listing,/unit-8-16-clement-st-rushcutters-bay-nsw-2011-2017897715,560000,is-sold,Sold by private treaty 20 Aug 2022,20220820,Unit 8/16 Clement St,RUSHCUTTERS BAY,NSW,2011,-33.87562,151.2266,1,1,-,ApartmentUnitFlat,Apartment / Unit / Flat,False,0,m2,False
2017915411,listing,/114-19-tusculum-street-potts-point-nsw-2011-2017915411,515500,is-sold,Sold by private treaty 19 Aug 2022,20220819,114/19 Tusculum Street,POTTS POINT,NSW,2011,-33.871254,151.2238,1,1,-,ApartmentUnitFlat,Apartment / Unit / Flat,False,0,m2,False
2017917475,listing,/2-93-99-palmer-street-woolloomooloo-nsw-2011-2017917475,670000,is-sold,Sold at auction 13 Aug 2022,20220813,2/93-99 Palmer Street,WOOLLOOMOOLOO,NSW,2011,-33.8729362,151.217239,1,1,-,ApartmentUnitFlat,Apartment / Unit / Flat,False,66,m2,False
2017926766,listing,/163-19-tusculum-street-potts-point-nsw-2011-2017926766,478000,is-sold,Sold by private treaty 15 Aug 2022,20220815,163/19 Tusculum Street,POTTS POINT,NSW,2011,-33.871254,151.2238,1,1,-,ApartmentUnitFlat,Apartment / Unit / Flat,False,0,m2,False
2017931384,listing,/206-1a-clement-place-rushcutters-bay-nsw-2011-2017931384,2700000,is-sold,Sold by private treaty 23 Aug 2022,20220823,206/1a Clement Place,RUSHCUTTERS BAY,NSW,2011,-33.87557,151.22908,3,3,2,ApartmentUnitFlat,Apartment / Unit / Flat,False,0,m2,False
2017931528,listing,/16-130-brougham-street-potts-point-nsw-2011-2017931528,Price Withheld,is-sold,Sold at auction 06 Aug 2022,20220806,16/130 Brougham Street,POTTS POINT,NSW,2011,-33.8740463,151.221786,2,1,-,ApartmentUnitFlat,Apartment / Unit / Flat,False,0,m2,False
2017935115,listing,/33-4-ithaca-road-elizabeth-bay-nsw-2011-2017935115,775000,is-sold,Sold at auction 06 Aug 2022,20220806,33/4 Ithaca Road,ELIZABETH BAY,NSW,2011,-33.87104,151.228683,1,1,-,ApartmentUnitFlat,Apartment / Unit / Flat,False,53,m2,False
2017939038,listing,/5-2-holdsworth-avenue-rushcutters-bay-nsw-2011-2017939038,2800000,is-sold,Sold prior to auction 05 Aug 2022,20220805,5/2 Holdsworth Avenue,RUSHCUTTERS BAY,NSW,2011,-33.87302,151.22879,2,2,1,ApartmentUnitFlat,Apartment / Unit / Flat,False,0,m2,False
2017949766,listing,/7-15-billyard-avenue-elizabeth-bay-nsw-2011-2017949766,2550000,is-sold,Sold at auction 18 Aug 2022,20220818,7/15 Billyard Avenue,ELIZABETH BAY,NSW,2011,-33.8688622,151.22641,2,1,-,ApartmentUnitFlat,Apartment / Unit / Flat,False,0,m2,False
2017956963,listing,/201-1a-tusculum-street-potts-point-nsw-2011-2017956963,2300000,is-sold,Sold prior to auction 12 Aug 2022,20220812,201/1a Tusculum Street,POTTS POINT,NSW,2011,-33.87031,151.224442,2,2,1,ApartmentUnitFlat,Apartment / Unit / Flat,False,0,m2,False
2017979122,listing,/27-16-20-kings-cross-road-potts-point-nsw-2011-2017979122,2000000,is-sold,Sold prior to auction 12 Aug 2022,20220812,27/16-20 Kings Cross Road,POTTS POINT,NSW,2011,-33.8755836,151.223175,2,2,1,ApartmentUnitFlat,Apartment / Unit / Flat,False,0,m2,False
2017981943,listing,/45a-100-elizabeth-bay-road-elizabeth-bay-nsw-2011-2017981943,1650000,is-sold,Sold prior to auction 19 Aug 2022,20220819,45A/100 Elizabeth Bay Road,ELIZABETH BAY,NSW,2011,-33.871273,151.229691,2,2,1,ApartmentUnitFlat,Apartment / Unit / Flat,False,0,m2,False
2017993525,listing,/811-28-macleay-street-potts-point-nsw-2011-2017993525,513000,is-sold,Sold by private treaty 03 Aug 2022,20220803,811/28 Macleay Street,POTTS POINT,NSW,2011,-33.86986,151.2258,-,1,-,Studio,Studio,False,0,m2,False
2018025500,listing,/8d-153-bayswater-road-rushcutters-bay-nsw-2011-2018025500,1225000,is-sold,Sold by private treaty 22 Aug 2022,20220822,8D/153 Bayswater Road,RUSHCUTTERS BAY,NSW,2011,-33.8764572,151.228943,2,2,1,ApartmentUnitFlat,Apartment / Unit / Flat,False,0,m2,False
2017597626,listing,/45-67-cowper-wharf-roadway-woolloomooloo-nsw-2011-2017597626,Price Withheld,is-sold,Sold by private treaty 26 Jul 2022,20220726,45/67 Cowper Wharf Roadway,WOOLLOOMOOLOO,NSW,2011,-33.86939,151.222183,2,2,2,ApartmentUnitFlat,Apartment / Unit / Flat,False,0,m2,False
2017797523,listing,/21-66-bayswater-road-rushcutters-bay-nsw-2011-2017797523,490000,is-sold,Sold by private treaty 28 Jul 2022,20220728,21/66 Bayswater Road,RUSHCUTTERS BAY,NSW,2011,-33.8759079,151.2265,-,1,-,Studio,Studio,False,0,m2,False
2017801581,listing,/52-victoria-street-potts-point-nsw-2011-2017801581,Price Withheld,is-sold,Sold by private treaty 22 Jul 2022,20220722,52 Victoria Street,POTTS POINT,NSW,2011,-33.8686256,151.2237,4,3,1,House,House,False,0,m2,False
2017832577,listing,/200-victoria-street-potts-point-nsw-2011-2017832577,1438000,is-sold,Sold by private treaty 20 Jul 2022,20220720,200 Victoria Street,POTTS POINT,NSW,2011,-33.87363,151.222656,3,1,-,Terrace,Terrace,False,0,m2,False
2017842286,listing,/355-6-cowper-wharf-road-woolloomooloo-nsw-2011-2017842286,710000,is-sold,Sold by private treaty 27 Jul 2022,20220727,355/6 Cowper Wharf Road,WOOLLOOMOOLOO,NSW,2011,-33.8671837,151.221191,-,1,-,ApartmentUnitFlat,Apartment / Unit / Flat,False,0,m2,False
2017843191,listing,/15-119-macleay-street-potts-point-nsw-2011-2017843191,1550000,is-sold,Sold by private treaty 19 Jul 2022,20220719,15/119 Macleay Street,POTTS POINT,NSW,2011,-33.87258,151.224609,2,2,1,ApartmentUnitFlat,Apartment / Unit / Flat,False,0,m2,False
2017850686,listing,/4-1-mcdonald-street-potts-point-nsw-2011-2017850686,570000,is-sold,Sold by private treaty 18 Jul 2022,20220718,4/1 McDonald Street,POTTS POINT,NSW,2011,-33.86823,151.224472,-,1,-,Studio,Studio,False,0,m2,False
2017862370,listing,/206-2a-elizabeth-bay-road-elizabeth-bay-nsw-2011-2017862370,900000,is-sold,Sold by private treaty 27 Jul 2022,20220727,206/2a Elizabeth Bay Road,ELIZABETH BAY,NSW,2011,-33.8724136,151.226059,1,1,-,ApartmentUnitFlat,Apartment / Unit / Flat,False,0,m2,False
2017879070,listing,/1-9-the-esplanade-elizabeth-bay-nsw-2011-2017879070,Price Withheld,is-sold,Sold by private treaty 19 Jul 2022,20220719,1/9 The Esplanade,ELIZABETH BAY,NSW,2011,-33.8713951,151.229141,1,1,-,ApartmentUnitFlat,Apartment / Unit / Flat,False,0,m2,False
2017881935,listing,/168-71-victoria-street-potts-point-nsw-2011-2017881935,6400000,is-sold,Sold at auction 16 Jul 2022,20220716,168/71 Victoria Street,POTTS POINT,NSW,2011,-33.8697624,151.223038,3,2,2,ApartmentUnitFlat,Apartment / Unit / Flat,False,0,m2,False
2017891305,listing,/1-3-mcdonald-street-potts-point-nsw-2011-2017891305,690000,is-sold,Sold by private treaty 18 Jul 2022,20220718,1/3 McDonald Street,POTTS POINT,NSW,2011,-33.8682137,151.224854,1,1,-,ApartmentUnitFlat,Apartment / Unit / Flat,False,0,m2,False
2017891478,listing,/1305-226-victoria-street-potts-point-nsw-2011-2017891478,988000,is-sold,Sold by private treaty 23 Jul 2022,20220723,1305/226 Victoria Street,POTTS POINT,NSW,2011,-33.8743935,151.222458,1,1,-,ApartmentUnitFlat,Apartment / Unit / Flat,False,59,m2,False
2017897446,listing,/3-70-bayswater-road-rushcutters-bay-nsw-2011-2017897446,641000,is-sold,Sold at auction 23 Jul 2022,20220723,3/70 Bayswater Road,RUSHCUTTERS BAY,NSW,2011,-33.8760033,151.226837,1,1,-,ApartmentUnitFlat,Apartment / Unit / Flat,False,0,m2,False
2017897448,listing,/14-11-ward-avenue-potts-point-nsw-2011-2017897448,572000,is-sold,Sold at auction 30 Jul 2022,20220730,14/11 Ward Avenue,POTTS POINT,NSW,2011,-33.8738823,151.224991,1,1,-,ApartmentUnitFlat,Apartment / Unit / Flat,False,0,m2,False
2017900855,listing,/1006-1-boomerang-place-woolloomooloo-nsw-2011-2017900855,775000,is-sold,Sold by private treaty 21 Jul 2022,20220721,1006/1 Boomerang Place,WOOLLOOMOOLOO,NSW,2011,-33.8736153,151.2146,1,1,-,ApartmentUnitFlat,Apartment / Unit / Flat,False,0,m2,False
2017921287,listing,/9-2-holdsworth-avenue-rushcutters-bay-nsw-2011-2017921287,2950000,is-sold,Sold prior to auction 02 Aug 2022,20220802,9/2 Holdsworth Avenue,RUSHCUTTERS BAY,NSW,2011,-33.87302,151.22879,2,2,2,ApartmentUnitFlat,Apartment / Unit / Flat,False,0,m2,False
2017923142,listing,/1-6-mcdonald-street-potts-point-nsw-2011-2017923142,2000000,is-sold,Sold by private treaty 28 Jul 2022,20220728,1/6 McDonald Street,POTTS POINT,NSW,2011,-33.8680153,151.225525,3,2,-,ApartmentUnitFlat,Apartment / Unit / Flat,False,0,m2,False
2017937193,listing,/41-16-kings-cross-road-potts-point-nsw-2011-2017937193,900000,is-sold,Sold by private treaty 25 Jul 2022,20220725,41/16 Kings Cross Road,POTTS POINT,NSW,2011,-33.8755836,151.223175,2,1,-,ApartmentUnitFlat,Apartment / Unit / Flat,False,0,m2,False
2017964421,listing,/167-brougham-street-woolloomooloo-nsw-2011-2017964421,Price Withheld,is-sold,Sold by private treaty 28 Jul 2022,20220728,167 Brougham Street,WOOLLOOMOOLOO,NSW,2011,-33.8740578,151.221329,3,2,2,ApartmentUnitFlat,Apartment / Unit / Flat,False,0,m2,False
2017967502,listing,/6b-51-57-bayswater-road-rushcutters-bay-nsw-2011-2017967502,520000,is-sold,Sold by private treaty 29 Jul 2022,20220729,6B/51-57 Bayswater Road,RUSHCUTTERS BAY,NSW,2011,-33.8753777,151.224686,-,1,1,Studio,Studio,False,0,m2,False
2016324086,listing,/402-18-28-neild-avenue-rushcutters-bay-nsw-2011-2016324086,2425000,is-sold,Sold by private treaty 12 Jul 2022,20220712,402/18-28 Neild Avenue,RUSHCUTTERS BAY,NSW,2011,-33.87872,151.227631,3,2,2,ApartmentUnitFlat,Apartment / Unit / Flat,False,0,m2,False
2017540812,listing,/25-67-cowper-wharf-roadway-woolloomooloo-nsw-2011-2017540812,1410000,is-sold,Sold at auction 06 Jul 2022,20220706,25/67 Cowper Wharf Roadway,WOOLLOOMOOLOO,NSW,2011,-33.86939,151.222183,2,2,2,ApartmentUnitFlat,Apartment / Unit / Flat,False,0,m2,False
2017603292,listing,/58-60-kings-cross-road-rushcutters-bay-nsw-2011-2017603292,1875000,is-sold,Sold by private treaty 15 Jul 2022,20220715,58-60 Kings Cross Road,RUSHCUTTERS BAY,NSW,2011,-33.8758278,151.225113,1,2,-,House,House,False,0,m2,False
2017615569,listing,/22-1a-elizabeth-bay-road-elizabeth-bay-nsw-2011-2017615569,Price Withheld,is-sold,Sold by private treaty 11 Jul 2022,20220711,22/1A Elizabeth Bay Road,ELIZABETH BAY,NSW,2011,-33.87314,151.225525,1,1,-,ApartmentUnitFlat,Apartment / Unit / Flat,False,0,m2,False
2017623494,listing,/lot-76-68-72-roslyn-gdns-rushcutters-bay-nsw-2011-2017623494,150000,is-sold,Sold by private treaty 15 Jul 2022,20220715,Lot 76/68-72 Roslyn Gdns,RUSHCUTTERS BAY,NSW,2011,-33.8748741,151.227158,-,-,1,Studio,Studio,False,0,m2,False
2017672110,listing,/21-21-st-neot-avenue-potts-point-nsw-2011-2017672110,Price Withheld,is-sold,Sold by private treaty 04 Jul 2022,20220704,21/21 St Neot Avenue,POTTS POINT,NSW,2011,-33.86768,151.2253,1,1,-,ApartmentUnitFlat,Apartment / Unit / Flat,False,0,m2,False
2017743610,listing,/107-1a-tusculum-street-potts-point-nsw-2011-2017743610,1855000,is-sold,Sold by private treaty 13 Jul 2022,20220713,107/1A Tusculum Street,POTTS POINT,NSW,2011,-33.87031,151.224442,2,2,1,ApartmentUnitFlat,Apartment / Unit / Flat,False,0,m2,False
2017752796,listing,/17-5-7-earl-place-potts-point-nsw-2011-2017752796,410000,is-sold,Sold by private treaty 06 Jul 2022,20220706,17/5-7 Earl Place,POTTS POINT,NSW,2011,-33.8734,151.223175,-,1,-,Studio,Studio,False,0,m2,False
2017820730,listing,/4-20-springfield-ave-potts-point-nsw-2011-2017820730,530000,is-sold,Sold by private treaty 05 Jul 2022,20220705,4/20 Springfield Ave,POTTS POINT,NSW,2011,-33.8726654,151.224045,1,1,-,ApartmentUnitFlat,Apartment / Unit / Flat,False,0,m2,False
2017846684,listing,/5-107-victoria-street-potts-point-nsw-2011-2017846684,903000,is-sold,Sold at auction 15 Jul 2022,20220715,5/107 Victoria Street,POTTS POINT,NSW,2011,-33.87084,151.22287,2,1,-,ApartmentUnitFlat,Apartment / Unit / Flat,False,0,m2,False
2017851788,listing,/101-5-ward-avenue-potts-point-nsw-2011-2017851788,520000,is-sold,Sold by private treaty 11 Jul 2022,20220711,101/5 Ward Avenue,POTTS POINT,NSW,2011,-33.87367,151.22525,1,1,-,ApartmentUnitFlat,Apartment / Unit / Flat,False,0,m2,False
2017854787,listing,/702-12-macleay-street-elizabeth-bay-nsw-2011-2017854787,Price Withheld,is-sold,Sold by private treaty 04 Jul 2022,20220704,702/12 Macleay Street,ELIZABETH BAY,NSW,2011,-33.8686371,151.226,1,1,-,ApartmentUnitFlat,Apartment / Unit / Flat,False,0,m2,False
2017854912,listing,/577-6c-cowper-wharf-roadway-woolloomooloo-nsw-2011-2017854912,Price Withheld,is-sold,Sold at auction 09 Jul 2022,20220709,577/6c Cowper Wharf Roadway,WOOLLOOMOOLOO,NSW,2011,-33.8671837,151.221191,2,2,-,ApartmentUnitFlat,Apartment / Unit / Flat,False,0,m2,False
2017860206,listing,/3-6-challis-avenue-potts-point-nsw-2011-2017860206,2875000,is-sold,Sold at auction 16 Jul 2022,20220716,3/6 Challis Avenue,POTTS POINT,NSW,2011,-33.86859,151.224319,2,2,2,ApartmentUnitFlat,Apartment / Unit / Flat,False,0,m2,False
2017861642,listing,/25-67-cowper-wharf-road-woolloomooloo-nsw-2011-2017861642,1410000,is-sold,Sold by private treaty 06 Jul 2022,20220706,25/67 Cowper Wharf Road,WOOLLOOMOOLOO,NSW,2011,-33.86939,151.222183,2,2,2,ApartmentUnitFlat,Apartment / Unit / Flat,False,107,m2,False
2017862986,listing,/102-14-macleay-street-potts-point-nsw-2011-2017862986,5200000,is-sold,Sold by private treaty 01 Jul 2022,20220701,102/14 Macleay Street,POTTS POINT,NSW,2011,-33.8688736,151.225967,2,2,1,ApartmentUnitFlat,Apartment / Unit / Flat,False,0,m2,False
2017897477,listing,/30-7-greenknowe-avenue-elizabeth-bay-nsw-2011-2017897477,840000,is-sold,Sold by private treaty 15 Jul 2022,20220715,30/7 Greenknowe Avenue,ELIZABETH BAY,NSW,2011,-33.87178,151.226028,1,1,-,ApartmentUnitFlat,Apartment / Unit / Flat,False,0,m2,False
2017904786,listing,/203-2-springfield-avenue-potts-point-nsw-2011-2017904786,Price Withheld,is-sold,Sold prior to auction 12 Jul 2022,20220712,203/2 Springfield Avenue,POTTS POINT,NSW,2011,-33.87231,151.2236,2,1,1,ApartmentUnitFlat,Apartment / Unit / Flat,False,0,m2,False
2017927322,listing,/1-20-macleay-street-potts-point-nsw-2011-2017927322,Price Withheld,is-sold,Sold by private treaty 11 Jul 2022,20220711,1/20 Macleay Street,POTTS POINT,NSW,2011,-33.86947,151.225815,1,1,-,ApartmentUnitFlat,Apartment / Unit / Flat,False,0,m2,False
2018199747,listing,/5-107-victoria-street-potts-point-nsw-2011-2018199747,903000,is-sold,Sold at auction 09 Jul 2022,20220709,5/107 Victoria Street,POTTS POINT,NSW,2011,-33.87084,151.22287,2,1,-,ApartmentUnitFlat,Apartment / Unit / Flat,False,0,m2,False
2017521806,listing,/205-87-91-cathedral-street-woolloomooloo-nsw-2011-2017521806,515000,is-sold,Sold by private treaty 30 Jun 2022,20220630,205/87-91 Cathedral Street,WOOLLOOMOOLOO,NSW,2011,-33.8725052,151.2162,1,1,-,ApartmentUnitFlat,Apartment / Unit / Flat,False,0,m2,False
2017603956,listing,/19-10-earl-place-potts-point-nsw-2011-2017603956,1130000,is-sold,Sold by private treaty 13 Jun 2022,20220613,19/10 Earl Place,POTTS POINT,NSW,2011,-33.87356,151.223022,2,1,1,ApartmentUnitFlat,Apartment / Unit / Flat,False,75,m2,False
2017614650,listing,/407-5-ward-avenue-potts-point-nsw-2011-2017614650,300000,is-sold,Sold by private treaty 29 Jun 2022,20220629,407/5 Ward Avenue,POTTS POINT,NSW,2011,-33.87367,151.22525,-,1,-,ApartmentUnitFlat,Apartment / Unit / Flat,False,0,m2,False
2017694657,listing,/97-103-victoria-street-potts-point-nsw-2011-2017694657,4700000,is-sold,Sold by private treaty 10 Jun 2022,20220610,97/103 Victoria Street,POTTS POINT,NSW,2011,-33.8708839,151.222717,3,2,2,ApartmentUnitFlat,Apartment / Unit / Flat,False,249,m2,False
2017706325,listing,/209-50-macleay-street-potts-point-nsw-2011-2017706325,830000,is-sold,Sold by private treaty 10 Jun 2022,20220610,209/50 Macleay Street,POTTS POINT,NSW,2011,-33.8719063,151.2252,1,1,-,ApartmentUnitFlat,Apartment / Unit / Flat,False,0,m2,False
2017730234,listing,/204-87-91-cathedral-street-woolloomooloo-nsw-2011-2017730234,930000,is-sold,Sold by private treaty 15 Jun 2022,20220615,204/87-91 Cathedral Street,WOOLLOOMOOLOO,NSW,2011,-33.8725052,151.2162,1,1,1,ApartmentUnitFlat,Apartment / Unit / Flat,False,0,m2,False
2017732766,listing,/73-20-mclachlan-avenue-rushcutters-bay-nsw-2011-2017732766,1955000,is-sold,Sold by private treaty 17 Jun 2022,20220617,73/20 McLachlan Avenue,RUSHCUTTERS BAY,NSW,2011,-33.877346,151.228409,2,2,1,ApartmentUnitFlat,Apartment / Unit / Flat,False,0,m2,False
2017785803,listing,/36-16-kings-cross-road-potts-point-nsw-2011-2017785803,965000,is-sold,Sold by private treaty 09 Jun 2022,20220609,36/16 Kings Cross Road,POTTS POINT,NSW,2011,-33.8755836,151.223175,2,1,-,ApartmentUnitFlat,Apartment / Unit / Flat,False,0,m2,False
2017810563,listing,/21-167-183-brougham-street-woolloomooloo-nsw-2011-2017810563,1755000,is-sold,Sold prior to auction 30 Jun 2022,20220630,21/167-183 Brougham Street,WOOLLOOMOOLOO,NSW,2011,-33.8740578,151.221329,3,2,2,ApartmentUnitFlat,Apartment / Unit / Flat,False,0,m2,False
2017830570,listing,/75-5-7-esplanade-elizabeth-bay-nsw-2011-2017830570,576000,is-sold,Sold prior to auction 28 Jun 2022,20220628,75/5-7 Esplanade,ELIZABETH BAY,NSW,2011,-33.87093,151.22908,-,1,1,Studio,Studio,False,0,m2,False
2017830995,listing,/408-33-bayswater-road-potts-point-nsw-2011-2017830995,Price Withheld,is-sold,Sold by private treaty 24 Jun 2022,20220624,408/33 Bayswater Road,POTTS POINT,NSW,2011,-33.87513,151.223831,1,1,-,ApartmentUnitFlat,Apartment / Unit / Flat,False,0,m2,False
2017831748,listing,/30-1-mcdonald-street-potts-point-nsw-2011-2017831748,435000,is-sold,Sold by private treaty 24 Jun 2022,20220624,30/1 Mcdonald Street,POTTS POINT,NSW,2011,-33.86823,151.224472,-,1,-,Studio,Studio,False,0,m2,False
2017843883,listing,/11-9-11-queens-avenue-rushcutters-bay-nsw-2011-2017843883,1775000,is-sold,Sold prior to auction 30 Jun 2022,20220630,11/9-11 Queens Avenue,RUSHCUTTERS BAY,NSW,2011,-33.8750572,151.228027,2,1,1,ApartmentUnitFlat,Apartment / Unit / Flat,False,0,m2,False
2017847730,listing,/41-12-wylde-street-potts-point-nsw-2011-2017847730,770000,is-sold,Sold prior to auction 29 Jun 2022,20220629,41/12 Wylde Street,POTTS POINT,NSW,2011,-33.8666458,151.225159,1,1,-,ApartmentUnitFlat,Apartment / Unit / Flat,False,54,m2,False
2017848502,listing,/1401-81-macleay-street-potts-point-nsw-2011-2017848502,8800000,is-sold,Sold prior to auction 15 Jun 2022,20220615,1401/81 Macleay Street,POTTS POINT,NSW,2011,-33.8702621,151.224976,2,2,2,ApartmentUnitFlat,Apartment / Unit / Flat,False,0,m2,False
2017851202,listing,/37-3-crick-avenue-potts-point-nsw-2011-2017851202,411000,is-sold,Sold by private treaty 23 Jun 2022,20220623,37/3 Crick Avenue,POTTS POINT,NSW,2011,-33.87133,151.225983,-,1,-,Studio,Studio,False,0,m2,False
2017851564,listing,/90-19-23-forbes-street-woolloomooloo-nsw-2011-2017851564,430000,is-sold,Sold by private treaty 01 Jul 2022,20220701,90/19-23 Forbes Street,WOOLLOOMOOLOO,NSW,2011,-33.87034,151.219543,-,1,1,Studio,Studio,False,0,m2,False
2017859778,listing,/5-8-onslow-avenue-elizabeth-bay-nsw-2011-2017859778,430000,is-sold,Sold by private treaty 24 Jun 2022,20220624,5/8 Onslow Avenue,ELIZABETH BAY,NSW,2011,-33.8703842,151.226974,-,1,-,Studio,Studio,False,0,m2,False
2017861647,listing,/1401-81-macleay-street-potts-point-nsw-2011-2017861647,8800000,is-sold,Sold prior to auction 14 Jun 2022,20220614,1401/81 Macleay Street,POTTS POINT,NSW,2011,-33.8702621,151.224976,2,2,2,ApartmentUnitFlat,Apartment / Unit / Flat,False,0,m2,False
2017862385,listing,/2-101a-victoria-street-potts-point-nsw-2011-2017862385,1705000,is-sold,Sold at auction 30 Jun 2022,20220630,2/101A Victoria Street,POTTS POINT,NSW,2011,-33.87099,151.2226,2,1,1,ApartmentUnitFlat,Apartment / Unit / Flat,False,0,m2,False
2017639710,listing,/9d-153-bayswater-road-rushcutters-bay-nsw-2011-2017639710,1700000,is-sold,Sold by private treaty 26 May 2022,20220526,9D/153 Bayswater Road,RUSHCUTTERS BAY,NSW,2011,-33.8764572,151.228943,2,2,2,ApartmentUnitFlat,Apartment / Unit / Flat,False,0,m2,False
2017639851,listing,/44-27-ithaca-road-elizabeth-bay-nsw-2011-2017639851,400000,is-sold,Sold by private treaty 30 May 2022,20220530,44/27 Ithaca Road,ELIZABETH BAY,NSW,2011,-33.8715668,151.228241,-,1,1,Studio,Studio,False,0,m2,False
2017640501,listing,/46-20-macleay-street-potts-point-nsw-2011-2017640501,460000,is-sold,Sold by private treaty 01 Jun 2022,20220601,46/20 Macleay Street,POTTS POINT,NSW,2011,-33.86947,151.225815,-,1,-,Studio,Studio,False,0,m2,False
2017641609,listing,/g4-200-william-st-woolloomooloo-nsw-2011-2017641609,Price Withheld,is-sold,Sold by private treaty 24 May 2022,20220524,G4/200 WILLIAM ST,WOOLLOOMOOLOO,NSW,2011,-33.87476,151.220673,1,1,-,ApartmentUnitFlat,Apartment / Unit / Flat,False,59,m2,False
2017674903,listing,/201-2-springfield-avenue-potts-point-nsw-2011-2017674903,Price Withheld,is-sold,Sold by private treaty 03 Jun 2022,20220603,201/2 Springfield Avenue,POTTS POINT,NSW,2011,-33.87231,151.2236,2,1,1,ApartmentUnitFlat,Apartment / Unit / Flat,False,0,m2,False
2017686591,listing,/2-51-59-roslyn-gardens-elizabeth-bay-nsw-2011-2017686591,400000,is-sold,Sold by private treaty 20 May 2022,20220520,2/51-59 Roslyn Gardens,ELIZABETH BAY,NSW,2011,-33.87381,151.226837,-,1,-,Studio,Studio,False,0,m2,False
2017723980,listing,/6-2-clement-street-rushcutters-bay-nsw-2011-2017723980,2030000,is-sold,Sold by private treaty 31 May 2022,20220531,6/2 Clement Street,RUSHCUTTERS BAY,NSW,2011,-33.8757477,151.227478,3,2,2,ApartmentUnitFlat,Apartment / Unit / Flat,False,0,m2,False
2017752798,listing,/805-12-macleay-street-potts-point-nsw-2011-2017752798,1535000,is-sold,Sold prior to auction 23 May 2022,20220523,805/12 Macleay Street,POTTS POINT,NSW,2011,-33.8686371,151.226,1,1,-,ApartmentUnitFlat,Apartment / Unit / Flat,False,0,m2,False
2017768503,listing,/73-3-wylde-street-potts-point-nsw-2011-2017768503,1005000,is-sold,Sold at auction 26 May 2022,20220526,73/3 Wylde Street,POTTS POINT,NSW,2011,-33.86618,151.2246,1,1,1,ApartmentUnitFlat,Apartment / Unit / Flat,False,0,m2,False
2017778279,listing,/207-161-brougham-street-woolloomooloo-nsw-2011-2017778279,1200000,is-sold,Sold prior to auction 24 May 2022,20220524,207/161 Brougham Street,WOOLLOOMOOLOO,NSW,2011,-33.8737564,151.221558,1,1,-,ApartmentUnitFlat,Apartment / Unit / Flat,False,0,m2,False
2017783445,listing,/5-2-ward-avenue-elizabeth-bay-nsw-2011-2017783445,430000,is-sold,Sold at auction 31 May 2022,20220531,5/2 Ward Avenue,ELIZABETH BAY,NSW,2011,-33.8732719,151.226074,1,1,-,ApartmentUnitFlat,Apartment / Unit / Flat,False,0,m2,False
2017785277,listing,/11-126-brougham-street-potts-point-nsw-2011-2017785277,790000,is-sold,Sold at auction 26 May 2022,20220526,11/126 Brougham Street,POTTS POINT,NSW,2011,-33.8740463,151.221786,1,1,-,ApartmentUnitFlat,Apartment / Unit / Flat,False,0,m2,False
2017787046,listing,/11-18-onslow-avenue-elizabeth-bay-nsw-2011-2017787046,705000,is-sold,Sold prior to auction 20 May 2022,20220520,11/18 Onslow Avenue,ELIZABETH BAY,NSW,2011,-33.8711357,151.227249,1,1,-,ApartmentUnitFlat,Apartment / Unit / Flat,False,0,m2,False
2017789899,listing,/30-101-macleay-street-potts-point-nsw-2011-2017789899,Price Withheld,is-sold,Sold by private treaty 23 May 2022,20220523,30/101 Macleay Street,POTTS POINT,NSW,2011,-33.8717842,151.22493,-,1,-,Studio,Studio,False,0,m2,False
2017800645,listing,/14-94-elizabeth-bay-road-elizabeth-bay-nsw-2011-2017800645,680000,is-sold,Sold prior to auction 08 Jun 2022,20220608,14/94 Elizabeth Bay Road,ELIZABETH BAY,NSW,2011,-33.8716431,151.229568,1,1,-,ApartmentUnitFlat,Apartment / Unit / Flat,False,0,m2,False
2017819199,listing,/71-victoria-street-potts-point-nsw-2011-2017819199,Price Withheld,is-sold,Sold by private treaty 09 Jun 2022,20220609,71 Victoria Street,POTTS POINT,NSW,2011,-33.8697624,151.223038,2,2,1,ApartmentUnitFlat,Apartment / Unit / Flat,False,0,m2,False
2017832663,listing,/8-20-wylde-street-potts-point-nsw-2011-2017832663,5750000,is-sold,Sold prior to auction 07 Jun 2022,20220607,8/20 Wylde Street,POTTS POINT,NSW,2011,-33.8674049,151.226257,4,2,2,ApartmentUnitFlat,Apartment / Unit / Flat,False,0,m2,False
2017834868,listing,/66-108-elizabeth-bay-road-elizabeth-bay-nsw-2011-2017834868,Price Withheld,is-sold,Sold prior to auction 27 May 2022,20220527,66/108 Elizabeth Bay Road,ELIZABETH BAY,NSW,2011,-33.87026,151.230331,2,1,1,ApartmentUnitFlat,Apartment / Unit / Flat,False,0,m2,False
2017844797,listing,/39-68-roslyn-gardens-elizabeth-bay-nsw-2011-2017844797,410000,is-sold,Sold by private treaty 31 May 2022,20220531,39/68 Roslyn Gardens,ELIZABETH BAY,NSW,2011,-33.8748741,151.227158,-,1,-,Studio,Studio,False,0,m2,False
2017955518,listing,/44-8-greenknowe-avenue-elizabeth-bay-nsw-2011-2017955518,3100000,is-sold,Sold by private treaty 06 Jun 2022,20220606,44/8 Greenknowe Avenue,ELIZABETH BAY,NSW,2011,-33.8714561,151.226868,2,2,1,ApartmentUnitFlat,Apartment / Unit / Flat,False,0,m2,False
2017236334,listing,/304-1-mclachlan-avenue-rushcutters-bay-nsw-2011-2017236334,1710000,is-sold,Sold by private treaty 16 May 2022,20220516,304/1 McLachlan Avenue,RUSHCUTTERS BAY,NSW,2011,-33.8764343,151.228531,2,2,1,ApartmentUnitFlat,Apartment / Unit / Flat,False,0,m2,False
2017384962,listing,/b21-100-elizabeth-bay-road-elizabeth-bay-nsw-2011-2017384962,680000,is-sold,Sold by private treaty 18 May 2022,20220518,B21/100 Elizabeth Bay Road,ELIZABETH BAY,NSW,2011,-33.871273,151.229691,-,1,-,Studio,Studio,False,0,m2,False
2017424568,listing,/9-147-151-brougham-street-woolloomooloo-nsw-2011-2017424568,450000,is-sold,Sold by private treaty 16 May 2022,20220516,9/147-151 Brougham Street,WOOLLOOMOOLOO,NSW,2011,-33.8732529,151.221512,-,1,-,Studio,Studio,False,0,m2,False
2017693973,listing,/44-67-cowper-wharf-roadway-woolloomooloo-nsw-2011-2017693973,1325000,is-sold,Sold by private treaty 14 May 2022,20220514,44/67 Cowper Wharf Roadway,WOOLLOOMOOLOO,NSW,2011,-33.86939,151.222183,2,2,2,ApartmentUnitFlat,Apartment / Unit / Flat,False,0,m2,False
2017702385,listing,/23-22-wylde-street-potts-point-nsw-2011-2017702385,6550000,is-sold,Sold at auction 14 May 2022,20220514,23/22 Wylde Street,POTTS POINT,NSW,2011,-33.8675346,151.2263,3,2,2,ApartmentUnitFlat,Apartment / Unit / Flat,False,174,m2,False
2017721198,listing,/59-68-roslyn-gardens-elizabeth-bay-nsw-2011-2017721198,420000,is-sold,Sold by private treaty 13 May 2022,20220513,59/68 Roslyn Gardens,ELIZABETH BAY,NSW,2011,-33.8748741,151.227158,-,1,-,Studio,Studio,False,0,m2,False
2017722911,listing,/33-20-springfield-avenue-potts-point-nsw-2011-2017722911,525000,is-sold,Sold by private treaty 17 May 2022,20220517,33/20 Springfield Avenue,POTTS POINT,NSW,2011,-33.8726654,151.224045,1,1,-,House,House,False,0,m2,False
2017725177,listing,/701-226-victoria-street-potts-point-nsw-2011-2017725177,2025000,is-sold,Sold prior to auction 13 May 2022,20220513,701/226 Victoria Street,POTTS POINT,NSW,2011,-33.8743935,151.222458,2,1,1,ApartmentUnitFlat,Apartment / Unit / Flat,False,101,m2,False
2017736172,listing,/2-10c-challis-avenue-potts-point-nsw-2011-2017736172,800000,is-sold,Sold prior to auction 18 May 2022,20220518,2/10c Challis Avenue,POTTS POINT,NSW,2011,-33.8689232,151.225021,1,1,1,ApartmentUnitFlat,Apartment / Unit / Flat,False,0,m2,False
2017740724,listing,/56-93-elizabeth-bay-road-elizabeth-bay-nsw-2011-2017740724,1705000,is-sold,Sold at auction 18 May 2022,20220518,56/93 Elizabeth Bay Road,ELIZABETH BAY,NSW,2011,-33.87188,151.231049,1,1,1,ApartmentUnitFlat,Apartment / Unit / Flat,False,0,m2,False
2017740729,listing,/57-93-elizabeth-bay-road-elizabeth-bay-nsw-2011-2017740729,3450000,is-sold,Sold at auction 17 May 2022,20220517,57/93 Elizabeth Bay Road,ELIZABETH BAY,NSW,2011,-33.87188,151.231049,2,1,1,ApartmentUnitFlat,Apartment / Unit / Flat,False,0,m2,False
2017747922,listing,/11-38-40-kings-cross-road-potts-point-nsw-2011-2017747922,850000,is-sold,Sold prior to auction 12 May 2022,20220512,11/38-40 Kings Cross Road,POTTS POINT,NSW,2011,-33.8757057,151.22403,2,1,-,ApartmentUnitFlat,Apartment / Unit / Flat,False,0,m2,False
2017752418,listing,/127-6-cowper-wharf-road-woolloomooloo-nsw-2011-2017752418,1375000,is-sold,Sold prior to auction 13 May 2022,20220513,127/6 Cowper Wharf Road,WOOLLOOMOOLOO,NSW,2011,-33.8671837,151.221191,1,1,1,ApartmentUnitFlat,Apartment / Unit / Flat,False,0,m2,False
2017754032,listing,/4-4-macleay-street-potts-point-nsw-2011-2017754032,640000,is-sold,Sold prior to auction 20 May 2022,20220520,4/4 Macleay Street,POTTS POINT,NSW,2011,-33.86802,151.226166,1,1,-,ApartmentUnitFlat,Apartment / Unit / Flat,False,0,m2,False
2017763277,listing,/31-16-kings-cross-road-potts-point-nsw-2011-2017763277,1150000,is-sold,Sold prior to auction 12 May 2022,20220512,31/16 Kings Cross Road,POTTS POINT,NSW,2011,-33.8755836,151.223175,2,1,-,ApartmentUnitFlat,Apartment / Unit / Flat,False,0,m2,False
2017769375,listing,/613-50-macleay-street-elizabeth-bay-nsw-2011-2017769375,3120000,is-sold,Sold prior to auction 16 May 2022,20220516,613/50 Macleay Street,ELIZABETH BAY,NSW,2011,-33.8719063,151.2252,2,1,1,ApartmentUnitFlat,Apartment / Unit / Flat,False,0,m2,False
2017784199,listing,/602-63-crown-street-woolloomooloo-nsw-2011-2017784199,1220000,is-sold,Sold at auction 20 May 2022,20220520,602/63 Crown Street,WOOLLOOMOOLOO,NSW,2011,-33.8733635,151.216049,1,1,1,ApartmentUnitFlat,Apartment / Unit / Flat,False,0,m2,False
2017805277,listing,/9-3-springfield-avenue-potts-point-nsw-2011-2017805277,Price Withheld,is-sold,Sold by private treaty 12 May 2022,20220512,9/3 Springfield Avenue,POTTS POINT,NSW,2011,-33.8725967,151.2235,1,1,-,ApartmentUnitFlat,Apartment / Unit / Flat,False,0,m2,False
2017807847,listing,/9-3-springfield-avenue-potts-point-nsw-2011-2017807847,Price Withheld,is-sold,Sold by private treaty 12 May 2022,20220512,9/3 Springfield Avenue,POTTS POINT,NSW,2011,-33.8725967,151.2235,1,1,-,ApartmentUnitFlat,Apartment / Unit / Flat,False,0,m2,False
2018199743,listing,/7-16-roslyn-gardens-rushcutters-bay-nsw-2011-2018199743,550000,is-sold,Sold by private treaty 11 May 2022,20220511,7/16 Roslyn Gardens,RUSHCUTTERS BAY,NSW,2011,-33.873024,151.228073,-,1,1,Studio,Studio,False,0,m2,False
2017550416,listing,/17-17-st-neot-avenue-potts-point-nsw-2011-2017550416,795000,is-sold,Sold by private treaty 03 May 2022,20220503,17/17 St Neot Avenue,POTTS POINT,NSW,2011,-33.86777,151.224945,1,1,-,ApartmentUnitFlat,Apartment / Unit / Flat,False,0,m2,False
2017586686,listing,/3-137-147-forbes-street-woolloomooloo-nsw-2011-2017586686,520000,is-sold,Sold by private treaty 10 May 2022,20220510,3/137-147 Forbes Street,WOOLLOOMOOLOO,NSW,2011,-33.87383,151.219116,-,1,1,Studio,Studio,False,43,m2,False
2017602430,listing,/1707-226-victoria-street-potts-point-nsw-2011-2017602430,2040000,is-sold,Sold by private treaty 04 May 2022,20220504,1707/226 Victoria Street,POTTS POINT,NSW,2011,-33.8743935,151.222458,2,2,1,ApartmentUnitFlat,Apartment / Unit / Flat,False,0,m2,False
2017606696,listing,/elizabeth-bay-nsw-2011-2017606696,1830000,is-sold,Sold prior to auction 06 May 2022,20220506,,ELIZABETH BAY,NSW,2011,-33.87104,151.228683,3,2,-,ApartmentUnitFlat,Apartment / Unit / Flat,False,0,m2,False
2017623285,listing,/22-85-bourke-street-woolloomooloo-nsw-2011-2017623285,1150000,is-sold,Sold by private treaty 10 May 2022,20220510,22/85 Bourke Street,WOOLLOOMOOLOO,NSW,2011,-33.8710251,151.218613,1,1,1,ApartmentUnitFlat,Apartment / Unit / Flat,False,0,m2,False
2017667371,listing,/21-8a-hughes-street-potts-point-nsw-2011-2017667371,Price Withheld,is-sold,Sold by private treaty 03 May 2022,20220503,21/8A Hughes Street,POTTS POINT,NSW,2011,-33.87139,151.224411,-,1,-,ApartmentUnitFlat,Apartment / Unit / Flat,False,0,m2,False
2017684822,listing,/3d-20-onslow-avenue-elizabeth-bay-nsw-2011-2017684822,1590000,is-sold,Sold by private treaty 06 May 2022,20220506,3D/20 Onslow Avenue,ELIZABETH BAY,NSW,2011,-33.8711853,151.227539,2,1,1,ApartmentUnitFlat,Apartment / Unit / Flat,False,0,m2,False
2017701329,listing,/4-40a-roslyn-gardens-rushcutters-bay-nsw-2011-2017701329,783000,is-sold,Sold at auction 30 Apr 2022,20220430,4/40A Roslyn Gardens,RUSHCUTTERS BAY,NSW,2011,-33.87402,151.227753,1,1,1,ApartmentUnitFlat,Apartment / Unit / Flat,False,47,m2,False
2017701688,listing,/20-52-kings-cross-road-rushcutters-bay-nsw-2011-2017701688,767000,is-sold,Sold by private treaty 06 May 2022,20220506,20/52 Kings Cross Road,RUSHCUTTERS BAY,NSW,2011,-33.87581,151.224686,1,1,1,ApartmentUnitFlat,Apartment / Unit / Flat,False,0,m2,False
2017720447,listing,/402-18-bayswater-road-potts-point-nsw-2011-2017720447,1050000,is-sold,Sold by private treaty 03 May 2022,20220503,402/18 Bayswater Road,POTTS POINT,NSW,2011,-33.8747749,151.223663,1,1,-,ApartmentUnitFlat,Apartment / Unit / Flat,False,0,m2,False
2017721728,listing,/cs146-33-bayswater-road-potts-point-nsw-2011-2017721728,105000,is-sold,Sold by private treaty 09 May 2022,20220509,CS146/33 Bayswater Road,POTTS POINT,NSW,2011,-33.8759041,151.226013,-,-,1,Studio,Studio,False,0,m2,False
2017722535,listing,/18-103-victoria-street-potts-point-nsw-2011-2017722535,1890000,is-sold,Sold at auction 30 Apr 2022,20220430,18/103 Victoria Street,POTTS POINT,NSW,2011,-33.8708839,151.222717,1,1,1,ApartmentUnitFlat,Apartment / Unit / Flat,False,0,m2,False
2017723066,listing,/18-53-55-elizabeth-bay-road-elizabeth-bay-nsw-2011-2017723066,1560000,is-sold,Sold at auction 29 Apr 2022,20220429,18/53-55 Elizabeth Bay Road,ELIZABETH BAY,NSW,2011,-33.8725662,151.228729,2,1,1,ApartmentUnitFlat,Apartment / Unit / Flat,False,85,m2,False
2017723942,listing,/55-19a-tusculum-street-potts-point-nsw-2011-2017723942,865000,is-sold,Sold by private treaty 10 May 2022,20220510,55/19A Tusculum Street,POTTS POINT,NSW,2011,-33.87125,151.223785,1,1,-,ApartmentUnitFlat,Apartment / Unit / Flat,False,50,m2,False
2017726273,listing,/86-108-elizabeth-bay-road-elizabeth-bay-nsw-2011-2017726273,2975000,is-sold,Sold at auction 05 May 2022,20220505,86/108 Elizabeth Bay Road,ELIZABETH BAY,NSW,2011,-33.87026,151.230331,2,1,1,ApartmentUnitFlat,Apartment / Unit / Flat,False,0,m2,False
2017727247,listing,/8-riley-street-woolloomooloo-nsw-2011-2017727247,1750000,is-sold,Sold at auction 30 Apr 2022,20220430,8 Riley Street,WOOLLOOMOOLOO,NSW,2011,-33.8726,151.215927,3,1,-,Terrace,Terrace,False,95,m2,False
2017759856,listing,/1-boomerang-place-woolloomooloo-nsw-2011-2017759856,Price Withheld,is-sold,Sold by private treaty 04 May 2022,20220504,1 Boomerang Place,WOOLLOOMOOLOO,NSW,2011,-33.8736153,151.2146,2,2,1,ApartmentUnitFlat,Apartment / Unit / Flat,False,0,m2,False
2017787586,listing,/11-46-roslyn-gardens-rushcutters-bay-nsw-2011-2017787586,1030000,is-sold,Sold by private treaty 06 May 2022,20220506,11/46 Roslyn Gardens,RUSHCUTTERS BAY,NSW,2011,-33.87416,151.227524,1,1,-,ApartmentUnitFlat,Apartment / Unit / Flat,False,0,m2,False
2018199742,listing,/20-52-kings-cross-road-rushcutters-bay-nsw-2011-2018199742,767000,is-sold,Sold by private treaty 06 May 2022,20220506,20/52 Kings Cross Road,RUSHCUTTERS BAY,NSW,2011,-33.87581,151.224686,1,1,1,ApartmentUnitFlat,Apartment / Unit / Flat,False,0,m2,False
2018230842,listing,/7-16-roslyn-gardens-rushcutters-bay-nsw-2011-2018230842,550000,is-sold,Sold by private treaty 11 May 2022,20220511,7/16 Roslyn Gardens,RUSHCUTTERS BAY,NSW,2011,-33.873024,151.228073,-,1,1,Studio,Studio,False,0,m2,False
2017588477,listing,/708-12-macleay-street-potts-point-nsw-2011-2017588477,5755000,is-sold,Sold at auction 27 Apr 2022,20220427,708/12 Macleay Street,POTTS POINT,NSW,2011,-33.8686371,151.226,4,2,1,ApartmentUnitFlat,Apartment / Unit / Flat,False,0,m2,False
2017603089,listing,/4-17-wylde-street-potts-point-nsw-2011-2017603089,Price Withheld,is-sold,Sold by private treaty 08 Apr 2022,20220408,4/17 Wylde Street,POTTS POINT,NSW,2011,-33.86767,151.225571,1,1,-,ApartmentUnitFlat,Apartment / Unit / Flat,False,0,m2,False
2017613155,listing,/13-42-bayswater-road-rushcutters-bay-nsw-2011-2017613155,410000,is-sold,Sold by private treaty 08 Apr 2022,20220408,13/42 Bayswater Road,RUSHCUTTERS BAY,NSW,2011,-33.8748932,151.225113,-,1,-,Studio,Studio,False,0,m2,False
2017632188,listing,/19-90-92-elizabeth-bay-road-elizabeth-bay-nsw-2011-2017632188,672000,is-sold,Sold by private treaty 21 Apr 2022,20220421,19/90-92 Elizabeth Bay Road,ELIZABETH BAY,NSW,2011,-33.87162,151.229355,1,1,1,ApartmentUnitFlat,Apartment / Unit / Flat,False,0,m2,False
2017638682,listing,/19-34-kings-cross-road-potts-point-nsw-2011-2017638682,395000,is-sold,Sold by private treaty 13 Apr 2022,20220413,19/34 Kings Cross Road,POTTS POINT,NSW,2011,-33.8756638,151.223831,-,1,-,Studio,Studio,False,0,m2,False
2017640111,listing,/g16-1a-tusculum-street-potts-point-nsw-2011-2017640111,Price Withheld,is-sold,Sold by private treaty 14 Apr 2022,20220414,G16/1A Tusculum Street,POTTS POINT,NSW,2011,-33.87027,151.224411,2,1,1,ApartmentUnitFlat,Apartment / Unit / Flat,False,0,m2,False
2017667512,listing,/204-12-macleay-street-elizabeth-bay-nsw-2011-2017667512,Price Withheld,is-sold,Sold by private treaty 14 Apr 2022,20220414,204/12 Macleay Street,ELIZABETH BAY,NSW,2011,-33.8686371,151.226,1,1,-,ApartmentUnitFlat,Apartment / Unit / Flat,False,0,m2,False
2017668918,listing,/25-51-roslyn-gardens-elizabeth-bay-nsw-2011-2017668918,735000,is-sold,Sold by private treaty 22 Apr 2022,20220422,25/51 Roslyn Gardens,ELIZABETH BAY,NSW,2011,-33.87382,151.226852,1,1,-,ApartmentUnitFlat,Apartment / Unit / Flat,False,0,m2,False
2017668952,listing,/39-8-greenknowe-avenue-elizabeth-bay-nsw-2011-2017668952,3200000,is-sold,Sold at auction 13 Apr 2022,20220413,39/8 Greenknowe Avenue,ELIZABETH BAY,NSW,2011,-33.8714561,151.226868,2,2,1,ApartmentUnitFlat,Apartment / Unit / Flat,False,0,m2,False
2017672066,listing,/6-36-kings-cross-road-potts-point-nsw-2011-2017672066,1380900,is-sold,Sold at auction 08 Apr 2022,20220408,6/36 Kings Cross Road,POTTS POINT,NSW,2011,-33.87569,151.223923,2,1,-,ApartmentUnitFlat,Apartment / Unit / Flat,False,0,m2,False
2017674047,listing,/27-4-ithaca-road-elizabeth-bay-nsw-2011-2017674047,1965000,is-sold,Sold at auction 12 Apr 2022,20220412,27/4 Ithaca Road,ELIZABETH BAY,NSW,2011,-33.87104,151.228683,2,1,-,ApartmentUnitFlat,Apartment / Unit / Flat,False,0,m2,False
2017683247,listing,/120-cathedral-street-woolloomooloo-nsw-2011-2017683247,3300000,is-sold,Sold by private treaty 21 Apr 2022,20220421,120 Cathedral Street,WOOLLOOMOOLOO,NSW,2011,-33.8722534,151.217285,3,3,2,House,House,False,0,m2,False
2017687695,listing,/75-117-macleay-street-potts-point-nsw-2011-2017687695,Price Withheld,is-sold,Sold by private treaty 14 Apr 2022,20220414,75/117 Macleay Street,POTTS POINT,NSW,2011,-33.8723946,151.2246,-,1,-,Studio,Studio,False,0,m2,False
2017691498,listing,/78-50-58-roslyn-gardens-elizabeth-bay-nsw-2011-2017691498,1295000,is-sold,Sold at auction 21 Apr 2022,20220421,78/50-58 Roslyn Gardens,ELIZABETH BAY,NSW,2011,-33.874424,151.227539,1,1,1,ApartmentUnitFlat,Apartment / Unit / Flat,False,99,m2,False
2017705489,listing,/227-50-mclachlan-avenue-rushcutters-bay-nsw-2011-2017705489,1200000,is-sold,Sold by private treaty 27 Apr 2022,20220427,227/50 McLachlan Avenue,RUSHCUTTERS BAY,NSW,2011,-33.878006,151.227646,1,1,1,ApartmentUnitFlat,Apartment / Unit / Flat,False,0,m2,False
2017724657,listing,/63-95-elizabeth-bay-road-elizabeth-bay-nsw-2011-2017724657,3450000,is-sold,Sold prior to auction 28 Apr 2022,20220428,63/95 Elizabeth Bay Road,ELIZABETH BAY,NSW,2011,-33.8711,151.230927,2,2,1,ApartmentUnitFlat,Apartment / Unit / Flat,False,0,m2,False
2017736079,listing,/612-50-macleay-street-potts-point-nsw-2011-2017736079,2875000,is-sold,Sold at auction 28 Apr 2022,20220428,612/50 Macleay Street,POTTS POINT,NSW,2011,-33.8719063,151.2252,2,1,1,ApartmentUnitFlat,Apartment / Unit / Flat,False,0,m2,False
2017736080,listing,/12-67-macleay-street-potts-point-nsw-2011-2017736080,620000,is-sold,Sold by private treaty 28 Apr 2022,20220428,12/67 Macleay Street,POTTS POINT,NSW,2011,-33.869236,151.225342,-,1,-,Studio,Studio,False,0,m2,False
2017747533,listing,/10-2b-tusculum-street-potts-point-nsw-2011-2017747533,680000,is-sold,Sold by private treaty 14 Apr 2022,20220414,10/2B Tusculum Street,POTTS POINT,NSW,2011,-33.8710175,151.224274,1,1,-,ApartmentUnitFlat,Apartment / Unit / Flat,False,0,m2,False
2017757077,listing,/56-16-macleay-street-potts-point-nsw-2011-2017757077,485000,is-sold,Sold by private treaty 27 Apr 2022,20220427,56/16 Macleay Street,POTTS POINT,NSW,2011,-33.86912,151.225861,-,1,-,Studio,Studio,False,0,m2,False
2016892830,listing,/50-68-sir-john-young-crescent-woolloomooloo-nsw-2011-2016892830,2715000,is-sold,Sold by private treaty 01 Apr 2022,20220401,50/68 Sir John Young Crescent,WOOLLOOMOOLOO,NSW,2011,-33.8717766,151.216476,3,2,2,ApartmentUnitFlat,Apartment / Unit / Flat,False,0,m2,False
2017535353,listing,/4-25-hughes-street-potts-point-nsw-2011-2017535353,495000,is-sold,Sold by private treaty 04 Apr 2022,20220404,4/25 Hughes Street,POTTS POINT,NSW,2011,-33.87164,151.2242,1,1,-,ApartmentUnitFlat,Apartment / Unit / Flat,False,0,m2,False
2017538168,listing,/1-68-bayswater-road-rushcutters-bay-nsw-2011-2017538168,380000,is-sold,Sold by private treaty 01 Apr 2022,20220401,1/68 Bayswater Road,RUSHCUTTERS BAY,NSW,2011,-33.8759651,151.226746,-,1,-,Studio,Studio,False,0,m2,False
