id,listingType,url,price,tagClassName,tagText,date,street,suburb,state,postcode,lat,lng,beds,baths,parking,propertyType,propertyTypeFormatted,isRural,landSize,landUnit,isRetirement
2017987870,listing,/55-dickson-street-newtown-nsw-2042-2017987870,1985000,is-sold,Sold prior to auction 26 Feb 2023,20230226,55 Dickson Street,NEWTOWN,NSW,2042,-33.9050369,151.178131,4,4,4,House,House,False,127,m2,False
2018168226,listing,/34-munni-street-newtown-nsw-2042-2018168226,Price Withheld,is-sold,Sold by private treaty 10 Feb 2023,20230210,34 Munni Street,NEWTOWN,NSW,2042,-33.9016075,151.180542,3,3,3,House,House,False,0,m2,False
2018284408,listing,/19-dickson-street-newtown-nsw-2042-2018284408,2362999,is-sold,Sold at auction 25 Feb 2023,20230225,19 Dickson Street,NEWTOWN,NSW,2042,-33.9046936,151.179169,4,4,4,House,House,False,0,m2,False
2018295723,listing,/1-fulham-street-newtown-nsw-2042-2018295723,1165000,is-sold,Sold by private treaty 16 Feb 2023,20230216,1 Fulham Street,NEWTOWN,NSW,2042,-33.90092,151.175766,2,2,2,House,House,False,0,m2,False
2018298484,listing,/10-holt-street-newtown-nsw-2042-2018298484,1625000,is-sold,Sold at auction 11 Feb 2023,20230211,10 Holt Street,NEWTOWN,NSW,2042,-33.9006271,151.177032,3,3,3,House,House,False,101,m2,False
2018298987,listing,/12-alice-avenue-newtown-nsw-2042-2018298987,1342000,is-sold,Sold at auction 11 Feb 2023,20230211,12 Alice Avenue,NEWTOWN,NSW,2042,-33.9039841,151.174026,2,2,2,House,House,False,0,m2,False
2018299197,listing,/11a-liberty-street-enmore-nsw-2042-2018299197,1910000,is-sold,Sold at auction 11 Feb 2023,20230211,11a Liberty Street,ENMORE,NSW,2042,-33.89792,151.170288,3,3,3,House,House,False,184,m2,False
2018299242,listing,/10-rawson-street-newtown-nsw-2042-2018299242,Price Withheld,is-sold,Sold at auction 18 Feb 2023,20230218,10 Rawson Street,NEWTOWN,NSW,2042,-33.9003448,151.176743,2,2,2,House,House,False,0,m2,False
2018300933,listing,/57a-wells-street-newtown-nsw-2042-2018300933,1257500,is-sold,Sold at auction 11 Feb 2023,20230211,57a Wells Street,NEWTOWN,NSW,2042,-33.9055824,151.178757,2,2,2,House,House,False,105,m2,False
2018304319,listing,/4-hordern-street-newtown-nsw-2042-2018304319,1300000,is-sold,Sold by private treaty 22 Feb 2023,20230222,4 Hordern Street,NEWTOWN,NSW,2042,-33.8949432,151.1814,2,2,2,Terrace,Terrace,False,108,m2,False
2018309870,listing,/203-10-fitzgerald-street-newtown-nsw-2042-2018309870,Price Withheld,is-sold,Sold at auction 23 Feb 2023,20230223,203/10 Fitzgerald Street,NEWTOWN,NSW,2042,-33.8916054,151.180176,2,2,2,Townhouse,Townhouse,False,0,m2,False
2018310755,listing,/4-bennett-street-newtown-nsw-2042-2018310755,1575000,is-sold,Sold at auction 18 Feb 2023,20230218,4 Bennett Street,NEWTOWN,NSW,2042,-33.8937759,151.187088,3,3,3,House,House,False,0,m2,False
2018313073,listing,/64-simmons-street-newtown-nsw-2042-2018313073,Price Withheld,is-sold,Sold at auction 09 Feb 2023,20230209,64 Simmons Street,NEWTOWN,NSW,2042,-33.9012756,151.174591,2,2,2,House,House,False,158,m2,False
2018313955,listing,/18-holmwood-street-newtown-nsw-2042-2018313955,1700000,is-sold,Sold prior to auction 16 Feb 2023,20230216,18 Holmwood Street,NEWTOWN,NSW,2042,-33.9043846,151.179214,3,3,3,House,House,False,146,m2,False
2018314714,listing,/3-raper-street-newtown-nsw-2042-2018314714,Price Withheld,is-sold,Sold at auction 18 Feb 2023,20230218,3 Raper Street,NEWTOWN,NSW,2042,-33.8924179,151.1809,3,3,3,House,House,False,109,m2,False
2018320403,listing,/12-gladstone-street-enmore-nsw-2042-2018320403,1275000,is-sold,Sold at auction 25 Feb 2023,20230225,12 Gladstone Street,ENMORE,NSW,2042,-33.89682,151.17276,2,2,2,House,House,False,107,m2,False
2018325497,listing,/20-60-brocks-lane-newtown-nsw-2042-2018325497,400000,is-sold,Sold by private treaty 17 Feb 2023,20230217,20/60 Brocks Lane,NEWTOWN,NSW,2042,-33.8945,151.1847,NaN,1.0,1.0,Studio,Studio,False,0,m2,False
2018328881,listing,/70-wells-street-newtown-nsw-2042-2018328881,3110000,is-sold,Sold at auction 25 Feb 2023,20230225,70 Wells Street,NEWTOWN,NSW,2042,-33.9060364,151.177979,5,5,5,House,House,False,370,m2,False
2018360610,listing,/42-bucknell-street-newtown-nsw-2042-2018360610,1755000,is-sold,Sold prior to auction 16 Feb 2023,20230216,42 Bucknell Street,NEWTOWN,NSW,2042,-33.8951073,151.184341,3,3,3,House,House,False,0,m2,False
2018376068,listing,/95-gowrie-street-newtown-nsw-2042-2018376068,2400000,is-sold,Sold by private treaty 23 Feb 2023,20230223,95 Gowrie Street,NEWTOWN,NSW,2042,-33.900753,151.180862,3,3,3,House,House,False,130,m2,False
2018003717,listing,/8-146-alice-street-newtown-nsw-2042-2018003717,1290000,is-sold,Sold by private treaty 14 Dec 2022,20221214,8/146 Alice Street,NEWTOWN,NSW,2042,-33.90527,151.17453,2,2,2,Townhouse,Townhouse,False,0,m2,False
2018096593,listing,/1a-fotheringham-street-enmore-nsw-2042-2018096593,1980000,is-sold,Sold by private treaty 02 Feb 2023,20230202,1A Fotheringham Street,ENMORE,NSW,2042,-33.8996925,151.1701,4,4,4,House,House,False,161,m2,False
2018167966,listing,/16-15-darley-street-newtown-nsw-2042-2018167966,620000,is-sold,Sold by private treaty 14 Dec 2022,20221214,16/15 Darley Street,NEWTOWN,NSW,2042,-33.9059143,151.180038,1,1,1,ApartmentUnitFlat,Apartment / Unit / Flat,False,0,m2,False
2018179536,listing,/190-church-street-newtown-nsw-2042-2018179536,1495000,is-sold,Sold by private treaty 22 Dec 2022,20221222,190 Church Street,NEWTOWN,NSW,2042,-33.892395,151.179932,3,3,3,House,House,False,0,m2,False
2018192015,listing,/35-college-street-newtown-nsw-2042-2018192015,1810000,is-sold,Sold by private treaty 23 Dec 2022,20221223,35 College Street,NEWTOWN,NSW,2042,-33.90188,151.177216,3,3,3,House,House,False,325,m2,False
2018192319,listing,/123-bedford-street-newtown-nsw-2042-2018192319,1750000,is-sold,Sold by private treaty 11 Jan 2023,20230111,123 Bedford Street,NEWTOWN,NSW,2042,-33.89572,151.173157,6,6,6,House,House,False,171,m2,False
2018200040,listing,/205-63-71-enmore-road-newtown-nsw-2042-2018200040,715000,is-sold,Sold by private treaty 23 Jan 2023,20230123,205/63-71 Enmore Road,NEWTOWN,NSW,2042,-33.89845,151.175552,1,1,1,ApartmentUnitFlat,Apartment / Unit / Flat,False,0,m2,False
2018206792,listing,/302-38-alice-street-newtown-nsw-2042-2018206792,780000,is-sold,Sold at auction 30 Jan 2023,20230130,302/38 Alice Street,NEWTOWN,NSW,2042,-33.9036827,151.17746,1,1,1,ApartmentUnitFlat,Apartment / Unit / Flat,False,0,m2,False
2018207188,listing,/51-laura-street-newtown-nsw-2042-2018207188,2150000,is-sold,Sold by private treaty 17 Dec 2022,20221217,51 Laura Street,NEWTOWN,NSW,2042,-33.9056931,151.174515,4,4,4,House,House,False,158,m2,False
2018216223,listing,/24-503-511-king-street-newtown-nsw-2042-2018216223,825000,is-sold,Sold by private treaty 21 Dec 2022,20221221,24/503-511 King Street,NEWTOWN,NSW,2042,-33.90275,151.179214,2,2,2,ApartmentUnitFlat,Apartment / Unit / Flat,False,0,m2,False
2018221300,listing,/46-20-fitzgerald-street-newtown-nsw-2042-2018221300,545000,is-sold,Sold prior to auction 20 Dec 2022,20221220,46/20 Fitzgerald Street,NEWTOWN,NSW,2042,-33.8918953,151.1806,1,1,1,ApartmentUnitFlat,Apartment / Unit / Flat,False,0,m2,False
2018232278,listing,/14-georgina-street-newtown-nsw-2042-2018232278,2245000,is-sold,Sold at auction 17 Dec 2022,20221217,14 Georgina Street,NEWTOWN,NSW,2042,-33.8935623,151.185516,3,3,3,House,House,False,133,m2,False
2018236783,listing,/90-marian-street-enmore-nsw-2042-2018236783,1700000,is-sold,Sold at auction 16 Dec 2022,20221216,90 Marian Street,ENMORE,NSW,2042,-33.9016342,151.17395,3,3,3,Terrace,Terrace,False,132,m2,False
2018281289,listing,/316e-138-carillon-avenue-newtown-nsw-2042-2018281289,951000,is-sold,Sold prior to auction 02 Feb 2023,20230202,316E/138 Carillon Avenue,NEWTOWN,NSW,2042,-33.89145,151.18042,2,2,2,ApartmentUnitFlat,Apartment / Unit / Flat,False,111,m2,False
2018285827,listing,/4-7-9-pemell-lane-newtown-nsw-2042-2018285827,1126000,is-sold,Sold prior to auction 27 Jan 2023,20230127,4/7-9 Pemell Lane,NEWTOWN,NSW,2042,-33.8994446,151.174332,2,2,2,Townhouse,Townhouse,False,162,m2,False
2018292769,listing,/12-fulham-street-newtown-nsw-2042-2018292769,Price Withheld,is-sold,Sold prior to auction 09 Feb 2023,20230209,12 Fulham Street,NEWTOWN,NSW,2042,-33.90131,151.175568,3,3,3,House,House,False,108,m2,False
2018297621,listing,/15-11-tupper-street-enmore-nsw-2042-2018297621,885000,is-sold,Sold by private treaty 06 Feb 2023,20230206,15/11 Tupper Street,ENMORE,NSW,2042,-33.8998032,151.168671,2,2,2,ApartmentUnitFlat,Apartment / Unit / Flat,False,0,m2,False
2018297727,listing,/6-96-100-gowrie-street-newtown-nsw-2042-2018297727,Price Withheld,is-sold,Sold prior to auction 09 Feb 2023,20230209,6/96-100 Gowrie Street,NEWTOWN,NSW,2042,-33.9021,151.1809,1,1,1,ApartmentUnitFlat,Apartment / Unit / Flat,False,0,m2,False
2018303972,listing,/8-1a-gowrie-street-newtown-nsw-2042-2018303972,846000,is-sold,Sold prior to auction 07 Feb 2023,20230207,8/1A Gowrie Street,NEWTOWN,NSW,2042,-33.89859,151.1818,1,1,1,ApartmentUnitFlat,Apartment / Unit / Flat,False,72,m2,False
2018311274,listing,/56-holmwood-street-newtown-nsw-2042-2018311274,2100000,is-sold,Sold by private treaty 08 Feb 2023,20230208,56 Holmwood Street,NEWTOWN,NSW,2042,-33.9046974,151.178192,3,3,3,House,House,False,149,m2,False
2018083239,listing,/8-119-probert-street-newtown-nsw-2042-2018083239,355000,is-sold,Sold prior to auction 06 Dec 2022,20221206,8/119 Probert Street,NEWTOWN,NSW,2042,-33.8956947,151.1763,NaN,1.0,NaN,ApartmentUnitFlat,Apartment / Unit / Flat,False,0,m2,False
2018126135,listing,/64-2-6-brown-street-newtown-nsw-2042-2018126135,690000,is-sold,Sold by private treaty 01 Dec 2022,20221201,64/2-6 Brown Street,NEWTOWN,NSW,2042,-33.8950157,151.1828,1,1,1,ApartmentUnitFlat,Apartment / Unit / Flat,False,0,m2,False
2018140716,listing,/9-2-6-brown-street-newtown-nsw-2042-2018140716,441000,is-sold,Sold by private treaty 01 Dec 2022,20221201,9/2-6 Brown Street,NEWTOWN,NSW,2042,-33.8950157,151.1828,NaN,1.0,1.0,Studio,Studio,False,0,m2,False
2018157089,listing,/5-yaralla-street-newtown-nsw-2042-2018157089,1300000,is-sold,Sold at auction 26 Nov 2022,20221126,5 Yaralla Street,NEWTOWN,NSW,2042,-33.89405,151.184464,2,2,2,House,House,False,104,m2,False
2018158093,listing,/22-laura-street-newtown-nsw-2042-2018158093,2250000,is-sold,Sold by private treaty 09 Dec 2022,20221209,22 Laura Street,NEWTOWN,NSW,2042,-33.9061127,151.174591,3,3,3,House,House,False,221,m2,False
2018162752,listing,/87-155-missenden-road-newtown-nsw-2042-2018162752,687000,is-sold,Sold at auction 26 Nov 2022,20221126,87/155 Missenden Road,NEWTOWN,NSW,2042,-33.8922272,151.182755,1,1,1,ApartmentUnitFlat,Apartment / Unit / Flat,False,53,m2,False
2018164806,listing,/4-65-fotheringham-street-enmore-nsw-2042-2018164806,1031000,is-sold,Sold at auction 26 Nov 2022,20221126,4/65 Fotheringham Street,ENMORE,NSW,2042,-33.9015579,151.169037,2,2,2,Townhouse,Townhouse,False,0,m2,False
2018170604,listing,/28-wells-newtown-nsw-2042-2018170604,1463000,is-sold,Sold by private treaty 13 Dec 2022,20221213,28 Wells,NEWTOWN,NSW,2042,-33.9058228,151.179184,2,2,2,Terrace,Terrace,False,0,m2,False
2018172329,listing,/20-london-street-enmore-nsw-2042-2018172329,Price Withheld,is-sold,Sold at auction 30 Nov 2022,20221130,20 London Street,ENMORE,NSW,2042,-33.89778,151.171051,6,6,6,House,House,False,562,m2,False
2018172560,listing,/25-gibbes-street-newtown-nsw-2042-2018172560,1110000,is-sold,Sold at auction 01 Dec 2022,20221201,25 Gibbes Street,NEWTOWN,NSW,2042,-33.8996048,151.180069,2,2,2,House,House,False,0,m2,False
2018172565,listing,/28-susan-street-newtown-nsw-2042-2018172565,1080000,is-sold,Sold at auction 01 Dec 2022,20221201,28 Susan Street,NEWTOWN,NSW,2042,-33.8924675,151.182312,1,1,1,House,House,False,0,m2,False
2018175730,listing,/30-linthorpe-lane-newtown-nsw-2042-2018175730,1250000,is-sold,Sold at auction 01 Dec 2022,20221201,30 Linthorpe Lane,NEWTOWN,NSW,2042,-33.8967133,151.181686,2,2,2,House,House,False,0,m2,False
2018190288,listing,/192-wilson-street-newtown-nsw-2042-2018190288,1480000,is-sold,Sold prior to auction 28 Nov 2022,20221128,192 Wilson Street,NEWTOWN,NSW,2042,-33.894577,151.1869,2,2,2,House,House,False,153,m2,False
2018193007,listing,/10-harrington-street-enmore-nsw-2042-2018193007,1780000,is-sold,Sold at auction 03 Dec 2022,20221203,10 Harrington Street,ENMORE,NSW,2042,-33.8993759,151.166931,4,4,4,House,House,False,335,m2,False
2018200099,listing,/3-7-9-pemell-lane-newtown-nsw-2042-2018200099,1195000,is-sold,Sold at auction 10 Dec 2022,20221210,3/7-9 Pemell Lane,NEWTOWN,NSW,2042,-33.8994446,151.174332,2,2,2,Townhouse,Townhouse,False,0,m2,False
2018203661,listing,/56-gowrie-street-newtown-nsw-2042-2018203661,2100000,is-sold,Sold at auction 09 Dec 2022,20221209,56 Gowrie Street,NEWTOWN,NSW,2042,-33.90009,151.181534,3,3,3,House,House,False,149,m2,False
2018207350,listing,/73-camden-street-enmore-nsw-2042-2018207350,2365000,is-sold,Sold at auction 10 Dec 2022,20221210,73 Camden Street,ENMORE,NSW,2042,-33.9030838,151.174576,4,4,4,House,House,False,436,m2,False
2018207427,listing,/27-wemyss-street-enmore-nsw-2042-2018207427,Price Withheld,is-sold,Sold at auction 10 Dec 2022,20221210,27 Wemyss Street,ENMORE,NSW,2042,-33.8998833,151.1659,2,2,2,House,House,False,259,m2,False
2018207506,listing,/1-398-402-king-street-newtown-nsw-2042-2018207506,640000,is-sold,Sold at auction 10 Dec 2022,20221210,1/398-402 King Street,NEWTOWN,NSW,2042,-33.8997536,151.17807,1,1,1,ApartmentUnitFlat,Apartment / Unit / Flat,False,0,m2,False
2018210042,listing,/44-wilson-street-newtown-nsw-2042-2018210042,2150000,is-sold,Sold at auction 05 Dec 2022,20221205,44 Wilson Street,NEWTOWN,NSW,2042,-33.89615,151.181656,3,3,3,House,House,False,177,m2,False
2018040805,listing,/49-trafalgar-street-enmore-nsw-2042-2018040805,1405000,is-sold,Sold by private treaty 22 Nov 2022,20221122,49 Trafalgar Street,ENMORE,NSW,2042,-33.89584,151.171738,3,3,3,House,House,False,0,m2,False
2018124640,listing,/43-augustus-street-enmore-nsw-2042-2018124640,Price Withheld,is-sold,Sold by private treaty 23 Nov 2022,20221123,43 Augustus Street,ENMORE,NSW,2042,-33.8966179,151.171738,3,3,3,House,House,False,128,m2,False
2018126371,listing,/87-station-street-newtown-nsw-2042-2018126371,1250000,is-sold,Sold by private treaty 11 Nov 2022,20221111,87 Station Street,NEWTOWN,NSW,2042,-33.90088,151.177246,2,2,2,House,House,False,0,m2,False
2018128580,listing,/18-30-bucknell-street-newtown-nsw-2042-2018128580,982000,is-sold,Sold at auction 12 Nov 2022,20221112,18/30 Bucknell Street,NEWTOWN,NSW,2042,-33.8948364,151.184341,2,2,2,Townhouse,Townhouse,False,0,m2,False
2018129737,listing,/37-london-street-enmore-nsw-2042-2018129737,1500000,is-sold,Sold by private treaty 17 Nov 2022,20221117,37 London Street,ENMORE,NSW,2042,-33.89736,151.171677,3,3,3,House,House,False,0,m2,False
2018129773,listing,/24-don-street-newtown-nsw-2042-2018129773,1605000,is-sold,Sold at auction 12 Nov 2022,20221112,24 Don Street,NEWTOWN,NSW,2042,-33.8998642,151.175888,2,2,2,House,House,False,183,m2,False
2018130115,listing,/48-linthorpe-street-newtown-nsw-2042-2018130115,2325000,is-sold,Sold at auction 05 Nov 2022,20221105,48 Linthorpe Street,NEWTOWN,NSW,2042,-33.8967133,151.18251,3,3,3,House,House,False,152,m2,False
2018140003,listing,/12-17-21-lord-street-newtown-nsw-2042-2018140003,755000,is-sold,Sold at auction 10 Nov 2022,20221110,12/17-21 Lord Street,NEWTOWN,NSW,2042,-33.90674,151.180176,1,1,1,ApartmentUnitFlat,Apartment / Unit / Flat,False,0,m2,False
2018142348,listing,/19-iredale-street-newtown-nsw-2042-2018142348,1670000,is-sold,Sold at auction 13 Nov 2022,20221113,19 Iredale Street,NEWTOWN,NSW,2042,-33.9028435,151.179962,3,3,3,House,House,False,139,m2,False
2018144375,listing,/27-holmwood-street-newtown-nsw-2042-2018144375,1542000,is-sold,Sold at auction 12 Nov 2022,20221112,27 Holmwood Street,NEWTOWN,NSW,2042,-33.90406,151.178726,2,2,2,House,House,False,0,m2,False
2018152501,listing,/54-edgeware-road-enmore-nsw-2042-2018152501,Price Withheld,is-sold,Sold prior to auction 10 Nov 2022,20221110,54 Edgeware Road,ENMORE,NSW,2042,-33.9011841,151.171951,3,3,3,House,House,False,186,m2,False
2018160073,listing,/168a-church-street-newtown-nsw-2042-2018160073,1665000,is-sold,Sold prior to auction 18 Nov 2022,20221118,168A Church Street,NEWTOWN,NSW,2042,-33.8917961,151.179672,3,3,3,House,House,False,0,m2,False
2018160356,listing,/8-141-enmore-road-enmore-nsw-2042-2018160356,780000,is-sold,Sold at auction 24 Nov 2022,20221124,8/141 Enmore Road,ENMORE,NSW,2042,-33.8986778,151.173248,1,1,1,ApartmentUnitFlat,Apartment / Unit / Flat,False,0,m2,False
2018162411,listing,/14-146-alice-street-newtown-nsw-2042-2018162411,1505000,is-sold,Sold prior to auction 14 Nov 2022,20221114,14/146 Alice Street,NEWTOWN,NSW,2042,-33.90527,151.17453,3,3,3,Townhouse,Townhouse,False,0,m2,False
2018164705,listing,/12-14-susan-street-newtown-nsw-2042-2018164705,2196000,is-sold,Sold at auction 26 Nov 2022,20221126,12-14 Susan Street,NEWTOWN,NSW,2042,-33.8927956,151.182449,4,4,4,House,House,False,204,m2,False
2018169658,listing,/84-gowrie-street-newtown-nsw-2042-2018169658,Price Withheld,is-sold,Sold prior to auction 22 Nov 2022,20221122,84 Gowrie Street,NEWTOWN,NSW,2042,-33.9006157,151.181351,2,2,2,House,House,False,116,m2,False
2018170429,listing,/29-wilson-street-newtown-nsw-2042-2018170429,2210000,is-sold,Sold prior to auction 14 Nov 2022,20221114,29 Wilson Street,NEWTOWN,NSW,2042,-33.89666,151.181229,3,3,3,House,House,False,170,m2,False
2018191191,listing,/4-38-brown-street-newtown-nsw-2042-2018191191,558888,is-sold,Sold by private treaty 21 Nov 2022,20221121,4/38 Brown Street,NEWTOWN,NSW,2042,-33.89664,151.183319,1,1,1,ApartmentUnitFlat,Apartment / Unit / Flat,False,0,m2,False
2018212235,listing,/45-union-street-newtown-nsw-2042-2018212235,2380000,is-sold,Sold by private treaty 18 Nov 2022,20221118,45 Union Street,NEWTOWN,NSW,2042,-33.9003258,151.181885,3,3,3,House,House,False,151,m2,False
2018376265,listing,/10-6-8-albert-street-newtown-nsw-2042-2018376265,925000,is-sold,Sold by private treaty 12 Nov 2022,20221112,10/6-8 Albert Street,NEWTOWN,NSW,2042,-33.89526,151.17305,2,2,2,Townhouse,Townhouse,False,120,m2,False
2017963881,listing,/12-306-edgeware-road-newtown-nsw-2042-2017963881,Price Withheld,is-sold,Sold by private treaty 27 Oct 2022,20221027,12/306 Edgeware Road,NEWTOWN,NSW,2042,-33.9070969,151.1748,NaN,1.0,NaN,ApartmentUnitFlat,Apartment / Unit / Flat,False,471,m2,False
2017990954,listing,/a202-32-alice-street-newtown-nsw-2042-2017990954,Price Withheld,is-sold,Sold by private treaty 01 Nov 2022,20221101,A202/32 Alice Street,NEWTOWN,NSW,2042,-33.9036865,151.177963,2,2,2,ApartmentUnitFlat,Apartment / Unit / Flat,False,0,m2,False
2018053999,listing,/125-wilson-street-newtown-nsw-2042-2018053999,1100000,is-sold,Sold by private treaty 28 Oct 2022,20221028,125 Wilson Street,NEWTOWN,NSW,2042,-33.8956223,151.184387,2,2,2,House,House,False,0,m2,False
2018061614,listing,/9-146-alice-street-newtown-nsw-2042-2018061614,1525000,is-sold,Sold by private treaty 16 Oct 2022,20221016,9/146 Alice Street,NEWTOWN,NSW,2042,-33.90527,151.17453,3,3,3,Townhouse,Townhouse,False,164,m2,False
2018065452,listing,/43-trafalgar-street-enmore-nsw-2042-2018065452,1110000,is-sold,Sold at auction 15 Oct 2022,20221015,43 Trafalgar Street,ENMORE,NSW,2042,-33.8959,151.1719,2,2,2,House,House,False,101,m2,False
2018077233,listing,/201-130-carillon-avenue-newtown-nsw-2042-2018077233,680000,is-sold,Sold at auction 15 Oct 2022,20221015,201/130 Carillon Avenue,NEWTOWN,NSW,2042,-33.89168,151.181335,1,1,1,ApartmentUnitFlat,Apartment / Unit / Flat,False,0,m2,False
2018088258,listing,/47-gladstone-street-enmore-nsw-2042-2018088258,1301000,is-sold,Sold at auction 22 Oct 2022,20221022,47 Gladstone Street,ENMORE,NSW,2042,-33.8962,151.171967,2,2,2,House,House,False,95,m2,False
2018097466,listing,/50-linthorpe-street-newtown-nsw-2042-2018097466,1710000,is-sold,Sold at auction 22 Oct 2022,20221022,50 Linthorpe Street,NEWTOWN,NSW,2042,-33.896698,151.182556,2,2,2,House,House,False,152,m2,False
2018097845,listing,/107-union-street-newtown-nsw-2042-2018097845,1070000,is-sold,Sold at auction 28 Oct 2022,20221028,107 Union Street,NEWTOWN,NSW,2042,-33.90227,151.181244,1,1,1,House,House,False,0,m2,False
2018105134,listing,/101-metropolitan-road-enmore-nsw-2042-2018105134,1350000,is-sold,Sold at auction 29 Oct 2022,20221029,101 Metropolitan Road,ENMORE,NSW,2042,-33.9022255,151.172745,2,2,2,House,House,False,0,m2,False
2018107043,listing,/43-leamington-avenue-newtown-nsw-2042-2018107043,2225000,is-sold,Sold at auction 29 Oct 2022,20221029,43 Leamington Avenue,NEWTOWN,NSW,2042,-33.89596,151.187256,3,3,3,House,House,False,139,m2,False
2018108572,listing,/409-1-georgina-street-newtown-nsw-2042-2018108572,668000,is-sold,Sold by private treaty 25 Oct 2022,20221025,409/1 Georgina Street,NEWTOWN,NSW,2042,-33.89309,151.185043,1,1,1,ApartmentUnitFlat,Apartment / Unit / Flat,False,66,m2,False
2018108918,listing,/81-probert-street-newtown-nsw-2042-2018108918,1975000,is-sold,Sold at auction 29 Oct 2022,20221029,81 Probert Street,NEWTOWN,NSW,2042,-33.89463,151.175751,4,4,4,House,House,False,127,m2,False
2018111806,listing,/8-whitehorse-street-newtown-nsw-2042-2018111806,1409000,is-sold,Sold at auction 29 Oct 2022,20221029,8 Whitehorse Street,NEWTOWN,NSW,2042,-33.8990974,151.1793,2,2,2,House,House,False,160,m2,False
2018112616,listing,/41-forbes-street-newtown-nsw-2042-2018112616,2200000,is-sold,Sold at auction 29 Oct 2022,20221029,41 Forbes Street,NEWTOWN,NSW,2042,-33.89358,151.187973,3,3,3,House,House,False,157,m2,False
2018112842,listing,/172-church-street-newtown-nsw-2042-2018112842,1665000,is-sold,Sold prior to auction 28 Oct 2022,20221028,172 Church Street,NEWTOWN,NSW,2042,-33.8920135,151.179779,3,3,3,House,House,False,128,m2,False
2018122656,listing,/49-forbes-street-newtown-nsw-2042-2018122656,2150000,is-sold,Sold at auction 02 Nov 2022,20221102,49 Forbes Street,NEWTOWN,NSW,2042,-33.8937645,151.187973,4,4,4,House,House,False,0,m2,False
2018125402,listing,/131-union-street-newtown-nsw-2042-2018125402,1810000,is-sold,Sold at auction 05 Nov 2022,20221105,131 Union Street,NEWTOWN,NSW,2042,-33.90277,151.181076,3,3,3,House,House,False,126,m2,False
2018150484,listing,/84-margaret-street-newtown-nsw-2042-2018150484,1750000,is-sold,Sold prior to auction 04 Nov 2022,20221104,84 Margaret Street,NEWTOWN,NSW,2042,-33.9019051,151.174545,2,2,2,House,House,False,102,m2,False
2018182923,listing,/29-gladstone-street-enmore-nsw-2042-2018182923,1255000,is-sold,Sold by private treaty 04 Nov 2022,20221104,29 Gladstone Street,ENMORE,NSW,2042,-33.8963776,151.172348,2,2,2,House,House,False,106,m2,False
2017845111,listing,/2-6-8-albert-street-newtown-nsw-2042-2017845111,1470000,is-sold,Sold by private treaty 23 Sep 2022,20220923,2/6-8 Albert Street,NEWTOWN,NSW,2042,-33.89526,151.17305,3,3,3,Townhouse,Townhouse,False,147,m2,False
2017980611,listing,/7-31-james-street-enmore-nsw-2042-2017980611,Price Withheld,is-sold,Sold by private treaty 10 Oct 2022,20221010,7/31 James Street,ENMORE,NSW,2042,-33.90287,151.17421,NaN,1.0,1.0,Studio,Studio,False,37,m2,False
2017983319,listing,/157-probert-street-newtown-nsw-2042-2017983319,1238000,is-sold,Sold by private treaty 29 Sep 2022,20220929,157 Probert Street,NEWTOWN,NSW,2042,-33.8972435,151.176926,2,2,2,House,House,False,115,m2,False
2017991360,listing,/9-2b-gladstone-street-newtown-nsw-2042-2017991360,1300000,is-sold,Sold by private treaty 24 Sep 2022,20220924,9/2B Gladstone Street,NEWTOWN,NSW,2042,-33.8977356,151.174377,3,3,3,Townhouse,Townhouse,False,132,m2,False
2018016393,listing,/5-camden-street-newtown-nsw-2042-2018016393,1400000,is-sold,Sold at auction 24 Sep 2022,20220924,5 Camden Street,NEWTOWN,NSW,2042,-33.9022942,151.177017,3,3,3,House,House,False,181,m2,False
2018016399,listing,/4-rawson-street-newtown-nsw-2042-2018016399,1900000,is-sold,Sold at auction 24 Sep 2022,20220924,4 Rawson Street,NEWTOWN,NSW,2042,-33.9001656,151.177048,3,3,3,House,House,False,0,m2,False
2018035582,listing,/2-gibbes-street-newtown-nsw-2042-2018035582,2560000,is-sold,Sold at auction 24 Sep 2022,20220924,2 Gibbes Street,NEWTOWN,NSW,2042,-33.89935,151.179474,4,4,4,House,House,False,220,m2,False
2018038622,listing,/130-wilson-street-newtown-nsw-2042-2018038622,1340000,is-sold,Sold by private treaty 24 Sep 2022,20220924,130 Wilson Street,NEWTOWN,NSW,2042,-33.89535,151.184509,2,2,2,House,House,False,0,m2,False
2018040246,listing,/74-marian-street-enmore-nsw-2042-2018040246,2450000,is-sold,Sold at auction 29 Sep 2022,20220929,74 Marian Street,ENMORE,NSW,2042,-33.90117,151.1738,3,3,3,House,House,False,255,m2,False
2018042754,listing,/81-campbell-street-newtown-nsw-2042-2018042754,1605000,is-sold,Sold at auction 24 Sep 2022,20220924,81 Campbell Street,NEWTOWN,NSW,2042,-33.892334,151.185226,2,2,2,Terrace,Terrace,False,0,m2,False
2018045910,listing,/9-16-sebastopol-street-enmore-nsw-2042-2018045910,945000,is-sold,Sold at auction 01 Oct 2022,20221001,9/16 Sebastopol Street,ENMORE,NSW,2042,-33.900074,151.166458,2,2,2,ApartmentUnitFlat,Apartment / Unit / Flat,False,0,m2,False
2018048583,listing,/59-3-13-erskineville-road-enter-via-brennan-ln-newtown-nsw-2042-2018048583,630000,is-sold,Sold at auction 24 Sep 2022,20220924,59/3-13 Erskineville Road (enter via Brennan Ln),NEWTOWN,NSW,2042,-33.8974037,151.180634,1,1,1,ApartmentUnitFlat,Apartment / Unit / Flat,False,81,m2,False
2018053350,listing,/77-campbell-street-newtown-nsw-2042-2018053350,1130000,is-sold,Sold at auction 06 Oct 2022,20221006,77 Campbell Street,NEWTOWN,NSW,2042,-33.89237,151.185043,2,2,2,House,House,False,0,m2,False
2018057759,listing,/73-liberty-street-enmore-nsw-2042-2018057759,2000000,is-sold,Sold by private treaty 08 Oct 2022,20221008,73 Liberty Street,ENMORE,NSW,2042,-33.8956947,151.1715,3,3,3,House,House,False,158,m2,False
2018065975,listing,/23-503-511-king-street-newtown-nsw-2042-2018065975,780000,is-sold,Sold prior to auction 07 Oct 2022,20221007,23/503-511 King Street,NEWTOWN,NSW,2042,-33.90275,151.179214,2,2,2,ApartmentUnitFlat,Apartment / Unit / Flat,False,0,m2,False
2018067223,listing,/8-holt-street-newtown-nsw-2042-2018067223,1651000,is-sold,Sold at auction 28 Sep 2022,20220928,8 Holt Street,NEWTOWN,NSW,2042,-33.9006042,151.177109,3,3,3,House,House,False,101,m2,False
2018068132,listing,/9-1-3-queen-street-newtown-nsw-2042-2018068132,670000,is-sold,Sold at auction 13 Oct 2022,20221013,9/1-3 Queen Street,NEWTOWN,NSW,2042,-33.89275,151.186874,1,1,1,ApartmentUnitFlat,Apartment / Unit / Flat,False,0,m2,False
2018071146,listing,/7a-oxford-street-newtown-nsw-2042-2018071146,1300000,is-sold,Sold prior to auction 06 Oct 2022,20221006,7A Oxford Street,NEWTOWN,NSW,2042,-33.8954353,151.175079,2,2,2,House,House,False,133,m2,False
2018087435,listing,/126-station-street-newtown-nsw-2042-2018087435,1700000,is-sold,Sold by private treaty 23 Sep 2022,20220923,126 Station Street,NEWTOWN,NSW,2042,-33.9013748,151.177856,3,3,3,House,House,False,118,m2,False
2018130738,listing,/41-oxford-street-newtown-nsw-2042-2018130738,Price Withheld,is-sold,Sold by private treaty 13 Oct 2022,20221013,41 Oxford Street,NEWTOWN,NSW,2042,-33.8945541,151.174545,2,2,2,House,House,False,120,m2,False
2017816258,listing,/9-angel-street-newtown-nsw-2042-2017816258,Price Withheld,is-sold,Sold by private treaty 15 Sep 2022,20220915,9 Angel Street,NEWTOWN,NSW,2042,-33.8995171,151.180527,2,2,2,House,House,False,0,m2,False
2017844664,listing,/6-43-college-street-newtown-nsw-2042-2017844664,1040000,is-sold,Sold by private treaty 01 Sep 2022,20220901,6/43 College Street,NEWTOWN,NSW,2042,-33.90225,151.177322,2,2,2,ApartmentUnitFlat,Apartment / Unit / Flat,False,0,m2,False
2017867809,listing,/3-18-20-wilson-street-newtown-nsw-2042-2017867809,715000,is-sold,Sold by private treaty 13 Sep 2022,20220913,3/18-20 Wilson Street,NEWTOWN,NSW,2042,-33.8964577,151.180862,2,2,2,ApartmentUnitFlat,Apartment / Unit / Flat,False,0,m2,False
2017877324,listing,/31-watkin-street-newtown-nsw-2042-2017877324,2750000,is-sold,Sold by private treaty 31 Aug 2022,20220831,31 Watkin Street,NEWTOWN,NSW,2042,-33.89517,151.183289,4,4,4,Terrace,Terrace,False,0,m2,False
2017888865,listing,/405-52-alice-street-newtown-nsw-2042-2017888865,675000,is-sold,Sold by private treaty 15 Sep 2022,20220915,405/52 Alice Street,NEWTOWN,NSW,2042,-33.9037857,151.177292,1,1,1,ApartmentUnitFlat,Apartment / Unit / Flat,False,0,m2,False
2017970183,listing,/51-commodore-street-newtown-nsw-2042-2017970183,1375000,is-sold,Sold at auction 27 Aug 2022,20220827,51 Commodore Street,NEWTOWN,NSW,2042,-33.90598,151.176849,2,2,2,House,House,False,139,m2,False
2017971348,listing,/13-83-91-wilson-street-newtown-nsw-2042-2017971348,900000,is-sold,Sold by private treaty 08 Sep 2022,20220908,13/83-91 Wilson Street,NEWTOWN,NSW,2042,-33.89617,151.183182,2,2,2,ApartmentUnitFlat,Apartment / Unit / Flat,False,0,m2,False
2017978024,listing,/459-king-street-newtown-nsw-2042-2017978024,2100000,is-sold,Sold at auction 01 Sep 2022,20220901,459 King Street,NEWTOWN,NSW,2042,-33.9015656,151.178467,2,2,2,House,House,False,193,m2,False
2017987497,listing,/15-camden-street-newtown-nsw-2042-2017987497,2550000,is-sold,Sold at auction 03 Sep 2022,20220903,15 Camden Street,NEWTOWN,NSW,2042,-33.9024734,151.1766,4,4,4,House,House,False,182,m2,False
2017990927,listing,/240-church-street-newtown-nsw-2042-2017990927,2000000,is-sold,Sold at auction 08 Sep 2022,20220908,240 Church Street,NEWTOWN,NSW,2042,-33.8935661,151.1805,3,3,3,House,House,False,143,m2,False
2017993986,listing,/37-college-street-newtown-nsw-2042-2017993986,1940000,is-sold,Sold at auction 20 Sep 2022,20220920,37 College Street,NEWTOWN,NSW,2042,-33.9019432,151.177246,3,3,3,House,House,False,164,m2,False
2018001672,listing,/142-alice-street-newtown-nsw-2042-2018001672,1470000,is-sold,Sold by private treaty 09 Sep 2022,20220909,142 Alice Street,NEWTOWN,NSW,2042,-33.9048958,151.1743,3,3,3,Terrace,Terrace,False,177,m2,False
2018006054,listing,/1-kent-street-newtown-nsw-2042-2018006054,1800000,is-sold,Sold prior to auction 31 Aug 2022,20220831,1 Kent Street,NEWTOWN,NSW,2042,-33.90158,151.176788,4,4,4,House,House,False,152,m2,False
2018006334,listing,/45-queen-street-newtown-nsw-2042-2018006334,1685000,is-sold,Sold by private treaty 22 Sep 2022,20220922,45 Queen Street,NEWTOWN,NSW,2042,-33.89423,151.187592,3,3,3,House,House,False,0,m2,False
2018009037,listing,/24-belmore-street-enmore-nsw-2042-2018009037,1700000,is-sold,Sold prior to auction 06 Sep 2022,20220906,24 Belmore Street,ENMORE,NSW,2042,-33.8983154,151.172684,3,3,3,House,House,False,119,m2,False
2018017112,listing,/26b-wells-street-newtown-nsw-2042-2018017112,2750000,is-sold,Sold prior to auction 09 Sep 2022,20220909,26b Wells Street,NEWTOWN,NSW,2042,-33.9058075,151.179245,3,3,3,House,House,False,252,m2,False
2018018582,listing,/134-wilson-street-newtown-nsw-2042-2018018582,2222000,is-sold,Sold at auction 17 Sep 2022,20220917,134 Wilson Street,NEWTOWN,NSW,2042,-33.895298,151.184631,3,3,3,House,House,False,259,m2,False
2018025296,listing,/156-station-street-newtown-nsw-2042-2018025296,2000000,is-sold,Sold prior to auction 14 Sep 2022,20220914,156 Station Street,NEWTOWN,NSW,2042,-33.9019852,151.178223,4,4,4,House,House,False,0,m2,False
2018026844,listing,/86-newman-street-newtown-nsw-2042-2018026844,1550000,is-sold,Sold prior to auction 08 Sep 2022,20220908,86 Newman Street,NEWTOWN,NSW,2042,-33.8990059,151.1813,3,3,3,House,House,False,0,m2,False
2018037137,listing,/26a-pearl-street-newtown-nsw-2042-2018037137,1600000,is-sold,Sold prior to auction 06 Sep 2022,20220906,26A Pearl Street,NEWTOWN,NSW,2042,-33.904953,151.17746,2,2,2,House,House,False,146,m2,False
2017652192,listing,/19-15-17-erskineville-road-newtown-nsw-2042-2017652192,900000,is-sold,Sold by private treaty 11 Aug 2022,20220811,19/15-17 Erskineville Road,NEWTOWN,NSW,2042,-33.89828,151.181519,2,2,2,ApartmentUnitFlat,Apartment / Unit / Flat,False,0,m2,False
2017733676,listing,/4-22-tupper-street-enmore-nsw-2042-2017733676,710000,is-sold,Sold by private treaty 17 Aug 2022,20220817,4/22 Tupper Street,ENMORE,NSW,2042,-33.89986,151.167877,2,2,2,ApartmentUnitFlat,Apartment / Unit / Flat,False,0,m2,False
2017797522,listing,/599-king-street-newtown-nsw-2042-2017797522,1650000,is-sold,Sold at auction 27 Aug 2022,20220827,599 King Street,NEWTOWN,NSW,2042,-33.9060059,151.180771,2,2,2,House,House,False,187,m2,False
2017831019,listing,/113-albermarle-street-newtown-nsw-2042-2017831019,1400000,is-sold,Sold by private treaty 12 Aug 2022,20220812,113 Albermarle Street,NEWTOWN,NSW,2042,-33.89617,151.173737,2,2,2,House,House,False,142,m2,False
2017840649,listing,/152-denison-street-newtown-nsw-2042-2017840649,1200000,is-sold,Sold by private treaty 16 Aug 2022,20220816,152 Denison Street,NEWTOWN,NSW,2042,-33.8939171,151.17659,2,2,2,Terrace,Terrace,False,95,m2,False
2017906746,listing,/79-o-connell-street-newtown-nsw-2042-2017906746,1085000,is-sold,Sold by private treaty 23 Aug 2022,20220823,79 O'Connell Street,NEWTOWN,NSW,2042,-33.891964,151.181854,2,2,2,House,House,False,0,m2,False
2017916660,listing,/41-queen-street-newtown-nsw-2042-2017916660,2060000,is-sold,Sold by private treaty 15 Aug 2022,20220815,41 Queen Street,NEWTOWN,NSW,2042,-33.89411,151.187469,3,3,3,House,House,False,291,m2,False
2017935765,listing,/11-45-harrington-street-enmore-nsw-2042-2017935765,650000,is-sold,Sold by private treaty 26 Aug 2022,20220826,11/45 Harrington Street,ENMORE,NSW,2042,-33.89835,151.165222,2,2,2,ApartmentUnitFlat,Apartment / Unit / Flat,False,0,m2,False
2017950944,listing,/4-116-gowrie-street-newtown-nsw-2042-2017950944,995000,is-sold,Sold at auction 20 Aug 2022,20220820,4/116 Gowrie Street,NEWTOWN,NSW,2042,-33.90257,151.180725,2,2,2,Townhouse,Townhouse,False,0,m2,False
2017955188,listing,/25-ferndale-street-newtown-nsw-2042-2017955188,1500000,is-sold,Sold by private treaty 20 Aug 2022,20220820,25 Ferndale Street,NEWTOWN,NSW,2042,-33.9020767,151.175125,2,2,2,Terrace,Terrace,False,0,m2,False
2017958965,listing,/level-2-5-2-6-liberty-street-enmore-nsw-2042-2017958965,870000,is-sold,Sold at auction 22 Aug 2022,20220822,"Level 2, 5/2-6 Liberty Street",ENMORE,NSW,2042,-33.89747,151.169968,2,2,2,ApartmentUnitFlat,Apartment / Unit / Flat,False,0,m2,False
2017959011,listing,/37a-lord-street-newtown-nsw-2042-2017959011,1224000,is-sold,Sold at auction 25 Aug 2022,20220825,37A Lord Street,NEWTOWN,NSW,2042,-33.9069939,151.179581,3,3,3,House,House,False,0,m2,False
2017961388,listing,/9-newman-street-newtown-nsw-2042-2017961388,2100000,is-sold,Sold by private treaty 20 Aug 2022,20220820,9 Newman Street,NEWTOWN,NSW,2042,-33.8987541,151.179626,4,4,4,House,House,False,152,m2,False
2017961565,listing,/46-margaret-street-newtown-nsw-2042-2017961565,1502000,is-sold,Sold at auction 20 Aug 2022,20220820,46 Margaret Street,NEWTOWN,NSW,2042,-33.9015579,151.175842,3,3,3,House,House,False,0,m2,False
2017974954,listing,/27-iredale-street-newtown-nsw-2042-2017974954,1650000,is-sold,Sold at auction 27 Aug 2022,20220827,27 Iredale Street,NEWTOWN,NSW,2042,-33.9029655,151.180038,3,3,3,House,House,False,0,m2,False
2017980567,listing,/8-2-18-newman-street-newtown-nsw-2042-2017980567,1315000,is-sold,Sold prior to auction 26 Aug 2022,20220826,8/2-18 Newman Street,NEWTOWN,NSW,2042,-33.8983345,151.1795,2,2,2,House,House,False,0,m2,False
2017980821,listing,/65-marian-street-enmore-nsw-2042-2017980821,1550000,is-sold,Sold prior to auction 26 Aug 2022,20220826,65 Marian Street,ENMORE,NSW,2042,-33.9008446,151.1732,3,3,3,House,House,False,127,m2,False
2017982134,listing,/34-stanmore-rd-enmore-nsw-2042-2017982134,1500000,is-sold,Sold at auction 11 Aug 2022,20220811,34 Stanmore Rd,ENMORE,NSW,2042,-33.8992462,151.169571,10,10,10,House,House,False,242,m2,False
2018002412,listing,/43-reiby-street-newtown-nsw-2042-2018002412,1610000,is-sold,Sold prior to auction 25 Aug 2022,20220825,43 Reiby Street,NEWTOWN,NSW,2042,-33.90058,151.175537,3,3,3,House,House,False,158,m2,False
2018011816,listing,/186-australia-street-newtown-nsw-2042-2018011816,2900000,is-sold,Sold at auction 26 Aug 2022,20220826,186 Australia Street,NEWTOWN,NSW,2042,-33.8953743,151.17807,4,4,4,House,House,False,253,m2,False
2017781487,listing,/29-trade-street-newtown-nsw-2042-2017781487,2220000,is-sold,Sold at auction 26 Jul 2022,20220726,29 Trade Street,NEWTOWN,NSW,2042,-33.89475,151.172958,3,3,3,House,House,False,0,m2,False
2017831639,listing,/177-denison-street-newtown-nsw-2042-2017831639,Price Withheld,is-sold,Sold by private treaty 02 Aug 2022,20220802,177 Denison Street,NEWTOWN,NSW,2042,-33.8939247,151.176285,3,3,3,House,House,False,136,m2,False
2017841813,listing,/22-holmwood-street-newtown-nsw-2042-2017841813,1671000,is-sold,Sold prior to auction 01 Aug 2022,20220801,22 Holmwood Street,NEWTOWN,NSW,2042,-33.90439,151.179077,3,3,3,House,House,False,0,m2,False
2017862126,listing,/111-alice-street-newtown-nsw-2042-2017862126,1250000,is-sold,Sold by private treaty 01 Aug 2022,20220801,111 Alice Street,NEWTOWN,NSW,2042,-33.9039421,151.1756,2,2,2,House,House,False,0,m2,False
2017863166,listing,/21-rawson-street-newtown-nsw-2042-2017863166,1360000,is-sold,Sold by private treaty 08 Aug 2022,20220808,21 Rawson Street,NEWTOWN,NSW,2042,-33.900116,151.176285,2,2,2,House,House,False,129,m2,False
2017871418,listing,/17-simmons-street-enmore-nsw-2042-2017871418,1662000,is-sold,Sold prior to auction 14 Jul 2022,20220714,17 Simmons Street,ENMORE,NSW,2042,-33.8997345,151.17363,3,3,3,House,House,False,0,m2,False
2017872388,listing,/43-laura-street-newtown-nsw-2042-2017872388,1510000,is-sold,Sold at auction 21 Jul 2022,20220721,43 Laura Street,NEWTOWN,NSW,2042,-33.90562,151.1747,2,2,2,House,House,False,145,m2,False
2017878225,listing,/12-39-laura-street-newtown-nsw-2042-2017878225,965000,is-sold,Sold at auction 09 Jul 2022,20220709,12/39 Laura Street,NEWTOWN,NSW,2042,-33.90542,151.1748,2,2,2,ApartmentUnitFlat,Apartment / Unit / Flat,False,114,m2,False
2017880863,listing,/2-clara-street-newtown-nsw-2042-2017880863,1340000,is-sold,Sold at auction 23 Jul 2022,20220723,2 Clara Street,NEWTOWN,NSW,2042,-33.9034042,151.1758,2,2,2,House,House,False,127,m2,False
2017891166,listing,/37-phillip-street-newtown-nsw-2042-2017891166,2200000,is-sold,Sold at auction 16 Jul 2022,20220716,37 Phillip Street,NEWTOWN,NSW,2042,-33.8973,151.173553,3,3,3,House,House,False,158,m2,False
2017894010,listing,/7-71-wilson-street-newtown-nsw-2042-2017894010,2200000,is-sold,Sold at auction 28 Jul 2022,20220728,7/71 Wilson Street,NEWTOWN,NSW,2042,-33.8963966,151.182343,3,3,3,ApartmentUnitFlat,Apartment / Unit / Flat,False,0,m2,False
2017896387,listing,/45-brown-street-newtown-nsw-2042-2017896387,1325000,is-sold,Sold prior to auction 13 Jul 2022,20220713,45 Brown Street,NEWTOWN,NSW,2042,-33.8971825,151.182938,2,2,2,House,House,False,120,m2,False
2017902225,listing,/2a-commodore-street-newtown-nsw-2042-2017902225,1430000,is-sold,Sold at auction 23 Jul 2022,20220723,2a Commodore Street,NEWTOWN,NSW,2042,-33.9048157,151.1766,2,2,2,House,House,False,0,m2,False
2017907948,listing,/83-probert-street-newtown-nsw-2042-2017907948,1500000,is-sold,Sold prior to auction 07 Jul 2022,20220707,83 Probert Street,NEWTOWN,NSW,2042,-33.8947,151.175812,2,2,2,House,House,False,127,m2,False
2017908054,listing,/29-edgeware-road-enmore-nsw-2042-2017908054,2020000,is-sold,Sold prior to auction 21 Jul 2022,20220721,29 Edgeware Road,ENMORE,NSW,2042,-33.90085,151.171326,3,3,3,House,House,False,0,m2,False
2017911889,listing,/102-38-alice-street-newtown-nsw-2042-2017911889,800000,is-sold,Sold prior to auction 28 Jul 2022,20220728,102/38 Alice Street,NEWTOWN,NSW,2042,-33.9036827,151.17746,1,1,1,ApartmentUnitFlat,Apartment / Unit / Flat,False,0,m2,False
2017915505,listing,/64-camden-street-newtown-nsw-2042-2017915505,1350000,is-sold,Sold prior to auction 22 Jul 2022,20220722,64 Camden Street,NEWTOWN,NSW,2042,-33.90283,151.176865,2,2,2,House,House,False,149,m2,False
2017918811,listing,/76-margaret-street-newtown-nsw-2042-2017918811,1190000,is-sold,Sold prior to auction 14 Jul 2022,20220714,76 Margaret Street,NEWTOWN,NSW,2042,-33.9018326,151.174713,1,1,1,House,House,False,94,m2,False
2017921635,listing,/411-88-king-street-newtown-nsw-2042-2017921635,455000,is-sold,Sold by private treaty 10 Aug 2022,20220810,411/88 King Street,NEWTOWN,NSW,2042,-33.893074,151.185333,1,1,1,ApartmentUnitFlat,Apartment / Unit / Flat,False,63,m2,False
2017957643,listing,/122-station-street-newtown-nsw-2042-2017957643,1565000,is-sold,Sold by private treaty 09 Aug 2022,20220809,122 Station Street,NEWTOWN,NSW,2042,-33.9012871,151.177841,3,3,3,House,House,False,0,m2,False
2017694085,listing,/6-71-alice-street-newtown-nsw-2042-2017694085,400000,is-sold,Sold by private treaty 05 Jul 2022,20220705,6/71 Alice Street,NEWTOWN,NSW,2042,-33.9033546,151.1768,NaN,1.0,NaN,Studio,Studio,False,0,m2,False
2017712086,listing,/52-raper-street-newtown-nsw-2042-2017712086,2100000,is-sold,Sold prior to auction 20 Jun 2022,20220620,52 Raper Street,NEWTOWN,NSW,2042,-33.89196,151.181381,4,4,4,House,House,False,0,m2,False
2017776941,listing,/70-metropolitan-road-enmore-nsw-2042-2017776941,2750000,is-sold,Sold by private treaty 16 Jun 2022,20220616,70 Metropolitan Road,ENMORE,NSW,2042,-33.9014359,151.173019,4,4,4,House,House,False,186,m2,False
2017792703,listing,/407w-138-carillon-avenue-newtown-nsw-2042-2017792703,960000,is-sold,Sold by private treaty 04 Jul 2022,20220704,407W/138 Carillon Avenue,NEWTOWN,NSW,2042,-33.89145,151.18042,2,2,2,ApartmentUnitFlat,Apartment / Unit / Flat,False,0,m2,False
2017813896,listing,/312-21-enmore-road-newtown-nsw-2042-2017813896,640000,is-sold,Sold by private treaty 17 Jun 2022,20220617,312/21 Enmore Road,NEWTOWN,NSW,2042,-33.8980064,151.177139,1,1,1,ApartmentUnitFlat,Apartment / Unit / Flat,False,0,m2,False
2017814039,listing,/117-probert-street-newtown-nsw-2042-2017814039,1455000,is-sold,Sold at auction 22 Jun 2022,20220622,117 Probert Street,NEWTOWN,NSW,2042,-33.8955,151.176163,12,12,12,House,House,False,191,m2,False
2017816977,listing,/7-baltic-street-newtown-nsw-2042-2017816977,1225000,is-sold,Sold prior to auction 21 Jun 2022,20220621,7 Baltic Street,NEWTOWN,NSW,2042,-33.8966064,151.174744,2,2,2,House,House,False,127,m2,False
2017822885,listing,/17-o-connell-street-newtown-nsw-2042-2017822885,2560000,is-sold,Sold at auction 30 Jun 2022,20220630,17 O'Connell Street,NEWTOWN,NSW,2042,-33.8933563,151.18248,4,4,4,House,House,False,227,m2,False
2017823862,listing,/3-st-john-street-newtown-nsw-2042-2017823862,1940000,is-sold,Sold prior to auction 16 Jun 2022,20220616,3 St John Street,NEWTOWN,NSW,2042,-33.901947,151.179474,3,3,3,House,House,False,129,m2,False
2017830093,listing,/12-liberty-street-enmore-nsw-2042-2017830093,2320000,is-sold,Sold prior to auction 15 Jun 2022,20220615,12 Liberty Street,ENMORE,NSW,2042,-33.89799,151.1698,8,8,8,BlockOfUnits,Block of Units,False,424,m2,False
2017830852,listing,/39-cambridge-street-enmore-nsw-2042-2017830852,1890000,is-sold,Sold prior to auction 24 Jun 2022,20220624,39 Cambridge Street,ENMORE,NSW,2042,-33.8974037,151.170929,3,3,3,House,House,False,139,m2,False
2017838283,listing,/60-o-connell-street-newtown-nsw-2042-2017838283,1310000,is-sold,Sold at auction 18 Jun 2022,20220618,60 O'Connell Street,NEWTOWN,NSW,2042,-33.8925247,151.181763,2,2,2,House,House,False,114,m2,False
2017844234,listing,/208-wilson-street-newtown-nsw-2042-2017844234,2200000,is-sold,Sold prior to auction 01 Jul 2022,20220701,208 Wilson Street,NEWTOWN,NSW,2042,-33.89448,151.187347,3,3,3,House,House,False,117,m2,False
2017846019,listing,/31-60-brocks-lane-newtown-nsw-2042-2017846019,555000,is-sold,Sold prior to auction 20 Jun 2022,20220620,31/60 Brocks Lane,NEWTOWN,NSW,2042,-33.8945,151.1847,1,1,1,ApartmentUnitFlat,Apartment / Unit / Flat,False,65,m2,False
2017848736,listing,/2-56-susan-street-newtown-nsw-2042-2017848736,705000,is-sold,Sold by private treaty 29 Jun 2022,20220629,2/56 Susan Street,NEWTOWN,NSW,2042,-33.89177,151.182022,NaN,1.0,NaN,Studio,Studio,False,0,m2,False
2017849174,listing,/8-oxford-street-newtown-nsw-2042-2017849174,Price Withheld,is-sold,Sold prior to auction 15 Jun 2022,20220615,8 Oxford Street,NEWTOWN,NSW,2042,-33.8964081,151.175,3,3,3,ApartmentUnitFlat,Apartment / Unit / Flat,False,0,m2,False
2017864334,listing,/24-ferndale-street-newtown-nsw-2042-2017864334,1240000,is-sold,Sold prior to auction 07 Jul 2022,20220707,24 Ferndale Street,NEWTOWN,NSW,2042,-33.9024773,151.175674,2,2,2,House,House,False,101,m2,False
2017897921,listing,/52-raper-street-newtown-nsw-2042-2017897921,2100000,is-sold,Sold prior to auction 20 Jun 2022,20220620,52 Raper Street,NEWTOWN,NSW,2042,-33.89196,151.181381,4,4,4,House,House,False,0,m2,False
2017917821,listing,/23-gowrie-street-newtown-nsw-2042-2017917821,1180000,is-sold,Sold by private treaty 05 Jul 2022,20220705,23 Gowrie Street,NEWTOWN,NSW,2042,-33.8993378,151.1814,1,1,1,House,House,False,0,m2,False
2018012083,listing,/12-trade-street-newtown-nsw-2042-2018012083,1415000,is-sold,Sold by private treaty 04 Jul 2022,20220704,12 Trade Street,NEWTOWN,NSW,2042,-33.8950844,151.172531,3,3,3,Terrace,Terrace,False,0,m2,False
2017435593,listing,/7-71-alice-street-newtown-nsw-2042-2017435593,450000,is-sold,Sold by private treaty 07 Jun 2022,20220607,7/71 Alice Street,NEWTOWN,NSW,2042,-33.9033546,151.1768,NaN,1.0,1.0,Studio,Studio,False,0,m2,False
2017662769,listing,/51-37-iredale-street-newtown-nsw-2042-2017662769,671000,is-sold,Sold by private treaty 07 Jun 2022,20220607,51/37 Iredale Street,NEWTOWN,NSW,2042,-33.90331,151.180237,1,1,1,ApartmentUnitFlat,Apartment / Unit / Flat,False,0,m2,False
2017672718,listing,/11-15-darley-street-newtown-nsw-2042-2017672718,575000,is-sold,Sold by private treaty 09 Jun 2022,20220609,11/15 Darley Street,NEWTOWN,NSW,2042,-33.9059143,151.180038,1,1,1,ApartmentUnitFlat,Apartment / Unit / Flat,False,0,m2,False
2017726665,listing,/30-john-street-newtown-nsw-2042-2017726665,1200000,is-sold,Sold by private treaty 26 May 2022,20220526,30 John Street,NEWTOWN,NSW,2042,-33.90665,151.17746,2,2,2,House,House,False,107,m2,False
2017760590,listing,/35-hordern-street-newtown-nsw-2042-2017760590,1351000,is-sold,Sold at auction 28 May 2022,20220528,35 Hordern Street,NEWTOWN,NSW,2042,-33.8938942,151.181244,2,2,2,House,House,False,92,m2,False
2017765956,listing,/6-gladstone-street-enmore-nsw-2042-2017765956,1617500,is-sold,Sold at auction 28 May 2022,20220528,6 Gladstone Street,ENMORE,NSW,2042,-33.8968925,151.172974,3,3,3,House,House,False,0,m2,False
2017777959,listing,/22-fulham-street-newtown-nsw-2042-2017777959,1600000,is-sold,Sold prior to auction 24 May 2022,20220524,22 Fulham Street,NEWTOWN,NSW,2042,-33.9013443,151.175308,2,2,2,House,House,False,114,m2,False
2017781232,listing,/216-edgeware-road-newtown-nsw-2042-2017781232,1387500,is-sold,Sold at auction 04 Jun 2022,20220604,216 Edgeware Road,NEWTOWN,NSW,2042,-33.90513,151.173782,3,3,3,House,House,False,0,m2,False
2017781584,listing,/17-38-brown-street-newtown-nsw-2042-2017781584,653000,is-sold,Sold prior to auction 01 Jun 2022,20220601,17/38 Brown Street,NEWTOWN,NSW,2042,-33.8966675,151.183273,1,1,1,ApartmentUnitFlat,Apartment / Unit / Flat,False,0,m2,False
2017783418,listing,/28-gladstone-street-enmore-nsw-2042-2017783418,1325000,is-sold,Sold at auction 28 May 2022,20220528,28 Gladstone Street,ENMORE,NSW,2042,-33.89667,151.172318,2,2,2,House,House,False,107,m2,False
2017786180,listing,/1-margaret-street-newtown-nsw-2042-2017786180,1670000,is-sold,Sold at auction 28 May 2022,20220528,1 Margaret Street,NEWTOWN,NSW,2042,-33.9007835,151.176788,4,4,4,House,House,False,120,m2,False
2017791581,listing,/3-617-623-king-street-newtown-nsw-2042-2017791581,937500,is-sold,Sold at auction 31 May 2022,20220531,3/617-623 King Street,NEWTOWN,NSW,2042,-33.90651,151.181122,2,2,2,ApartmentUnitFlat,Apartment / Unit / Flat,False,0,m2,False
2017794388,listing,/11-2-18-newman-street-newtown-nsw-2042-2017794388,1310000,is-sold,Sold at auction 04 Jun 2022,20220604,11/2-18 Newman Street,NEWTOWN,NSW,2042,-33.8983345,151.1795,2,2,2,Townhouse,Townhouse,False,0,m2,False
2017797667,listing,/1-17-21-lord-street-newtown-nsw-2042-2017797667,925000,is-sold,Sold at auction 04 Jun 2022,20220604,1/17-21 Lord Street,NEWTOWN,NSW,2042,-33.90674,151.180176,2,2,2,ApartmentUnitFlat,Apartment / Unit / Flat,False,0,m2,False
2017797942,listing,/16-38-42-stanmore-road-enmore-nsw-2042-2017797942,767500,is-sold,Sold at auction 04 Jun 2022,20220604,16/38-42 Stanmore Road,ENMORE,NSW,2042,-33.89946,151.1691,2,2,2,ApartmentUnitFlat,Apartment / Unit / Flat,False,0,m2,False
2017801283,listing,/128-wells-street-newtown-nsw-2042-2017801283,2020000,is-sold,Sold at auction 04 Jun 2022,20220604,128 Wells Street,NEWTOWN,NSW,2042,-33.9069061,151.175613,3,3,3,House,House,False,240,m2,False
2017809931,listing,/53-chelmsford-street-newtown-nsw-2042-2017809931,1472500,is-sold,Sold at auction 08 Jun 2022,20220608,53 Chelmsford Street,NEWTOWN,NSW,2042,-33.8950844,151.175171,2,2,2,House,House,False,0,m2,False
2017821581,listing,/84-darley-street-newtown-nsw-2042-2017821581,1720000,is-sold,Sold prior to auction 01 Jun 2022,20220601,84 Darley Street,NEWTOWN,NSW,2042,-33.907,151.1781,2,2,2,House,House,False,202,m2,False
2017837457,listing,/17-gladstone-street-enmore-nsw-2042-2017837457,Price Withheld,is-sold,Sold by private treaty 10 Jun 2022,20220610,17 Gladstone Street,ENMORE,NSW,2042,-33.89653,151.172668,2,2,2,House,House,False,0,m2,False
2017845503,listing,/168-king-street-newtown-nsw-2042-2017845503,4150000,is-sold,Sold by private treaty 31 May 2022,20220531,168 King Street,NEWTOWN,NSW,2042,-33.8941,151.183212,7,7,7,House,House,False,0,m2,False
2017534240,listing,/48-1-gladstone-street-newtown-nsw-2042-2017534240,680000,is-sold,Sold at auction 26 Apr 2022,20220426,48/1 Gladstone Street,NEWTOWN,NSW,2042,-33.89782,151.17572,1,1,1,ApartmentUnitFlat,Apartment / Unit / Flat,False,0,m2,False
2017616426,listing,/44-egan-street-newtown-nsw-2042-2017616426,1550000,is-sold,Sold by private treaty 02 May 2022,20220502,44 Egan Street,NEWTOWN,NSW,2042,-33.89347,151.181473,3,3,3,Terrace,Terrace,False,0,m2,False
2017643980,listing,/4-short-street-enmore-nsw-2042-2017643980,1575000,is-sold,Sold at auction 27 Apr 2022,20220427,4 Short Street,ENMORE,NSW,2042,-33.9010429,151.167969,2,2,2,House,House,False,107,m2,False
2017658955,listing,/4-9-trade-street-newtown-nsw-2042-2017658955,383000,is-sold,Sold by private treaty 04 May 2022,20220504,4/9 Trade Street,NEWTOWN,NSW,2042,-33.8948441,151.173752,NaN,1.0,NaN,Studio,Studio,False,0,m2,False
2017674171,listing,/95-union-street-newtown-nsw-2042-2017674171,1525000,is-sold,Sold by private treaty 05 May 2022,20220505,95 Union Street,NEWTOWN,NSW,2042,-33.9020233,151.181351,2,2,2,House,House,False,0,m2,False
2017685543,listing,/g08-52-alice-street-newtown-nsw-2042-2017685543,Price Withheld,is-sold,Sold by private treaty 05 May 2022,20220505,G08/52 Alice Street,NEWTOWN,NSW,2042,-33.9037857,151.177292,1,1,1,ApartmentUnitFlat,Apartment / Unit / Flat,False,0,m2,False
2017688720,listing,/15-38-42-stanmore-road-enmore-nsw-2042-2017688720,745000,is-sold,Sold by private treaty 02 May 2022,20220502,15/38-42 Stanmore Road,ENMORE,NSW,2042,-33.89946,151.1691,2,2,2,ApartmentUnitFlat,Apartment / Unit / Flat,False,0,m2,False
2017696822,listing,/16-angel-street-newtown-nsw-2042-2017696822,2950000,is-sold,Sold at auction 30 Apr 2022,20220430,16 Angel Street,NEWTOWN,NSW,2042,-33.8994331,151.180908,3,3,3,House,House,False,138,m2,False
2017698700,listing,/2-151-153-edgeware-road-enmore-nsw-2042-2017698700,2140000,is-sold,Sold at auction 23 Apr 2022,20220423,2/151-153 Edgeware Road,ENMORE,NSW,2042,-33.9041138,151.172546,3,3,3,House,House,False,178,m2,False
2017701401,listing,/22-augustus-street-enmore-nsw-2042-2017701401,1140000,is-sold,Sold at auction 23 Apr 2022,20220423,22 Augustus Street,ENMORE,NSW,2042,-33.8969955,151.171967,1,1,1,House,House,False,75,m2,False
2017707848,listing,/52-oxford-street-newtown-nsw-2042-2017707848,3820000,is-sold,Sold at auction 30 Apr 2022,20220430,52 Oxford Street,NEWTOWN,NSW,2042,-33.89479,151.174362,4,4,4,House,House,False,244,m2,False
2017717603,listing,/16-gibbes-street-newtown-nsw-2042-2017717603,1410000,is-sold,Sold at auction 30 Apr 2022,20220430,16 Gibbes Street,NEWTOWN,NSW,2042,-33.899334,151.179886,3,3,3,House,House,False,177,m2,False
2017717750,listing,/14-reiby-street-newtown-nsw-2042-2017717750,1850000,is-sold,Sold prior to auction 27 Apr 2022,20220427,14 Reiby Street,NEWTOWN,NSW,2042,-33.8994141,151.175491,3,3,3,House,House,False,176,m2,False
2017746243,listing,/33-albert-street-newtown-nsw-2042-2017746243,1800000,is-sold,Sold at auction 14 May 2022,20220514,33 Albert Street,NEWTOWN,NSW,2042,-33.8952942,151.173447,3,3,3,House,House,False,0,m2,False
2017750103,listing,/91-alice-street-newtown-nsw-2042-2017750103,1900000,is-sold,Sold at auction 14 May 2022,20220514,91 Alice Street,NEWTOWN,NSW,2042,-33.90375,151.176224,4,4,4,House,House,False,227,m2,False
2017757694,listing,/90-edgeware-road-enmore-nsw-2042-2017757694,1980000,is-sold,Sold at auction 23 May 2022,20220523,90 Edgeware Road,ENMORE,NSW,2042,-33.90202,151.172241,3,3,3,House,House,False,177,m2,False
2017759458,listing,/17-6-8-albert-street-newtown-nsw-2042-2017759458,710000,is-sold,Sold prior to auction 18 May 2022,20220518,17/6-8 Albert Street,NEWTOWN,NSW,2042,-33.89526,151.17305,1,1,1,ApartmentUnitFlat,Apartment / Unit / Flat,False,72,m2,False
2017766991,listing,/31-ferndale-street-newtown-nsw-2042-2017766991,1650000,is-sold,Sold prior to auction 11 May 2022,20220511,31 Ferndale Street,NEWTOWN,NSW,2042,-33.9021378,151.175217,2,2,2,House,House,False,131,m2,False
2017767254,listing,/5-146-alice-street-newtown-nsw-2042-2017767254,1640000,is-sold,Sold prior to auction 29 Apr 2022,20220429,5/146 Alice Street,NEWTOWN,NSW,2042,-33.90527,151.17453,3,3,3,Townhouse,Townhouse,False,164,m2,False
2017812139,listing,/15-83-91-wilson-street-newtown-nsw-2042-2017812139,1110000,is-sold,Sold by private treaty 09 May 2022,20220509,15/83-91 Wilson Street,NEWTOWN,NSW,2042,-33.89617,151.183182,2,2,2,ApartmentUnitFlat,Apartment / Unit / Flat,False,98,m2,False
2017444786,listing,/24-1-gladstone-street-newtown-nsw-2042-2017444786,590000,is-sold,Sold by private treaty 20 Apr 2022,20220420,24/1 Gladstone Street,NEWTOWN,NSW,2042,-33.8978157,151.1757,NaN,1.0,NaN,Studio,Studio,False,0,m2,False
2017466008,listing,/10-140-lennox-street-newtown-nsw-2042-2017466008,390000,is-sold,Sold by private treaty 21 Apr 2022,20220421,10/140 Lennox Street,NEWTOWN,NSW,2042,-33.8966255,151.176346,NaN,1.0,NaN,Studio,Studio,False,0,m2,False
2017598730,listing,/82-kingston-road-newtown-nsw-2042-2017598730,2700000,is-sold,Sold by private treaty 13 Apr 2022,20220413,82 Kingston Road,NEWTOWN,NSW,2042,-33.89442,151.172318,4,4,4,House,House,False,210,m2,False
2017634535,listing,/48-37-iredale-street-newtown-nsw-2042-2017634535,1100000,is-sold,Sold by private treaty 14 Apr 2022,20220414,48/37 Iredale Street,NEWTOWN,NSW,2042,-33.90331,151.180237,2,2,2,ApartmentUnitFlat,Apartment / Unit / Flat,False,0,m2,False
2017637019,listing,/17-reiby-street-newtown-nsw-2042-2017637019,1600000,is-sold,Sold by private treaty 08 Apr 2022,20220408,17 Reiby Street,NEWTOWN,NSW,2042,-33.8996162,151.1752,2,2,2,House,House,False,0,m2,False
2017656087,listing,/104-newman-street-newtown-nsw-2042-2017656087,1315000,is-sold,Sold by private treaty 12 Apr 2022,20220412,104 Newman Street,NEWTOWN,NSW,2042,-33.8992043,151.182053,2,2,2,House,House,False,0,m2,False
2017664592,listing,/78-camden-street-newtown-nsw-2042-2017664592,1906000,is-sold,Sold at auction 09 Apr 2022,20220409,78 Camden Street,NEWTOWN,NSW,2042,-33.9029922,151.176361,2,2,2,House,House,False,170,m2,False
2017665242,listing,/14-linthorpe-street-newtown-nsw-2042-2017665242,1960000,is-sold,Sold by private treaty 21 Apr 2022,20220421,14 Linthorpe Street,NEWTOWN,NSW,2042,-33.89705,151.181244,3,3,3,House,House,False,164,m2,False
2017666562,listing,/45-london-street-enmore-nsw-2042-2017666562,2335000,is-sold,Sold by private treaty 14 Apr 2022,20220414,45 London Street,ENMORE,NSW,2042,-33.8972,151.1716,3,3,3,Terrace,Terrace,False,164,m2,False
2017668160,listing,/b108-38-alice-street-newtown-nsw-2042-2017668160,575000,is-sold,Sold by private treaty 12 Apr 2022,20220412,B108/38 Alice Street,NEWTOWN,NSW,2042,-33.9036827,151.17746,1,1,1,ApartmentUnitFlat,Apartment / Unit / Flat,False,47,m2,False
2017669110,listing,/2-wilford-street-newtown-nsw-2042-2017669110,1645000,is-sold,Sold at auction 09 Apr 2022,20220409,2 Wilford Street,NEWTOWN,NSW,2042,-33.89816,151.175919,3,3,3,House,House,False,114,m2,False
2017671181,listing,/55-metropolitan-road-enmore-nsw-2042-2017671181,2590000,is-sold,Sold at auction 09 Apr 2022,20220409,55 Metropolitan Road,ENMORE,NSW,2042,-33.9010925,151.172333,3,3,3,House,House,False,183,m2,False
2017671398,listing,/16-1-gladstone-street-newtown-nsw-2042-2017671398,645000,is-sold,Sold at auction 11 Apr 2022,20220411,16/1 Gladstone Street,NEWTOWN,NSW,2042,-33.89782,151.17572,1,1,1,Studio,Studio,False,0,m2,False
2017685870,listing,/403-88-king-street-newtown-nsw-2042-2017685870,396000,is-sold,Sold at auction 12 Apr 2022,20220412,403/88 King Street,NEWTOWN,NSW,2042,-33.893074,151.185333,1,1,1,Studio,Studio,False,39,m2,False
2017686190,listing,/10-darley-st-newtown-nsw-2042-2017686190,1830000,is-sold,Sold by private treaty 08 Apr 2022,20220408,10 DARLEY ST,NEWTOWN,NSW,2042,-33.906292,151.180313,2,2,2,House,House,False,208,m2,False
2017691084,listing,/5-71-wilson-street-newtown-nsw-2042-2017691084,2020000,is-sold,Sold at auction 23 Apr 2022,20220423,5/71 Wilson Street,NEWTOWN,NSW,2042,-33.8963966,151.182343,3,3,3,ApartmentUnitFlat,Apartment / Unit / Flat,False,0,m2,False
2017699321,listing,/213-australia-street-newtown-nsw-2042-2017699321,1665000,is-sold,Sold prior to auction 13 Apr 2022,20220413,213 Australia Street,NEWTOWN,NSW,2042,-33.8949471,151.177414,2,2,2,House,House,False,116,m2,False
2017704919,listing,/88-newman-street-newtown-nsw-2042-2017704919,1700000,is-sold,Sold at auction 11 Apr 2022,20220411,88 Newman Street,NEWTOWN,NSW,2042,-33.8990173,151.181366,2,2,2,House,House,False,95,m2,False
2017707234,listing,/5-96-100-gowrie-street-newtown-nsw-2042-2017707234,355000,is-sold,Sold by private treaty 15 Apr 2022,20220415,5/96-100 Gowrie Street,NEWTOWN,NSW,2042,-33.9021,151.1809,NaN,1.0,NaN,Studio,Studio,False,26,m2,False
2017722121,listing,/302-21-enmore-road-newtown-nsw-2042-2017722121,725000,is-sold,Sold by private treaty 20 Apr 2022,20220420,302/21 Enmore Road,NEWTOWN,NSW,2042,-33.8980064,151.177139,1,1,1,ApartmentUnitFlat,Apartment / Unit / Flat,False,0,m2,False
2017604811,listing,/21-1-linthorpe-street-newtown-nsw-2042-2017604811,482000,is-sold,Sold by private treaty 28 Mar 2022,20220328,21/1 Linthorpe Street,NEWTOWN,NSW,2042,-33.8975143,151.181335,NaN,1.0,1.0,Studio,Studio,False,0,m2,False
2017605820,listing,/42-fulham-street-newtown-nsw-2042-2017605820,2075000,is-sold,Sold by private treaty 01 Apr 2022,20220401,42 Fulham Street,NEWTOWN,NSW,2042,-33.90149,151.17485,4,4,4,House,House,False,124,m2,False
2017615782,listing,/17-commodore-street-newtown-nsw-2042-2017615782,1650000,is-sold,Sold by private treaty 06 Apr 2022,20220406,17 Commodore Street,NEWTOWN,NSW,2042,-33.90508,151.17627,3,3,3,House,House,False,132,m2,False
2017619193,listing,/301-63-71-enmore-road-newtown-nsw-2042-2017619193,1550000,is-sold,Sold at auction 26 Mar 2022,20220326,301/63-71 Enmore Road,NEWTOWN,NSW,2042,-33.89845,151.175552,3,3,3,ApartmentUnitFlat,Apartment / Unit / Flat,False,149,m2,False
2017624591,listing,/133-bedford-street-newtown-nsw-2042-2017624591,1450000,is-sold,Sold at auction 26 Mar 2022,20220326,133 Bedford Street,NEWTOWN,NSW,2042,-33.8955841,151.172852,3,3,3,House,House,False,133,m2,False
2017624704,listing,/56-watkin-street-newtown-nsw-2042-2017624704,5870000,is-sold,Sold at auction 02 Apr 2022,20220402,56 Watkin Street,NEWTOWN,NSW,2042,-33.8960838,151.184174,5,5,5,House,House,False,443,m2,False
2017629622,listing,/57-1-gladstone-street-newtown-nsw-2042-2017629622,750000,is-sold,Sold by private treaty 02 Apr 2022,20220402,57/1 Gladstone Street,NEWTOWN,NSW,2042,-33.89782,151.17572,1,1,1,ApartmentUnitFlat,Apartment / Unit / Flat,False,75,m2,False
2017636624,listing,/17-19-sebastopol-street-enmore-nsw-2042-2017636624,3705000,is-sold,Sold prior to auction 31 Mar 2022,20220331,17-19 Sebastopol Street,ENMORE,NSW,2042,-33.89963,151.166519,5,5,5,House,House,False,569,m2,False
2017638780,listing,/10-33-37-tupper-street-enmore-nsw-2042-2017638780,905000,is-sold,Sold at auction 31 Mar 2022,20220331,10/33-37 Tupper Street,ENMORE,NSW,2042,-33.90059,151.168259,2,2,2,ApartmentUnitFlat,Apartment / Unit / Flat,False,90,m2,False
2017643044,listing,/3-141-145-enmore-road-enmore-nsw-2042-2017643044,667000,is-sold,Sold by private treaty 30 Mar 2022,20220330,3/141-145 Enmore Road,ENMORE,NSW,2042,-33.89863,151.173157,1,1,1,ApartmentUnitFlat,Apartment / Unit / Flat,False,54,m2,False
2017643809,listing,/7-20-fitzgerald-street-newtown-nsw-2042-2017643809,700000,is-sold,Sold prior to auction 29 Mar 2022,20220329,7/20 Fitzgerald Street,NEWTOWN,NSW,2042,-33.8918839,151.1807,1,1,1,ApartmentUnitFlat,Apartment / Unit / Flat,False,66,m2,False
2017645099,listing,/32-20-fitzgerald-street-newtown-nsw-2042-2017645099,1430000,is-sold,Sold at auction 02 Apr 2022,20220402,32/20 Fitzgerald Street,NEWTOWN,NSW,2042,-33.8918839,151.1807,3,3,3,ApartmentUnitFlat,Apartment / Unit / Flat,False,200,m2,False
2017646289,listing,/43-watkin-street-newtown-nsw-2042-2017646289,2825000,is-sold,Sold at auction 02 Apr 2022,20220402,43 Watkin Street,NEWTOWN,NSW,2042,-33.89542,151.1834,4,4,4,House,House,False,133,m2,False
2017647443,listing,/142-denison-street-newtown-nsw-2042-2017647443,1700000,is-sold,Sold by private treaty 08 Apr 2022,20220408,142 Denison Street,NEWTOWN,NSW,2042,-33.8936729,151.176468,2,2,2,House,House,False,0,m2,False
2017653749,listing,/2-13-harrington-street-enmore-nsw-2042-2017653749,Price Withheld,is-sold,Sold prior to auction 30 Mar 2022,20220330,2/13 Harrington Street,ENMORE,NSW,2042,-33.8989563,151.167084,1,1,1,ApartmentUnitFlat,Apartment / Unit / Flat,False,0,m2,False
2017654685,listing,/35-chelmsford-street-newtown-nsw-2042-2017654685,1200000,is-sold,Sold at auction 06 Apr 2022,20220406,35 Chelmsford Street,NEWTOWN,NSW,2042,-33.89466,151.175,1,1,1,House,House,False,0,m2,False
2017655497,listing,/31a-james-street-enmore-nsw-2042-2017655497,2450000,is-sold,Sold prior to auction 06 Apr 2022,20220406,31A James Street,ENMORE,NSW,2042,-33.9028244,151.174286,3,3,3,House,House,False,373,m2,False
2017670689,listing,/15-union-street-newtown-nsw-2042-2017670689,1350000,is-sold,Sold prior to auction 06 Apr 2022,20220406,15 Union Street,NEWTOWN,NSW,2042,-33.8995552,151.1822,2,2,2,House,House,False,0,m2,False
2017700958,listing,/167-union-street-newtown-nsw-2042-2017700958,Price Withheld,is-sold,Sold prior to auction 29 Mar 2022,20220329,167 Union Street,NEWTOWN,NSW,2042,-33.9035645,151.180954,3,3,3,House,House,False,153,m2,False
2017725863,listing,/4-3-pemell-lane-newtown-nsw-2042-2017725863,725000,is-sold,Sold by private treaty 08 Apr 2022,20220408,4/3 Pemell Lane,NEWTOWN,NSW,2042,-33.8993378,151.174622,1,1,1,Townhouse,Townhouse,False,65,m2,False
2017544071,listing,/46-darley-street-newtown-nsw-2042-2017544071,2300000,is-sold,Sold by private treaty 14 Mar 2022,20220314,46 Darley Street,NEWTOWN,NSW,2042,-33.90663,151.17923,4,4,4,House,House,False,205,m2,False
2017579579,listing,/47-commodore-street-newtown-nsw-2042-2017579579,2325000,is-sold,Sold by private treaty 25 Mar 2022,20220325,47 Commodore Street,NEWTOWN,NSW,2042,-33.90595,151.176666,3,3,3,House,House,False,143,m2,False
2017592442,listing,/58-simmons-street-newtown-nsw-2042-2017592442,1730000,is-sold,Sold at auction 12 Mar 2022,20220312,58 Simmons Street,NEWTOWN,NSW,2042,-33.9010963,151.1745,2,2,2,House,House,False,0,m2,False
2017595821,listing,/72-metropolitan-road-enmore-nsw-2042-2017595821,2650000,is-sold,Sold at auction 19 Mar 2022,20220319,72 Metropolitan Road,ENMORE,NSW,2042,-33.9015045,151.173035,4,4,4,House,House,False,182,m2,False
2017599135,listing,/84-hordern-street-newtown-nsw-2042-2017599135,2152000,is-sold,Sold by private treaty 16 Mar 2022,20220316,84 Hordern Street,NEWTOWN,NSW,2042,-33.893013,151.180634,3,3,3,House,House,False,120,m2,False
2017602077,listing,/69-marian-street-enmore-nsw-2042-2017602077,2450000,is-sold,Sold prior to auction 17 Mar 2022,20220317,69 Marian Street,ENMORE,NSW,2042,-33.9009361,151.173248,3,3,3,House,House,False,186,m2,False
2017605025,listing,/28-2-6-brown-street-newtown-nsw-2042-2017605025,695000,is-sold,Sold by private treaty 16 Mar 2022,20220316,28/2-6 Brown Street,NEWTOWN,NSW,2042,-33.8950157,151.1828,1,1,1,ApartmentUnitFlat,Apartment / Unit / Flat,False,0,m2,False
2017605134,listing,/102-newman-street-newtown-nsw-2042-2017605134,1631000,is-sold,Sold at auction 12 Mar 2022,20220312,102 Newman Street,NEWTOWN,NSW,2042,-33.8991623,151.182037,3,3,3,House,House,False,0,m2,False
2017615781,listing,/11-harold-street-newtown-nsw-2042-2017615781,2130000,is-sold,Sold at auction 19 Mar 2022,20220319,11 Harold Street,NEWTOWN,NSW,2042,-33.90086,151.181213,2,2,2,House,House,False,144,m2,False
2017619877,listing,/15-19-23-queen-street-newtown-nsw-2042-2017619877,741000,is-sold,Sold at auction 17 Mar 2022,20220317,15/19-23 Queen Street,NEWTOWN,NSW,2042,-33.8934441,151.186935,1,1,1,ApartmentUnitFlat,Apartment / Unit / Flat,False,0,m2,False
2017623002,listing,/2b-kent-street-newtown-nsw-2042-2017623002,2555000,is-sold,Sold at auction 26 Mar 2022,20220326,2B Kent Street,NEWTOWN,NSW,2042,-33.90195,151.176971,4,4,4,House,House,False,167,m2,False
2017625885,listing,/29-bucknell-street-newtown-nsw-2042-2017625885,2475000,is-sold,Sold at auction 26 Mar 2022,20220326,29 Bucknell Street,NEWTOWN,NSW,2042,-33.8945427,151.1839,4,4,4,Terrace,Terrace,False,0,m2,False
2017635940,listing,/4-20-fitzgerald-street-newtown-nsw-2042-2017635940,877500,is-sold,Sold at auction 26 Mar 2022,20220326,4/20 Fitzgerald Street,NEWTOWN,NSW,2042,-33.8918839,151.1807,1,1,1,ApartmentUnitFlat,Apartment / Unit / Flat,False,142,m2,False
2017636787,listing,/26-chalder-street-newtown-nsw-2042-2017636787,1765000,is-sold,Sold at auction 26 Mar 2022,20220326,26 Chalder Street,NEWTOWN,NSW,2042,-33.8925056,151.181488,3,3,3,House,House,False,155,m2,False
2017637360,listing,/3-gowrie-street-newtown-nsw-2042-2017637360,1050000,is-sold,Sold prior to auction 24 Mar 2022,20220324,3 Gowrie Street,NEWTOWN,NSW,2042,-33.8989143,151.181549,1,1,1,House,House,False,0,m2,False
2017648364,listing,/14-1-gladstone-street-newtown-nsw-2042-2017648364,715000,is-sold,Sold at auction 18 Mar 2022,20220318,14/1 Gladstone Street,NEWTOWN,NSW,2042,-33.89782,151.17572,1,1,1,ApartmentUnitFlat,Apartment / Unit / Flat,False,0,m2,False
2017652767,listing,/15-480-king-street-newtown-nsw-2042-2017652767,791000,is-sold,Sold at auction 24 Mar 2022,20220324,15/480 King Street,NEWTOWN,NSW,2042,-33.901474,151.179,1,1,1,ApartmentUnitFlat,Apartment / Unit / Flat,False,0,m2,False
2017654444,listing,/37-darley-street-newtown-nsw-2042-2017654444,3100000,is-sold,Sold prior to auction 21 Mar 2022,20220321,37 Darley Street,NEWTOWN,NSW,2042,-33.9061852,151.17923,4,4,4,House,House,False,208,m2,False
2017655575,listing,/15-7-9-tupper-street-enmore-nsw-2042-2017655575,987000,is-sold,Sold prior to auction 18 Mar 2022,20220318,15/7-9 Tupper Street,ENMORE,NSW,2042,-33.8996735,151.168762,2,2,2,ApartmentUnitFlat,Apartment / Unit / Flat,False,0,m2,False
2017656633,listing,/48-simmons-street-newtown-nsw-2042-2017656633,1700000,is-sold,Sold prior to auction 24 Mar 2022,20220324,48 Simmons Street,NEWTOWN,NSW,2042,-33.9008827,151.174454,2,2,2,House,House,False,128,m2,False
2017447097,listing,/40-lennox-street-newtown-nsw-2042-2017447097,1125000,is-sold,Sold by private treaty 10 Mar 2022,20220310,40 Lennox Street,NEWTOWN,NSW,2042,-33.89563,151.17955,1,1,1,House,House,False,0,m2,False
2017526440,listing,/179-denison-street-newtown-nsw-2042-2017526440,2820000,is-sold,Sold by private treaty 04 Mar 2022,20220304,179 Denison Street,NEWTOWN,NSW,2042,-33.8939629,151.176285,4,4,4,House,House,False,0,m2,False
2017545725,listing,/47-baltic-street-newtown-nsw-2042-2017545725,1594000,is-sold,Sold at auction 24 Feb 2022,20220224,47 Baltic Street,NEWTOWN,NSW,2042,-33.8952446,151.174179,2,2,2,SemiDetached,Semi-Detached,False,126,m2,False
2017545845,listing,/1-83-wilson-street-newtown-nsw-2042-2017545845,970000,is-sold,Sold by private treaty 09 Mar 2022,20220309,1/83 Wilson Street,NEWTOWN,NSW,2042,-33.8951836,151.18631,2,2,2,ApartmentUnitFlat,Apartment / Unit / Flat,False,111,m2,False
2017551816,listing,/26-newman-street-newtown-nsw-2042-2017551816,1950000,is-sold,Sold at auction 26 Feb 2022,20220226,26 Newman Street,NEWTOWN,NSW,2042,-33.8985329,151.17981,3,3,3,House,House,False,0,m2,False
2017558415,listing,/418-88-king-street-newtown-nsw-2042-2017558415,440000,is-sold,Sold prior to auction 25 Feb 2022,20220225,418/88 King Street,NEWTOWN,NSW,2042,-33.893074,151.185333,1,1,1,Studio,Studio,False,0,m2,False
2017560691,listing,/12-94-alice-street-newtown-nsw-2042-2017560691,580000,is-sold,Sold by private treaty 03 Mar 2022,20220303,12/94 Alice Street,NEWTOWN,NSW,2042,-33.9042854,151.176086,1,1,1,ApartmentUnitFlat,Apartment / Unit / Flat,False,53,m2,False
2017565633,listing,/59-darley-street-newtown-nsw-2042-2017565633,2115000,is-sold,Sold at auction 26 Feb 2022,20220226,59 Darley Street,NEWTOWN,NSW,2042,-33.9064522,151.178391,3,3,3,House,House,False,181,m2,False
2017566313,listing,/22-20-fitzgerald-street-newtown-nsw-2042-2017566313,735000,is-sold,Sold prior to auction 02 Mar 2022,20220302,22/20 Fitzgerald Street,NEWTOWN,NSW,2042,-33.8918839,151.1807,1,1,1,ApartmentUnitFlat,Apartment / Unit / Flat,False,0,m2,False
2017567319,listing,/10-ferndale-street-newtown-nsw-2042-2017567319,1750000,is-sold,Sold by private treaty 07 Mar 2022,20220307,10 Ferndale Street,NEWTOWN,NSW,2042,-33.9022255,151.175568,2,2,2,House,House,False,129,m2,False
2017571101,listing,/5-kent-street-newtown-nsw-2042-2017571101,1860000,is-sold,Sold by private treaty 11 Mar 2022,20220311,5 Kent Street,NEWTOWN,NSW,2042,-33.90156,151.1767,3,3,3,House,House,False,0,m2,False
2017576241,listing,/67-dickson-street-newtown-nsw-2042-2017576241,1520000,is-sold,Sold prior to auction 25 Feb 2022,20220225,67 Dickson Street,NEWTOWN,NSW,2042,-33.9051323,151.177841,3,3,3,House,House,False,135,m2,False
2017581371,listing,/204-wilson-street-newtown-nsw-2042-2017581371,2070000,is-sold,Sold at auction 05 Mar 2022,20220305,204 Wilson Street,NEWTOWN,NSW,2042,-33.8945045,151.187256,2,2,2,House,House,False,0,m2,False
2017587760,listing,/8-albermarle-street-newtown-nsw-2042-2017587760,1750000,is-sold,Sold at auction 05 Mar 2022,20220305,8 Albermarle Street,NEWTOWN,NSW,2042,-33.8953743,151.177444,2,2,2,House,House,False,145,m2,False
2017592909,listing,/94-3-13-erskineville-road-newtown-nsw-2042-2017592909,1055000,is-sold,Sold by private treaty 25 Feb 2022,20220225,94/3-13 Erskineville Road,NEWTOWN,NSW,2042,-33.8974037,151.180634,2,2,2,ApartmentUnitFlat,Apartment / Unit / Flat,False,0,m2,False
2017593269,listing,/47-leamington-avenue-newtown-nsw-2042-2017593269,1870000,is-sold,Sold at auction 09 Mar 2022,20220309,47 Leamington Avenue,NEWTOWN,NSW,2042,-33.89588,151.187347,2,2,2,House,House,False,0,m2,False
2017598962,listing,/15-9-trade-street-newtown-nsw-2042-2017598962,840000,is-sold,Sold prior to auction 08 Mar 2022,20220308,15/9 Trade Street,NEWTOWN,NSW,2042,-33.8948441,151.173752,2,2,2,ApartmentUnitFlat,Apartment / Unit / Flat,False,0,m2,False
2017609650,listing,/44-19-25-queen-street-newtown-nsw-2042-2017609650,822000,is-sold,Sold by private treaty 23 Feb 2022,20220223,44/19-25 Queen Street,NEWTOWN,NSW,2042,-33.8934441,151.186951,2,2,2,ApartmentUnitFlat,Apartment / Unit / Flat,False,0,m2,False
2017613755,listing,/29-1-gladstone-street-newtown-nsw-2042-2017613755,1400000,is-sold,Sold by private treaty 11 Mar 2022,20220311,29/1 Gladstone Street,NEWTOWN,NSW,2042,-33.89782,151.17572,2,2,2,ApartmentUnitFlat,Apartment / Unit / Flat,False,0,m2,False
2017617697,listing,/56-metropolitan-road-enmore-nsw-2042-2017617697,1950000,is-sold,Sold prior to auction 11 Mar 2022,20220311,56 Metropolitan Road,ENMORE,NSW,2042,-33.90113,151.172836,3,3,3,House,House,False,183,m2,False
2017391021,listing,/level-1-11-94-alice-street-newtown-nsw-2042-2017391021,465000,is-sold,Sold by private treaty 21 Feb 2022,20220221,"Level 1, 11/94 Alice Street",NEWTOWN,NSW,2042,-33.9042854,151.176086,NaN,1.0,1.0,Studio,Studio,False,0,m2,False
2017419938,listing,/2d-gladstone-street-newtown-nsw-2042-2017419938,2200000,is-sold,Sold at auction 04 Feb 2022,20220204,2D Gladstone Street,NEWTOWN,NSW,2042,-33.89726,151.173752,3,3,3,House,House,False,0,m2,False
2017446001,listing,/5-st-john-street-newtown-nsw-2042-2017446001,1565000,is-sold,Sold by private treaty 23 Feb 2022,20220223,5 St John Street,NEWTOWN,NSW,2042,-33.9018478,151.179565,4,4,4,House,House,False,114,m2,False
2017518091,listing,/133-edgeware-road-enmore-nsw-2042-2017518091,1510000,is-sold,Sold at auction 05 Feb 2022,20220205,133 Edgeware Road,ENMORE,NSW,2042,-33.9036865,151.172348,3,3,3,House,House,False,164,m2,False
2017520124,listing,/118-burren-street-newtown-nsw-2042-2017520124,1860000,is-sold,Sold at auction 05 Feb 2022,20220205,118 Burren Street,NEWTOWN,NSW,2042,-33.8964729,151.1849,2,2,2,House,House,False,133,m2,False
2017527281,listing,/122-probert-street-newtown-nsw-2042-2017527281,2300000,is-sold,Sold prior to auction 11 Feb 2022,20220211,122 Probert Street,NEWTOWN,NSW,2042,-33.89599,151.176788,4,4,4,House,House,False,140,m2,False
2017527526,listing,/113b-station-street-newtown-nsw-2042-2017527526,2520000,is-sold,Sold at auction 17 Feb 2022,20220217,113B Station Street,NEWTOWN,NSW,2042,-33.9015427,151.177521,3,3,3,House,House,False,169,m2,False
2017533641,listing,/28-fulham-street-newtown-nsw-2042-2017533641,2050000,is-sold,Sold at auction 04 Feb 2022,20220204,28 Fulham Street,NEWTOWN,NSW,2042,-33.90139,151.175171,3,3,3,House,House,False,101,m2,False
2017533903,listing,/3-1-iredale-street-newtown-nsw-2042-2017533903,1550000,is-sold,Sold at auction 11 Feb 2022,20220211,3/1 Iredale Street,NEWTOWN,NSW,2042,-33.9024963,151.17981,3,3,3,House,House,False,0,m2,False
2017534066,listing,/146-wells-street-newtown-nsw-2042-2017534066,1560000,is-sold,Sold at auction 12 Feb 2022,20220212,146 Wells Street,NEWTOWN,NSW,2042,-33.9070435,151.1754,2,2,2,House,House,False,177,m2,False
2017534222,listing,/306-359-361-king-street-newtown-nsw-2042-2017534222,670000,is-sold,Sold prior to auction 07 Feb 2022,20220207,306/359-361 King Street,NEWTOWN,NSW,2042,-33.8986473,151.177429,1,1,1,ApartmentUnitFlat,Apartment / Unit / Flat,False,0,m2,False
2017534381,listing,/59-dickson-street-newtown-nsw-2042-2017534381,1685000,is-sold,Sold at auction 19 Feb 2022,20220219,59 Dickson Street,NEWTOWN,NSW,2042,-33.9050636,151.178024,2,2,2,House,House,False,0,m2,False
2017536422,listing,/37-holmwood-street-newtown-nsw-2042-2017536422,1835000,is-sold,Sold prior to auction 18 Feb 2022,20220218,37 Holmwood Street,NEWTOWN,NSW,2042,-33.90414,151.1785,3,3,3,House,House,False,108,m2,False
2017537337,listing,/37-campbell-street-newtown-nsw-2042-2017537337,1215000,is-sold,Sold at auction 12 Feb 2022,20220212,37 Campbell Street,NEWTOWN,NSW,2042,-33.8926163,151.184113,2,2,2,House,House,False,0,m2,False
2017546389,listing,/91-burren-street-newtown-nsw-2042-2017546389,3310000,is-sold,Sold at auction 19 Feb 2022,20220219,91 Burren Street,NEWTOWN,NSW,2042,-33.8960953,151.185318,4,4,4,House,House,False,234,m2,False
2017546696,listing,/22-queen-street-newtown-nsw-2042-2017546696,1750000,is-sold,Sold at auction 19 Feb 2022,20220219,22 Queen Street,NEWTOWN,NSW,2042,-33.8932724,151.1875,3,3,3,House,House,False,82,m2,False
2017551580,listing,/79-darley-street-newtown-nsw-2042-2017551580,1735000,is-sold,Sold prior to auction 17 Feb 2022,20220217,79 Darley Street,NEWTOWN,NSW,2042,-33.9066162,151.177811,2,2,2,House,House,False,196,m2,False
2017551927,listing,/13-marian-street-enmore-nsw-2042-2017551927,1287000,is-sold,Sold at auction 19 Feb 2022,20220219,13 Marian Street,ENMORE,NSW,2042,-33.8996773,151.172836,1,1,1,House,House,False,109,m2,False
2017552965,listing,/32-wilford-street-newtown-nsw-2042-2017552965,1750000,is-sold,Sold at auction 11 Feb 2022,20220211,32 Wilford Street,NEWTOWN,NSW,2042,-33.8981857,151.175156,2,2,2,House,House,False,120,m2,False
2017558631,listing,/145-bedford-street-newtown-nsw-2042-2017558631,1775000,is-sold,Sold prior to auction 15 Feb 2022,20220215,145 Bedford Street,NEWTOWN,NSW,2042,-33.89543,151.172562,3,3,3,House,House,False,121,m2,False
2017290578,listing,/13-15a-wilson-street-newtown-nsw-2042-2017290578,495000,is-sold,Sold by private treaty 29 Dec 2021,20211229,13/15A Wilson Street,NEWTOWN,NSW,2042,-33.8967438,151.180771,NaN,1.0,1.0,ApartmentUnitFlat,Apartment / Unit / Flat,False,0,m2,False
2017359196,listing,/12-darley-street-newtown-nsw-2042-2017359196,3200000,is-sold,Sold by private treaty 01 Feb 2022,20220201,12 Darley Street,NEWTOWN,NSW,2042,-33.90624,151.180222,5,5,5,House,House,False,284,m2,False
2017391256,listing,/317-72-alice-street-newtown-nsw-2042-2017391256,1825000,is-sold,Sold by private treaty 19 Jan 2022,20220119,317/72 Alice Street,NEWTOWN,NSW,2042,-33.9039421,151.177536,3,3,3,ApartmentUnitFlat,Apartment / Unit / Flat,False,282,m2,False
2017394023,listing,/31-104-alice-street-newtown-nsw-2042-2017394023,560000,is-sold,Sold by private treaty 14 Jan 2022,20220114,31/104 Alice Street,NEWTOWN,NSW,2042,-33.9043846,151.17569,1,1,1,ApartmentUnitFlat,Apartment / Unit / Flat,False,0,m2,False
2017395732,listing,/2-raper-street-newtown-nsw-2042-2017395732,1895000,is-sold,Sold by private treaty 13 Dec 2021,20211213,2 Raper Street,NEWTOWN,NSW,2042,-33.89233,151.180145,4,4,4,House,House,False,223,m2,False
2017397227,listing,/404-21-enmore-road-newtown-nsw-2042-2017397227,1282000,is-sold,Sold at auction 11 Dec 2021,20211211,404/21 Enmore Road,NEWTOWN,NSW,2042,-33.8980064,151.177139,2,2,2,ApartmentUnitFlat,Apartment / Unit / Flat,False,0,m2,False
2017405020,listing,/54-holmwood-street-newtown-nsw-2042-2017405020,2800000,is-sold,Sold by private treaty 20 Jan 2022,20220120,54 Holmwood Street,NEWTOWN,NSW,2042,-33.90468,151.178238,3,3,3,House,House,False,146,m2,False
2017414686,listing,/151-probert-street-newtown-nsw-2042-2017414686,2400000,is-sold,Sold by private treaty 15 Dec 2021,20211215,151 Probert Street,NEWTOWN,NSW,2042,-33.89711,151.17688,3,3,3,House,House,False,120,m2,False
2017419330,listing,/93-3-13-erskineville-road-newtown-nsw-2042-2017419330,1090000,is-sold,Sold at auction 11 Dec 2021,20211211,93/3-13 Erskineville Road,NEWTOWN,NSW,2042,-33.8974037,151.180634,2,2,2,ApartmentUnitFlat,Apartment / Unit / Flat,False,0,m2,False
2017419978,listing,/24-commodore-street-newtown-nsw-2042-2017419978,2460000,is-sold,Sold at auction 15 Dec 2021,20211215,24 Commodore Street,NEWTOWN,NSW,2042,-33.9053421,151.176865,4,4,4,House,House,False,302,m2,False
2017421077,listing,/29-31-metropolitan-road-enmore-nsw-2042-2017421077,3750000,is-sold,Sold by private treaty 15 Dec 2021,20211215,29-31 Metropolitan Road,ENMORE,NSW,2042,-33.9004326,151.1721,4,4,4,House,House,False,369,m2,False
2017425260,listing,/90-hordern-street-newtown-nsw-2042-2017425260,1500000,is-sold,Sold by private treaty 16 Dec 2021,20211216,90 Hordern Street,NEWTOWN,NSW,2042,-33.8928947,151.180573,2,2,2,House,House,False,0,m2,False
2017426241,listing,/1-6-8-albert-street-newtown-nsw-2042-2017426241,1585000,is-sold,Sold at auction 18 Dec 2021,20211218,1/6-8 Albert Street,NEWTOWN,NSW,2042,-33.8952637,151.173035,3,3,3,Townhouse,Townhouse,False,0,m2,False
2017426257,listing,/14-hordern-street-newtown-nsw-2042-2017426257,1450000,is-sold,Sold by private treaty 14 Dec 2021,20211214,14 Hordern Street,NEWTOWN,NSW,2042,-33.8947639,151.18129,2,2,2,House,House,False,0,m2,False
2017441728,listing,/7-oxford-street-newtown-nsw-2042-2017441728,1800000,is-sold,Sold prior to auction 15 Dec 2021,20211215,7 Oxford Street,NEWTOWN,NSW,2042,-33.8954964,151.174927,2,2,2,House,House,False,127,m2,False
2017506533,listing,/11-480-king-street-newtown-nsw-2042-2017506533,1350000,is-sold,Sold prior to auction 28 Jan 2022,20220128,11/480 King Street,NEWTOWN,NSW,2042,-33.901474,151.179,3,3,3,ApartmentUnitFlat,Apartment / Unit / Flat,False,0,m2,False
2017508880,listing,/15-trade-street-newtown-nsw-2042-2017508880,2916000,is-sold,Sold prior to auction 01 Feb 2022,20220201,15 Trade Street,NEWTOWN,NSW,2042,-33.89477,151.173431,3,3,3,House,House,False,240,m2,False
2017517775,listing,/316-edgeware-road-newtown-nsw-2042-2017517775,Price Withheld,is-sold,Sold prior to auction 02 Feb 2022,20220202,316 Edgeware Road,NEWTOWN,NSW,2042,-33.9074821,151.174561,2,2,2,House,House,False,320,m2,False
2017524455,listing,/101-62-alice-street-newtown-nsw-2042-2017524455,1469000,is-sold,Sold by private treaty 19 Jan 2022,20220119,101/62 Alice Street,NEWTOWN,NSW,2042,-33.9040146,151.176956,3,3,3,ApartmentUnitFlat,Apartment / Unit / Flat,False,131,m2,False
2017538796,listing,/49-ferndale-street-newtown-nsw-2042-2017538796,1955000,is-sold,Sold prior to auction 03 Feb 2022,20220203,49 Ferndale Street,NEWTOWN,NSW,2042,-33.9025154,151.1753,2,2,2,House,House,False,107,m2,False
2017343161,listing,/11-12-14-enmore-road-newtown-nsw-2042-2017343161,430000,is-sold,Sold by private treaty 09 Dec 2021,20211209,11/12-14 Enmore Road,NEWTOWN,NSW,2042,-33.8982277,151.177765,NaN,1.0,NaN,Studio,Studio,False,0,m2,False
2017353739,listing,/107w-138-carillon-avenue-newtown-nsw-2042-2017353739,610000,is-sold,Sold prior to auction 10 Dec 2021,20211210,107W/138 Carillon Avenue,NEWTOWN,NSW,2042,-33.89145,151.18042,1,1,1,ApartmentUnitFlat,Apartment / Unit / Flat,False,0,m2,False
2017353973,listing,/10-cavendish-street-enmore-nsw-2042-2017353973,2445000,is-sold,Sold at auction 27 Nov 2021,20211127,10 Cavendish Street,ENMORE,NSW,2042,-33.8986549,151.1704,4,4,4,House,House,False,196,m2,False
2017355404,listing,/43-london-street-enmore-nsw-2042-2017355404,2500000,is-sold,Sold at auction 02 Dec 2021,20211202,43 London Street,ENMORE,NSW,2042,-33.8972473,151.171631,4,4,4,House,House,False,0,m2,False
2017376271,listing,/3-43-college-street-newtown-nsw-2042-2017376271,750000,is-sold,Sold by private treaty 10 Dec 2021,20211210,3/43 College Street,NEWTOWN,NSW,2042,-33.90225,151.177322,1,1,1,ApartmentUnitFlat,Apartment / Unit / Flat,False,0,m2,False
2017379188,listing,/56-546-king-street-newtown-nsw-2042-2017379188,665000,is-sold,Sold prior to auction 01 Dec 2021,20211201,56/546 King Street,NEWTOWN,NSW,2042,-33.90325,151.1799,1,1,1,ApartmentUnitFlat,Apartment / Unit / Flat,False,0,m2,False
2017395101,listing,/23-20-fitzgerald-street-newtown-nsw-2042-2017395101,680000,is-sold,Sold at auction 27 Nov 2021,20211127,23/20 Fitzgerald Street,NEWTOWN,NSW,2042,-33.8918839,151.1807,1,1,1,ApartmentUnitFlat,Apartment / Unit / Flat,False,0,m2,False
2017396486,listing,/194-edgeware-road-newtown-nsw-2042-2017396486,1450000,is-sold,Sold at auction 09 Dec 2021,20211209,194 Edgeware Road,NEWTOWN,NSW,2042,-33.9045219,151.173462,3,3,3,House,House,False,0,m2,False
2017399993,listing,/7-17-21-lord-street-newtown-nsw-2042-2017399993,1060000,is-sold,Sold at auction 09 Dec 2021,20211209,7/17-21 Lord Street,NEWTOWN,NSW,2042,-33.90674,151.180176,2,2,2,Townhouse,Townhouse,False,108,m2,False
2017400225,listing,/70-watkin-street-newtown-nsw-2042-2017400225,3020000,is-sold,Sold at auction 04 Dec 2021,20211204,70 Watkin Street,NEWTOWN,NSW,2042,-33.89659,151.184265,4,4,4,House,House,False,258,m2,False
2017403106,listing,/1-8-kent-street-newtown-nsw-2042-2017403106,635000,is-sold,Sold at auction 04 Dec 2021,20211204,1/8 Kent Street,NEWTOWN,NSW,2042,-33.9019051,151.176819,1,1,1,ApartmentUnitFlat,Apartment / Unit / Flat,False,0,m2,False
2017404402,listing,/8-hawken-street-newtown-nsw-2042-2017404402,2825000,is-sold,Sold at auction 04 Dec 2021,20211204,8 Hawken Street,NEWTOWN,NSW,2042,-33.90491,151.175613,3,3,3,House,House,False,259,m2,False
2017411407,listing,/32-marian-street-enmore-nsw-2042-2017411407,2105000,is-sold,Sold prior to auction 08 Dec 2021,20211208,32 Marian Street,ENMORE,NSW,2042,-33.90008,151.173431,3,3,3,House,House,False,114,m2,False
2017413527,listing,/11-albert-street-newtown-nsw-2042-2017413527,1590000,is-sold,Sold at auction 11 Dec 2021,20211211,11 Albert Street,NEWTOWN,NSW,2042,-33.8957443,151.17363,2,2,2,House,House,False,126,m2,False
2017419530,listing,/3-3-pemell-lane-newtown-nsw-2042-2017419530,865000,is-sold,Sold prior to auction 02 Dec 2021,20211202,3/3 Pemell Lane,NEWTOWN,NSW,2042,-33.8993378,151.174622,1,1,1,Townhouse,Townhouse,False,0,m2,False
2017421389,listing,/17-11-tupper-street-enmore-nsw-2042-2017421389,915000,is-sold,Sold at auction 02 Dec 2021,20211202,17/11 Tupper Street,ENMORE,NSW,2042,-33.89984,151.168747,2,2,2,ApartmentUnitFlat,Apartment / Unit / Flat,False,0,m2,False
2017433883,listing,/19-college-street-newtown-nsw-2042-2017433883,1661000,is-sold,Sold at auction 11 Dec 2021,20211211,19 College Street,NEWTOWN,NSW,2042,-33.90135,151.17691,3,3,3,House,House,False,158,m2,False
2017436470,listing,/127-darley-street-newtown-nsw-2042-2017436470,1300000,is-sold,Sold at auction 11 Dec 2021,20211211,127 Darley Street,NEWTOWN,NSW,2042,-33.90703,151.176544,1,1,1,House,House,False,168,m2,False
2017445024,listing,/11-398-402-king-street-newtown-nsw-2042-2017445024,820000,is-sold,Sold prior to auction 08 Dec 2021,20211208,11/398-402 King Street,NEWTOWN,NSW,2042,-33.89974,151.178253,1,1,1,ApartmentUnitFlat,Apartment / Unit / Flat,False,0,m2,False
2017445621,listing,/318-edgeware-road-newtown-nsw-2042-2017445621,1650000,is-sold,Sold prior to auction 07 Dec 2021,20211207,318 Edgeware Road,NEWTOWN,NSW,2042,-33.90742,151.17485,3,3,3,House,House,False,251,m2,False
2017270106,listing,/323-1-georgina-street-newtown-nsw-2042-2017270106,890000,is-sold,Sold by private treaty 26 Nov 2021,20211126,323/1 Georgina Street,NEWTOWN,NSW,2042,-33.8933067,151.184586,2,2,2,ApartmentUnitFlat,Apartment / Unit / Flat,False,90,m2,False
2017299800,listing,/24-edgeware-road-enmore-nsw-2042-2017299800,2200000,is-sold,Sold by private treaty 19 Nov 2021,20211119,24 Edgeware Road,ENMORE,NSW,2042,-33.9002953,151.171646,5,5,5,House,House,False,271,m2,False
2017315910,listing,/214-edgeware-road-newtown-nsw-2042-2017315910,1795000,is-sold,Sold by private treaty 26 Nov 2021,20211126,214 Edgeware Road,NEWTOWN,NSW,2042,-33.9051132,151.173752,3,3,3,House,House,False,177,m2,False
2017343888,listing,/6-140-lennox-street-newtown-nsw-2042-2017343888,400000,is-sold,Sold by private treaty 23 Nov 2021,20211123,6/140 Lennox Street,NEWTOWN,NSW,2042,-33.8966255,151.176346,NaN,1.0,NaN,Studio,Studio,False,0,m2,False
2017355450,listing,/15-oxford-street-newtown-nsw-2042-2017355450,Price Withheld,is-sold,Sold at auction 20 Nov 2021,20211120,15 Oxford Street,NEWTOWN,NSW,2042,-33.8953,151.174957,3,3,3,House,House,False,126,m2,False
2017359667,listing,/1-randle-street-newtown-nsw-2042-2017359667,2110000,is-sold,Sold at auction 20 Nov 2021,20211120,1 Randle Street,NEWTOWN,NSW,2042,-33.8954163,151.186417,3,3,3,House,House,False,142,m2,False
2017360148,listing,/12-alma-avenue-enmore-nsw-2042-2017360148,2200000,is-sold,Sold at auction 20 Nov 2021,20211120,12 Alma Avenue,ENMORE,NSW,2042,-33.9005775,151.166809,4,4,4,House,House,False,278,m2,False
2017368368,listing,/57-egan-street-newtown-nsw-2042-2017368368,1870000,is-sold,Sold at auction 20 Nov 2021,20211120,57 Egan Street,NEWTOWN,NSW,2042,-33.8928566,151.181534,2,2,2,House,House,False,0,m2,False
2017371559,listing,/20-dickson-street-newtown-nsw-2042-2017371559,2080000,is-sold,Sold prior to auction 19 Nov 2021,20211119,20 Dickson Street,NEWTOWN,NSW,2042,-33.90498,151.179657,3,3,3,House,House,False,113,m2,False
2017372415,listing,/8-159-enmore-road-enmore-nsw-2042-2017372415,Price Withheld,is-sold,Sold by private treaty 19 Nov 2021,20211119,8/159 Enmore Road,ENMORE,NSW,2042,-33.89867,151.172775,1,1,1,ApartmentUnitFlat,Apartment / Unit / Flat,False,0,m2,False
2017377530,listing,/100-probert-street-newtown-nsw-2042-2017377530,Price Withheld,is-sold,Sold at auction 27 Nov 2021,20211127,100 Probert Street,NEWTOWN,NSW,2042,-33.8949471,151.17627,3,3,3,House,House,False,127,m2,False
2017382469,listing,/29-20-fitzgerald-street-newtown-nsw-2042-2017382469,1027500,is-sold,Sold at auction 27 Nov 2021,20211127,29/20 Fitzgerald Street,NEWTOWN,NSW,2042,-33.8918839,151.1807,2,2,2,ApartmentUnitFlat,Apartment / Unit / Flat,False,0,m2,False
2017383318,listing,/40-egan-street-newtown-nsw-2042-2017383318,1900000,is-sold,Sold prior to auction 24 Nov 2021,20211124,40 Egan Street,NEWTOWN,NSW,2042,-33.8935547,151.1815,3,3,3,House,House,False,94,m2,False
2017383366,listing,/20-6-albert-street-newtown-nsw-2042-2017383366,1010000,is-sold,Sold prior to auction 24 Nov 2021,20211124,20/6 Albert Street,NEWTOWN,NSW,2042,-33.89526,151.173035,2,2,2,ApartmentUnitFlat,Apartment / Unit / Flat,False,0,m2,False
2017383960,listing,/2-little-commodore-street-newtown-nsw-2042-2017383960,1400000,is-sold,Sold at auction 27 Nov 2021,20211127,2 Little Commodore Street,NEWTOWN,NSW,2042,-33.9047241,151.1766,2,2,2,House,House,False,0,m2,False
2017399279,listing,/420-88-king-street-newtown-nsw-2042-2017399279,485000,is-sold,Sold prior to auction 19 Nov 2021,20211119,420/88 King Street,NEWTOWN,NSW,2042,-33.893074,151.185333,NaN,1.0,NaN,ApartmentUnitFlat,Apartment / Unit / Flat,False,46,m2,False
2017402312,listing,/5-short-street-enmore-nsw-2042-2017402312,Price Withheld,is-sold,Sold by private treaty 26 Nov 2021,20211126,5 Short Street,ENMORE,NSW,2042,-33.9009247,151.168411,4,4,4,House,House,False,177,m2,False
2017408178,listing,/37-laura-street-newtown-nsw-2042-2017408178,1750000,is-sold,Sold prior to auction 24 Nov 2021,20211124,37 Laura Street,NEWTOWN,NSW,2042,-33.9055443,151.174988,2,2,2,House,House,False,139,m2,False
2017417034,listing,/18-belmore-street-enmore-nsw-2042-2017417034,2125000,is-sold,Sold prior to auction 18 Nov 2021,20211118,18 Belmore Street,ENMORE,NSW,2042,-33.898304,151.172836,3,3,3,House,House,False,171,m2,False
2017639432,listing,/20-dickson-street-newtown-nsw-2042-2017639432,2080000,is-sold,Sold prior to auction 19 Nov 2021,20211119,20 Dickson Street,NEWTOWN,NSW,2042,-33.90498,151.179657,3,3,3,House,House,False,113,m2,False
2013812012,listing,/4-01-655-king-st-newtown-nsw-2042-2013812012,1330000,is-sold,Sold by private treaty 17 Nov 2021,20211117,4.01/655 King St,NEWTOWN,NSW,2042,-33.9018669,151.17894,3,3,3,ApartmentUnitFlat,Apartment / Unit / Flat,False,0,m2,False
2017242715,listing,/4-15-darley-street-newtown-nsw-2042-2017242715,560000,is-sold,Sold by private treaty 13 Nov 2021,20211113,4/15 Darley Street,NEWTOWN,NSW,2042,-33.9059143,151.180038,1,1,1,ApartmentUnitFlat,Apartment / Unit / Flat,False,0,m2,False
2017302187,listing,/48-wilson-street-newtown-nsw-2042-2017302187,1820000,is-sold,Sold at auction 05 Nov 2021,20211105,48 Wilson Street,NEWTOWN,NSW,2042,-33.8961754,151.181763,3,3,3,House,House,False,108,m2,False
2017304097,listing,/8-hordern-street-newtown-nsw-2042-2017304097,1600000,is-sold,Sold at auction 13 Nov 2021,20211113,8 Hordern Street,NEWTOWN,NSW,2042,-33.89486,151.181335,2,2,2,House,House,False,101,m2,False
2017305273,listing,/93-burren-street-newtown-nsw-2042-2017305273,1820000,is-sold,Sold at auction 30 Oct 2021,20211030,93 Burren Street,NEWTOWN,NSW,2042,-33.89607,151.1853,2,2,2,House,House,False,139,m2,False
2017308460,listing,/103-probert-street-newtown-nsw-2042-2017308460,1650000,is-sold,Sold at auction 06 Nov 2021,20211106,103 Probert Street,NEWTOWN,NSW,2042,-33.89512,151.176025,2,2,2,House,House,False,0,m2,False
2017313025,listing,/26-38-42-stanmore-road-enmore-nsw-2042-2017313025,790000,is-sold,Sold at auction 06 Nov 2021,20211106,26/38-42 Stanmore Road,ENMORE,NSW,2042,-33.89946,151.1691,2,2,2,ApartmentUnitFlat,Apartment / Unit / Flat,False,0,m2,False
2017313869,listing,/50-lennox-street-newtown-nsw-2042-2017313869,1250000,is-sold,Sold prior to auction 05 Nov 2021,20211105,50 Lennox Street,NEWTOWN,NSW,2042,-33.8957176,151.179367,1,1,1,Terrace,Terrace,False,0,m2,False
2017322131,listing,/9-33-37-tupper-street-enmore-nsw-2042-2017322131,935000,is-sold,Sold prior to auction 05 Nov 2021,20211105,9/33-37 Tupper Street,ENMORE,NSW,2042,-33.90059,151.168259,2,2,2,ApartmentUnitFlat,Apartment / Unit / Flat,False,86,m2,False
2017324661,listing,/4-222-wilson-street-newtown-nsw-2042-2017324661,1476000,is-sold,Sold prior to auction 01 Nov 2021,20211101,4/222 Wilson Street,NEWTOWN,NSW,2042,-33.89415,151.1886,2,2,2,ApartmentUnitFlat,Apartment / Unit / Flat,False,122,m2,False
2017331095,listing,/3-union-street-newtown-nsw-2042-2017331095,1050000,is-sold,Sold at auction 13 Nov 2021,20211113,3 Union Street,NEWTOWN,NSW,2042,-33.89926,151.182266,2,2,2,House,House,False,82,m2,False
2017335003,listing,/21-gibbes-street-newtown-nsw-2042-2017335003,1785000,is-sold,Sold at auction 06 Nov 2021,20211106,21 Gibbes Street,NEWTOWN,NSW,2042,-33.8997421,151.17984,2,2,2,House,House,False,64,m2,False
2017340134,listing,/49-wilson-street-newtown-nsw-2042-2017340134,2752000,is-sold,Sold at auction 12 Nov 2021,20211112,49 Wilson Street,NEWTOWN,NSW,2042,-33.89658,151.181732,4,4,4,House,House,False,147,m2,False
2017340374,listing,/171-alice-street-newtown-nsw-2042-2017340374,1781000,is-sold,Sold prior to auction 12 Nov 2021,20211112,171 Alice Street,NEWTOWN,NSW,2042,-33.90444,151.174179,2,2,2,House,House,False,139,m2,False
2017348028,listing,/24-2-6-liberty-street-enmore-nsw-2042-2017348028,900000,is-sold,Sold at auction 15 Nov 2021,20211115,24/2-6 Liberty Street,ENMORE,NSW,2042,-33.8974648,151.169861,2,2,2,ApartmentUnitFlat,Apartment / Unit / Flat,False,0,m2,False
2017374818,listing,/1-2-6-liberty-street-enmore-nsw-2042-2017374818,895000,is-sold,Sold by private treaty 16 Nov 2021,20211116,1/2-6 Liberty Street,ENMORE,NSW,2042,-33.8974648,151.169861,2,2,2,ApartmentUnitFlat,Apartment / Unit / Flat,False,0,m2,False
2017375658,listing,/6-15-darley-street-newtown-nsw-2042-2017375658,630000,is-sold,Sold by private treaty 02 Nov 2021,20211102,6/15 Darley Street,NEWTOWN,NSW,2042,-33.9059143,151.180038,1,1,1,ApartmentUnitFlat,Apartment / Unit / Flat,False,0,m2,False
2017387893,listing,/135-lord-street-newtown-nsw-2042-2017387893,1875000,is-sold,Sold prior to auction 16 Nov 2021,20211116,135 Lord Street,NEWTOWN,NSW,2042,-33.9077568,151.176666,3,3,3,House,House,False,155,m2,False
2017394618,listing,/7-344-edgeware-road-newtown-nsw-2042-2017394618,Price Withheld,is-sold,Sold prior to auction 17 Nov 2021,20211117,7/344 Edgeware Road,NEWTOWN,NSW,2042,-33.9081726,151.175171,2,2,2,ApartmentUnitFlat,Apartment / Unit / Flat,False,0,m2,False
2017639367,listing,/24-2-6-liberty-street-enmore-nsw-2042-2017639367,900000,is-sold,Sold at auction 13 Nov 2021,20211113,24/2-6 Liberty Street,ENMORE,NSW,2042,-33.8974724,151.169861,2,2,2,ApartmentUnitFlat,Apartment / Unit / Flat,False,0,m2,False
2017268364,listing,/101e-138-carillon-avenue-newtown-nsw-2042-2017268364,930000,is-sold,Sold by private treaty 21 Oct 2021,20211021,101E/138 Carillon Avenue,NEWTOWN,NSW,2042,-33.89145,151.18042,2,2,2,ApartmentUnitFlat,Apartment / Unit / Flat,False,0,m2,False
2017277980,listing,/314-32-72-alice-street-newtown-nsw-2042-2017277980,1275000,is-sold,Sold at auction 21 Oct 2021,20211021,314/32-72 Alice Street,NEWTOWN,NSW,2042,-33.90394,151.177536,2,2,2,ApartmentUnitFlat,Apartment / Unit / Flat,False,0,m2,False
2017278096,listing,/230-wilson-street-newtown-nsw-2042-2017278096,1575000,is-sold,Sold prior to auction 21 Oct 2021,20211021,230 Wilson Street,NEWTOWN,NSW,2042,-33.8940125,151.188965,2,2,2,House,House,False,0,m2,False
2017278384,listing,/15-reiby-street-newtown-nsw-2042-2017278384,1586000,is-sold,Sold at auction 14 Oct 2021,20211014,15 Reiby Street,NEWTOWN,NSW,2042,-33.8995476,151.175186,2,2,2,House,House,False,120,m2,False
2017279738,listing,/6-egan-street-newtown-nsw-2042-2017279738,1766000,is-sold,Sold prior to auction 19 Oct 2021,20211019,6 Egan Street,NEWTOWN,NSW,2042,-33.89434,151.1818,2,2,2,House,House,False,101,m2,False
2017284247,listing,/20-15-erskineville-road-newtown-nsw-2042-2017284247,830000,is-sold,Sold by private treaty 20 Oct 2021,20211020,20/15 Erskineville Road,NEWTOWN,NSW,2042,-33.8982849,151.1815,1,1,1,ApartmentUnitFlat,Apartment / Unit / Flat,False,91,m2,False
2017290039,listing,/31-lord-street-newtown-nsw-2042-2017290039,1540000,is-sold,Sold at auction 20 Oct 2021,20211020,31 Lord Street,NEWTOWN,NSW,2042,-33.9069252,151.179886,2,2,2,House,House,False,202,m2,False
2017299318,listing,/1-o-connell-street-newtown-nsw-2042-2017299318,1900000,is-sold,Sold prior to auction 29 Oct 2021,20211029,1 O'Connell Street,NEWTOWN,NSW,2042,-33.89373,151.182617,4,4,4,Terrace,Terrace,False,0,m2,False
2017299996,listing,/20-susan-street-newtown-nsw-2042-2017299996,1680000,is-sold,Sold at auction 28 Oct 2021,20211028,20 Susan Street,NEWTOWN,NSW,2042,-33.89262,151.182373,2,2,2,House,House,False,114,m2,False
2017305465,listing,/233-denison-street-newtown-nsw-2042-2017305465,2497500,is-sold,Sold at auction 30 Oct 2021,20211030,233 Denison Street,NEWTOWN,NSW,2042,-33.8957825,151.177017,3,3,3,House,House,False,124,m2,False
2017305704,listing,/52-queen-street-newtown-nsw-2042-2017305704,2657200,is-sold,Sold at auction 14 Oct 2021,20211014,52 Queen Street,NEWTOWN,NSW,2042,-33.8939056,151.187744,2,2,2,House,House,False,82,m2,False
2017306430,listing,/139-simmons-street-enmore-nsw-2042-2017306430,2177500,is-sold,Sold at auction 26 Oct 2021,20211026,139 Simmons Street,ENMORE,NSW,2042,-33.9029121,151.174713,3,3,3,House,House,False,0,m2,False
2017307251,listing,/154-wells-street-newtown-nsw-2042-2017307251,1265000,is-sold,Sold at auction 30 Oct 2021,20211030,154 Wells Street,NEWTOWN,NSW,2042,-33.9071274,151.175034,2,2,2,House,House,False,0,m2,False
2017308208,listing,/25-kent-street-newtown-nsw-2042-2017308208,1740000,is-sold,Sold at auction 30 Oct 2021,20211030,25 Kent Street,NEWTOWN,NSW,2042,-33.9017639,151.1762,2,2,2,House,House,False,127,m2,False
2017320223,listing,/39-fulham-street-newtown-nsw-2042-2017320223,Price Withheld,is-sold,Sold prior to auction 21 Oct 2021,20211021,39 Fulham Street,NEWTOWN,NSW,2042,-33.9011955,151.174881,4,4,4,House,House,False,139,m2,False
2017335802,listing,/42-station-street-newtown-nsw-2042-2017335802,3100000,is-sold,Sold at auction 29 Oct 2021,20211029,42 Station Street,NEWTOWN,NSW,2042,-33.899353,151.177032,3,3,3,Terrace,Terrace,False,183,m2,False
2017337472,listing,/54-hordern-street-newtown-nsw-2042-2017337472,1700000,is-sold,Sold at auction 26 Oct 2021,20211026,54 Hordern Street,NEWTOWN,NSW,2042,-33.893734,151.180954,2,2,2,Terrace,Terrace,False,0,m2,False
2017349899,listing,/57-chelmsford-street-newtown-nsw-2042-2017349899,2225000,is-sold,Sold at auction 25 Oct 2021,20211025,57 Chelmsford Street,NEWTOWN,NSW,2042,-33.8951225,151.175262,2,2,2,House,House,False,0,m2,False
2017352293,listing,/510e-138-carillon-avenue-newtown-nsw-2042-2017352293,1220000,is-sold,Sold by private treaty 18 Oct 2021,20211018,510e/138 Carillon Avenue,NEWTOWN,NSW,2042,-33.89145,151.18042,2,2,2,ApartmentUnitFlat,Apartment / Unit / Flat,False,0,m2,False
2017474290,listing,/54-dickson-street-newtown-nsw-2042-2017474290,1555000,is-sold,Sold by private treaty 26 Oct 2021,20211026,54 Dickson Street,NEWTOWN,NSW,2042,-33.9052734,151.178741,2,2,2,Terrace,Terrace,False,114,m2,False
