id,listingType,url,price,tagClassName,tagText,date,street,suburb,state,postcode,lat,lng,beds,baths,parking,propertyType,propertyTypeFormatted,isRural,landSize,landUnit,isRetirement
2018306446,listing,/9-216-blues-point-road-north-sydney-nsw-2060-2018306446,,is-sold,Sold by private treaty 27 Feb 2023,20230227,9/216 Blues Point Road,NORTH SYDNEY,NSW,2060,-33.8415375,151.205673,2,2,2,ApartmentUnitFlat,Apartment / Unit / Flat,False,0,m2,False
2018040394,listing,/unit-203-18-eden-st-north-sydney-nsw-2060-2018040394,,is-sold,Sold by private treaty 03 Feb 2023,20230203,Unit 203/18 Eden St,NORTH SYDNEY,NSW,2060,-33.8311234,151.204666,1,1,1,ApartmentUnitFlat,Apartment / Unit / Flat,False,0,m2,False
2018053803,listing,/1107-211-pacific-highway-rear-of-block-north-sydney-nsw-2060-2018053803,,is-sold,Sold by private treaty 16 Feb 2023,20230216,1107/211 Pacific Highway (rear of block),NORTH SYDNEY,NSW,2060,-33.83605,151.205826,1,1,1,ApartmentUnitFlat,Apartment / Unit / Flat,False,0,m2,False
2018097423,listing,/1115-225-pacific-highway-north-sydney-nsw-2060-2018097423,1000000,is-sold,Sold by private treaty 20 Feb 2023,20230220,1115/225 Pacific Highway,NORTH SYDNEY,NSW,2060,-33.8355026,151.20549,1,1,1,ApartmentUnitFlat,Apartment / Unit / Flat,False,83,m2,False
2018129188,listing,/1102-138-walker-street-north-sydney-nsw-2060-2018129188,,is-sold,Sold by private treaty 02 Feb 2023,20230202,1102/138 Walker Street,NORTH SYDNEY,NSW,2060,-33.83629,151.208939,2,2,2,ApartmentUnitFlat,Apartment / Unit / Flat,False,0,m2,False
2018129405,listing,/6-83-bay-road-waverton-nsw-2060-2018129405,,is-sold,Sold by private treaty 06 Feb 2023,20230206,6/83 Bay Road,WAVERTON,NSW,2060,-33.83792,151.196152,1,1,1,ApartmentUnitFlat,Apartment / Unit / Flat,False,0,m2,False
2018212904,listing,/38-12-14-berry-street-north-sydney-nsw-2060-2018212904,,is-sold,Sold by private treaty 03 Feb 2023,20230203,38/12-14 Berry Street,NORTH SYDNEY,NSW,2060,-33.8366928,151.20491,2,2,2,ApartmentUnitFlat,Apartment / Unit / Flat,False,0,m2,False
2018214493,listing,/1802-225-pacific-highway-north-sydney-nsw-2060-2018214493,1350000,is-sold,Sold by private treaty 01 Feb 2023,20230201,1802/225 Pacific Highway,NORTH SYDNEY,NSW,2060,-33.8355026,151.20549,2,2,2,ApartmentUnitFlat,Apartment / Unit / Flat,False,0,m2,False
2018281461,listing,/512-22-doris-street-north-sydney-nsw-2060-2018281461,,is-sold,Sold by private treaty 01 Feb 2023,20230201,512/22 Doris Street,NORTH SYDNEY,NSW,2060,-33.83939,151.213,,1.0,1.0,Studio,Studio,False,0,m2,False
2018283596,listing,/32-8-munro-street-mcmahons-point-nsw-2060-2018283596,,is-sold,Sold by private treaty 18 Feb 2023,20230218,32/8 Munro Street,MCMAHONS POINT,NSW,2060,-33.84449,151.200439,2,2,2,ApartmentUnitFlat,Apartment / Unit / Flat,False,0,m2,False
2018284058,listing,/903-26-napier-street-north-sydney-nsw-2060-2018284058,858000,is-sold,Sold at auction 18 Feb 2023,20230218,903/26 Napier Street,NORTH SYDNEY,NSW,2060,-33.8370628,151.205063,1,1,1,ApartmentUnitFlat,Apartment / Unit / Flat,False,77,m2,False
2018294780,listing,/48-2-4-east-crescent-street-mcmahons-point-nsw-2060-2018294780,875000,is-sold,Sold prior to auction 03 Feb 2023,20230203,48/2-4 East Crescent Street,MCMAHONS POINT,NSW,2060,-33.8479538,151.20462,1,1,1,ApartmentUnitFlat,Apartment / Unit / Flat,False,0,m2,False
2018296911,listing,/56-21-east-crescent-street-mcmahons-point-nsw-2060-2018296911,,is-sold,Sold prior to auction 10 Feb 2023,20230210,56/21 East Crescent Street,MCMAHONS POINT,NSW,2060,-33.8470459,151.205475,2,2,2,ApartmentUnitFlat,Apartment / Unit / Flat,False,0,m2,False
2018297991,listing,/6-18-carr-street-waverton-nsw-2060-2018297991,,is-sold,Sold prior to auction 11 Feb 2023,20230211,6/18 Carr Street,WAVERTON,NSW,2060,-33.8381577,151.19873,1,1,1,ApartmentUnitFlat,Apartment / Unit / Flat,False,0,m2,False
2018298792,listing,/5-16-mckye-street-waverton-nsw-2060-2018298792,1120000,is-sold,Sold at auction 11 Feb 2023,20230211,5/16 Mckye Street,WAVERTON,NSW,2060,-33.8361359,151.197723,2,2,2,ApartmentUnitFlat,Apartment / Unit / Flat,False,0,m2,False
2018304482,listing,/1002-79-81-berry-street-north-sydney-nsw-2060-2018304482,,is-sold,Sold at auction 23 Feb 2023,20230223,1002/79-81 Berry Street,NORTH SYDNEY,NSW,2060,-33.83747,151.208344,2,2,2,ApartmentUnitFlat,Apartment / Unit / Flat,False,0,m2,False
2018314591,listing,/10-tunks-street-waverton-nsw-2060-2018314591,,is-sold,Sold at auction 25 Feb 2023,20230225,10 Tunks Street,WAVERTON,NSW,2060,-33.8368874,151.195984,4,4,4,House,House,False,0,m2,False
2018315756,listing,/17-50-60-clark-road-north-sydney-nsw-2060-2018315756,2251000,is-sold,Sold prior to auction 21 Feb 2023,20230221,17/50-60 Clark Road,NORTH SYDNEY,NSW,2060,-33.83936,151.213684,3,3,3,Townhouse,Townhouse,False,0,m2,False
2018315967,listing,/2-73-bay-road-waverton-nsw-2060-2018315967,1018000,is-sold,Sold at auction 18 Feb 2023,20230218,2/73 Bay Road,WAVERTON,NSW,2060,-33.8375931,151.196518,1,1,1,ApartmentUnitFlat,Apartment / Unit / Flat,False,0,m2,False
2018362060,listing,/17-59-whaling-road-north-sydney-nsw-2060-2018362060,435000,is-sold,Sold by private treaty 24 Feb 2023,20230224,17/59 Whaling Road,NORTH SYDNEY,NSW,2060,-33.8419342,151.213882,,1.0,1.0,Studio,Studio,False,0,m2,False
2016436566,listing,/104-2-east-lane-north-sydney-nsw-2060-2016436566,,is-sold,Sold by private treaty 27 Jan 2023,20230127,104/2 East lane,NORTH SYDNEY,NSW,2060,-33.8319931,151.204468,2,2,2,ApartmentUnitFlat,Apartment / Unit / Flat,False,0,m2,False
2017591498,listing,/4c-22-ross-street-waverton-nsw-2060-2017591498,,is-sold,Sold by private treaty 23 Jan 2023,20230123,4C/22 Ross Street,WAVERTON,NSW,2060,-33.8374138,151.194412,2,2,2,ApartmentUnitFlat,Apartment / Unit / Flat,False,0,m2,False
2017687677,listing,/g03-2-hazelbank-place-north-sydney-nsw-2060-2017687677,775000,is-sold,Sold by private treaty 28 Dec 2022,20221228,G03/2 Hazelbank Place,NORTH SYDNEY,NSW,2060,-33.83212,151.204758,1,1,1,ApartmentUnitFlat,Apartment / Unit / Flat,False,0,m2,False
2017864844,listing,/5-52-high-street-north-sydney-nsw-2060-2017864844,,is-sold,Sold by private treaty 09 Jan 2023,20230109,5/52 High Street,NORTH SYDNEY,NSW,2060,-33.84204,151.213455,,1.0,,Studio,Studio,False,0,m2,False
2018129115,listing,/4-46-48-west-street-north-sydney-nsw-2060-2018129115,831000,is-sold,Sold by private treaty 09 Dec 2022,20221209,4/46-48 West Street,NORTH SYDNEY,NSW,2060,-33.8316345,151.205368,2,2,2,ApartmentUnitFlat,Apartment / Unit / Flat,False,0,m2,False
2018138513,listing,/101-231-miller-street-north-sydney-nsw-2060-2018138513,1330000,is-sold,Sold by private treaty 16 Dec 2022,20221216,101/231 Miller Street,NORTH SYDNEY,NSW,2060,-33.83532,151.208038,2,2,2,ApartmentUnitFlat,Apartment / Unit / Flat,False,0,m2,False
2018161963,listing,/601-231-miller-street-north-sydney-nsw-2060-2018161963,1265000,is-sold,Sold by private treaty 27 Jan 2023,20230127,601/231 Miller Street,NORTH SYDNEY,NSW,2060,-33.83532,151.208038,2,2,2,ApartmentUnitFlat,Apartment / Unit / Flat,False,0,m2,False
2018183351,listing,/5-26-east-crescent-street-mcmahons-point-nsw-2060-2018183351,2120000,is-sold,Sold at auction 10 Dec 2022,20221210,5/26 East Crescent Street,MCMAHONS POINT,NSW,2060,-33.84636,151.2048,2,2,2,ApartmentUnitFlat,Apartment / Unit / Flat,False,0,m2,False
2018187107,listing,/710-150-pacific-highway-north-sydney-nsw-2060-2018187107,,is-sold,Sold by private treaty 27 Jan 2023,20230127,710/150 Pacific Highway,NORTH SYDNEY,NSW,2060,-33.8363876,151.205368,1,1,1,ApartmentUnitFlat,Apartment / Unit / Flat,False,0,m2,False
2018204526,listing,/1304-229-miller-street-north-sydney-nsw-2060-2018204526,1070000,is-sold,Sold prior to auction 09 Dec 2022,20221209,1304/229 Miller Street,NORTH SYDNEY,NSW,2060,-33.8356667,151.208389,1,1,1,ApartmentUnitFlat,Apartment / Unit / Flat,False,79,m2,False
2018205252,listing,/79-union-street-mcmahons-point-nsw-2060-2018205252,3115000,is-sold,Sold at auction 15 Dec 2022,20221215,79 Union Street,MCMAHONS POINT,NSW,2060,-33.84189,151.202637,4,4,4,House,House,False,0,m2,False
2018208927,listing,/7-4-walker-street-lavender-bay-nsw-2060-2018208927,1650000,is-sold,Sold at auction 17 Dec 2022,20221217,7/4 Walker Street,LAVENDER BAY,NSW,2060,-33.84338,151.207718,2,2,2,ApartmentUnitFlat,Apartment / Unit / Flat,False,0,m2,False
2018220656,listing,/604-9-william-street-north-sydney-nsw-2060-2018220656,757000,is-sold,Sold at auction 17 Dec 2022,20221217,604/9 William Street,NORTH SYDNEY,NSW,2060,-33.8396835,151.206009,1,1,1,ApartmentUnitFlat,Apartment / Unit / Flat,False,0,m2,False
2018236849,listing,/36-52-high-street-north-sydney-nsw-2060-2018236849,,is-sold,Sold by private treaty 23 Dec 2022,20221223,36/52 High Street,NORTH SYDNEY,NSW,2060,-33.84204,151.213455,1,1,1,ApartmentUnitFlat,Apartment / Unit / Flat,False,0,m2,False
2018273465,listing,/63-2-4-east-crescent-street-mcmahons-point-nsw-2060-2018273465,1020000,is-sold,Sold by private treaty 15 Dec 2022,20221215,63/2-4 East Crescent Street,MCMAHONS POINT,NSW,2060,-33.8479538,151.20462,,1.0,1.0,House,House,False,0,m2,False
2018276366,listing,/101-225-pacific-highway-north-sydney-nsw-2060-2018276366,,is-sold,Sold by private treaty 23 Jan 2023,20230123,101/225 Pacific Highway,NORTH SYDNEY,NSW,2060,-33.8355026,151.20549,1,1,1,ApartmentUnitFlat,Apartment / Unit / Flat,False,0,m2,False
2018279250,listing,/apt-171-walker-street-north-sydney-nsw-2060-2018279250,,is-sold,Sold prior to auction 27 Jan 2023,20230127,Apt/171 Walker Street,NORTH SYDNEY,NSW,2060,-33.8369179,151.209564,3,3,3,ApartmentUnitFlat,Apartment / Unit / Flat,False,0,m2,False
2018281458,listing,/24-10-carr-street-waverton-nsw-2060-2018281458,,is-sold,Sold prior to auction 01 Feb 2023,20230201,24/10 Carr Street,WAVERTON,NSW,2060,-33.8387337,151.199081,2,2,2,ApartmentUnitFlat,Apartment / Unit / Flat,False,106,m2,False
2018303031,listing,/34-ancrum-street-waverton-nsw-2060-2018303031,,is-sold,Sold by private treaty 17 Jan 2023,20230117,34 Ancrum Street,WAVERTON,NSW,2060,-33.8392677,151.201157,3,3,3,House,House,False,0,m2,False
2018323530,listing,/23-edward-street-north-sydney-nsw-2060-2018323530,,is-sold,Sold by private treaty 04 Jan 2023,20230104,23 Edward Street,NORTH SYDNEY,NSW,2060,-33.8379974,151.204361,3,3,3,House,House,False,0,m2,False
2017961982,listing,/3-3-bank-lane-mcmahons-point-nsw-2060-2017961982,2200000,is-sold,Sold at auction 30 Nov 2022,20221130,3/3 Bank Lane,MCMAHONS POINT,NSW,2060,-33.84084,151.202,3,3,3,Townhouse,Townhouse,False,0,m2,False
2018084777,listing,/2-42-west-street-north-sydney-nsw-2060-2018084777,860000,is-sold,Sold by private treaty 23 Nov 2022,20221123,2/42 West Street,NORTH SYDNEY,NSW,2060,-33.8247948,151.20694,2,2,2,ApartmentUnitFlat,Apartment / Unit / Flat,False,0,m2,False
2018105358,listing,/3h-16-king-street-waverton-nsw-2060-2018105358,2100000,is-sold,Sold by private treaty 02 Dec 2022,20221202,3H/16 King Street,WAVERTON,NSW,2060,-33.8359375,151.195709,3,3,3,ApartmentUnitFlat,Apartment / Unit / Flat,False,0,m2,False
2018124952,listing,/37-191-195-walker-street-north-sydney-nsw-2060-2018124952,2758000,is-sold,Sold by private treaty 01 Dec 2022,20221201,37/191-195 Walker Street,NORTH SYDNEY,NSW,2060,-33.8349266,151.210342,3,3,3,ApartmentUnitFlat,Apartment / Unit / Flat,False,0,m2,False
2018157928,listing,/2-4-munro-street-mcmahons-point-nsw-2060-2018157928,800000,is-sold,Sold at auction 19 Nov 2022,20221119,2/4 Munro Street,MCMAHONS POINT,NSW,2060,-33.8446121,151.200745,1,1,1,ApartmentUnitFlat,Apartment / Unit / Flat,False,0,m2,False
2018160167,listing,/2004-138-walker-street-north-sydney-nsw-2060-2018160167,1730000,is-sold,Sold by private treaty 01 Dec 2022,20221201,2004/138 Walker Street,NORTH SYDNEY,NSW,2060,-33.83629,151.208939,2,2,2,ApartmentUnitFlat,Apartment / Unit / Flat,False,0,m2,False
2018161840,listing,/29-59-whaling-road-north-sydney-nsw-2060-2018161840,425000,is-sold,Sold by private treaty 22 Nov 2022,20221122,29/59 Whaling Road,NORTH SYDNEY,NSW,2060,-33.8419342,151.213882,,1.0,,ApartmentUnitFlat,Apartment / Unit / Flat,False,0,m2,False
2018161957,listing,/9-21-waiwera-street-lavender-bay-nsw-2060-2018161957,1550000,is-sold,Sold by private treaty 06 Dec 2022,20221206,9/21 Waiwera Street,LAVENDER BAY,NSW,2060,-33.843998,151.205643,2,2,2,ApartmentUnitFlat,Apartment / Unit / Flat,False,0,m2,False
2018172156,listing,/3302-79-81-berry-street-north-sydney-nsw-2060-2018172156,,is-sold,Sold prior to auction 22 Nov 2022,20221122,3302/79-81 Berry Street,NORTH SYDNEY,NSW,2060,-33.83747,151.208344,3,3,3,ApartmentUnitFlat,Apartment / Unit / Flat,False,0,m2,False
2018175543,listing,/33-8-munro-street-mcmahons-point-nsw-2060-2018175543,1800000,is-sold,Sold by private treaty 30 Nov 2022,20221130,33/8 Munro Street,MCMAHONS POINT,NSW,2060,-33.84449,151.200439,2,2,2,ApartmentUnitFlat,Apartment / Unit / Flat,False,0,m2,False
2018175640,listing,/3-1-tunks-street-waverton-nsw-2060-2018175640,3025000,is-sold,Sold at auction 30 Nov 2022,20221130,3/1 Tunks Street,WAVERTON,NSW,2060,-33.8375778,151.195892,3,3,3,Townhouse,Townhouse,False,0,m2,False
2018176796,listing,/6-whatmore-street-waverton-nsw-2060-2018176796,2445000,is-sold,Sold at auction 27 Nov 2022,20221127,6 Whatmore Street,WAVERTON,NSW,2060,-33.8370857,151.19545,2,2,2,House,House,False,221,m2,False
2018178168,listing,/18-4-munro-street-mcmahons-point-nsw-2060-2018178168,800000,is-sold,Sold by private treaty 08 Dec 2022,20221208,18/4 Munro Street,MCMAHONS POINT,NSW,2060,-33.8446121,151.200745,1,1,1,ApartmentUnitFlat,Apartment / Unit / Flat,False,0,m2,False
2018192161,listing,/102-14-blues-point-road-mcmahons-point-nsw-2060-2018192161,,is-sold,Sold at auction 03 Dec 2022,20221203,102/14 Blues Point Road,MCMAHONS POINT,NSW,2060,-33.8492,151.203217,1,1,1,ApartmentUnitFlat,Apartment / Unit / Flat,False,50,m2,False
2018206547,listing,/84-100-high-street-north-sydney-nsw-2060-2018206547,523000,is-sold,Sold at auction 03 Dec 2022,20221203,84/100 High Street,NORTH SYDNEY,NSW,2060,-33.8431969,151.215347,1,1,1,ApartmentUnitFlat,Apartment / Unit / Flat,False,0,m2,False
2018207502,listing,/10-102-bay-road-waverton-nsw-2060-2018207502,1325000,is-sold,Sold at auction 30 Nov 2022,20221130,10/102 Bay Road,WAVERTON,NSW,2060,-33.8380051,151.19722,2,2,2,ApartmentUnitFlat,Apartment / Unit / Flat,False,0,m2,False
2018210460,listing,/23-thomas-street-mcmahons-point-nsw-2060-2018210460,,is-sold,Sold by private treaty 05 Dec 2022,20221205,23 Thomas Street,MCMAHONS POINT,NSW,2060,-33.8426857,151.202209,5,5,5,Townhouse,Townhouse,False,0,m2,False
2018222673,listing,/1612-221-miller-street-north-sydney-nsw-2060-2018222673,,is-sold,Sold by private treaty 21 Nov 2022,20221121,1612/221 Miller Street,NORTH SYDNEY,NSW,2060,-33.8357239,151.207687,2,2,2,ApartmentUnitFlat,Apartment / Unit / Flat,False,0,m2,False
2018225204,listing,/111-245-pacific-highway-north-sydney-nsw-2060-2018225204,1030000,is-sold,Sold prior to auction 09 Dec 2022,20221209,111/245 Pacific Highway,NORTH SYDNEY,NSW,2060,-33.83514,151.20549,2,2,2,ApartmentUnitFlat,Apartment / Unit / Flat,False,0,m2,False
2018232530,listing,/16-21-waiwera-street-lavender-bay-nsw-2060-2018232530,,is-sold,Sold by private treaty 06 Dec 2022,20221206,16/21 Waiwera Street,LAVENDER BAY,NSW,2060,-33.843998,151.205643,2,2,2,ApartmentUnitFlat,Apartment / Unit / Flat,False,0,m2,False
2017936325,listing,/37-95a-ridge-street-north-sydney-nsw-2060-2017936325,3450000,is-sold,Sold prior to auction 26 Oct 2022,20221026,37/95A Ridge Street,NORTH SYDNEY,NSW,2060,-33.8341255,151.210754,3,3,3,ApartmentUnitFlat,Apartment / Unit / Flat,False,0,m2,False
2018007735,listing,/308-211-pacific-highway-rear-of-the-block-north-sydney-nsw-2060-2018007735,1270000,is-sold,Sold by private treaty 26 Oct 2022,20221026,308/211 Pacific Highway (rear of the block),NORTH SYDNEY,NSW,2060,-33.83605,151.205826,2,2,2,ApartmentUnitFlat,Apartment / Unit / Flat,False,0,m2,False
2018008269,listing,/1002-221-miller-street-north-sydney-nsw-2060-2018008269,690000,is-sold,Sold by private treaty 11 Nov 2022,20221111,1002/221 Miller Street,NORTH SYDNEY,NSW,2060,-33.8357849,151.208176,1,1,1,ApartmentUnitFlat,Apartment / Unit / Flat,False,0,m2,False
2018032308,listing,/706-229-miller-street-north-sydney-nsw-2060-2018032308,1640000,is-sold,Sold by private treaty 03 Nov 2022,20221103,706/229 Miller Street,NORTH SYDNEY,NSW,2060,-33.8356667,151.208389,2,2,2,ApartmentUnitFlat,Apartment / Unit / Flat,False,0,m2,False
2018077658,listing,/1602-211-223-pacific-highway-north-sydney-nsw-2060-2018077658,1425000,is-sold,Sold by private treaty 25 Oct 2022,20221025,1602/211-223 Pacific Highway,NORTH SYDNEY,NSW,2060,-33.83577,151.205673,2,2,2,ApartmentUnitFlat,Apartment / Unit / Flat,False,0,m2,False
2018083336,listing,/104-333-pacific-highway-north-sydney-nsw-2060-2018083336,1475000,is-sold,Sold prior to auction 20 Oct 2022,20221020,104/333 Pacific Highway,NORTH SYDNEY,NSW,2060,-33.8315773,151.204,3,3,3,ApartmentUnitFlat,Apartment / Unit / Flat,False,0,m2,False
2018085711,listing,/85-100-high-street-north-sydney-nsw-2060-2018085711,802000,is-sold,Sold at auction 22 Oct 2022,20221022,85/100 High Street,NORTH SYDNEY,NSW,2060,-33.8431969,151.215347,1,1,1,ApartmentUnitFlat,Apartment / Unit / Flat,False,0,m2,False
2018086027,listing,/81-100-high-street-north-sydney-nsw-2060-2018086027,700000,is-sold,Sold by private treaty 31 Oct 2022,20221031,81/100 High Street,NORTH SYDNEY,NSW,2060,-33.8431969,151.215347,1,1,1,ApartmentUnitFlat,Apartment / Unit / Flat,False,0,m2,False
2018088271,listing,/1302-229-miller-street-north-sydney-nsw-2060-2018088271,1720000,is-sold,Sold by private treaty 24 Oct 2022,20221024,1302/229 Miller Street,NORTH SYDNEY,NSW,2060,-33.8356667,151.208389,3,3,3,ApartmentUnitFlat,Apartment / Unit / Flat,False,0,m2,False
2018091243,listing,/104-229-miller-street-north-sydney-nsw-2060-2018091243,1310000,is-sold,Sold by private treaty 31 Oct 2022,20221031,104/229 Miller Street,NORTH SYDNEY,NSW,2060,-33.8356667,151.208389,2,2,2,ApartmentUnitFlat,Apartment / Unit / Flat,False,0,m2,False
2018099624,listing,/32-12-berry-street-north-sydney-nsw-2060-2018099624,1095000,is-sold,Sold by private treaty 08 Nov 2022,20221108,32/12 Berry Street,NORTH SYDNEY,NSW,2060,-33.83645,151.204941,2,2,2,ApartmentUnitFlat,Apartment / Unit / Flat,False,0,m2,False
2018110916,listing,/16-chuter-street-mcmahons-point-nsw-2060-2018110916,3600000,is-sold,Sold by private treaty 20 Oct 2022,20221020,16 Chuter Street,MCMAHONS POINT,NSW,2060,-33.84259,151.202713,4,4,4,House,House,False,0,m2,False
2018111714,listing,/4-50-60-clark-road-north-sydney-nsw-2060-2018111714,2220000,is-sold,Sold at auction 29 Oct 2022,20221029,4/50-60 Clark Road,NORTH SYDNEY,NSW,2060,-33.83936,151.213684,4,4,4,Townhouse,Townhouse,False,0,m2,False
2018119453,listing,/8d-22-king-street-waverton-nsw-2060-2018119453,2000000,is-sold,Sold prior to auction 27 Oct 2022,20221027,8D/22 King Street,WAVERTON,NSW,2060,-33.83597,151.195755,2,2,2,ApartmentUnitFlat,Apartment / Unit / Flat,False,0,m2,False
2018120346,listing,/88-2-12-crows-nest-rd-waverton-nsw-2060-2018120346,1180000,is-sold,Sold by private treaty 17 Nov 2022,20221117,88/2-12 Crows Nest Rd,WAVERTON,NSW,2060,-33.8368073,151.197708,2,2,2,ApartmentUnitFlat,Apartment / Unit / Flat,False,0,m2,False
2018131225,listing,/302-9-william-street-north-sydney-nsw-2060-2018131225,725000,is-sold,Sold at auction 12 Nov 2022,20221112,302/9 William Street,NORTH SYDNEY,NSW,2060,-33.8396835,151.206009,1,1,1,ApartmentUnitFlat,Apartment / Unit / Flat,False,0,m2,False
2018144836,listing,/92-2-east-crescent-street-mcmahons-point-nsw-2060-2018144836,985000,is-sold,Sold at auction 12 Nov 2022,20221112,92/2 East Crescent Street,MCMAHONS POINT,NSW,2060,-33.848,151.204651,,1.0,1.0,ApartmentUnitFlat,Apartment / Unit / Flat,False,0,m2,False
2018148619,listing,/4b-whaling-road-north-sydney-nsw-2060-2018148619,,is-sold,Sold prior to auction 04 Nov 2022,20221104,4B Whaling Road,NORTH SYDNEY,NSW,2060,-33.84052,151.212051,3,3,3,ApartmentUnitFlat,Apartment / Unit / Flat,False,0,m2,False
2018158550,listing,/8-19-priory-road-waverton-nsw-2060-2018158550,702500,is-sold,Sold by private treaty 17 Nov 2022,20221117,8/19 Priory Road,WAVERTON,NSW,2060,-33.8370056,151.203079,1,1,1,ApartmentUnitFlat,Apartment / Unit / Flat,False,0,m2,False
2018176493,listing,/27-7-lavender-street-lavender-bay-nsw-2060-2018176493,1400000,is-sold,Sold prior to auction 14 Nov 2022,20221114,27/7 Lavender Street,LAVENDER BAY,NSW,2060,-33.84305,151.2058,1,1,1,ApartmentUnitFlat,Apartment / Unit / Flat,False,0,m2,False
2017768638,listing,/100-blues-point-road-mcmahons-point-nsw-2060-2017768638,,is-sold,Sold by private treaty 12 Sep 2022,20220912,100 Blues Point Road,MCMAHONS POINT,NSW,2060,-33.8461266,151.20372,4,4,4,Terrace,Terrace,False,183,m2,False
2017821036,listing,/804-26-napier-street-north-sydney-nsw-2060-2017821036,1050000,is-sold,Sold by private treaty 05 Oct 2022,20221005,804/26 Napier Street,NORTH SYDNEY,NSW,2060,-33.8370628,151.205063,2,2,2,ApartmentUnitFlat,Apartment / Unit / Flat,False,0,m2,False
2017906872,listing,/1402-221-miller-street-north-sydney-nsw-2060-2017906872,685000,is-sold,Sold by private treaty 27 Sep 2022,20220927,1402/221 Miller Street,NORTH SYDNEY,NSW,2060,-33.8357849,151.208176,1,1,1,ApartmentUnitFlat,Apartment / Unit / Flat,False,0,m2,False
2017944465,listing,/14-238-falcon-street-north-sydney-nsw-2060-2017944465,1165000,is-sold,Sold by private treaty 24 Sep 2022,20220924,14/238 Falcon Street,NORTH SYDNEY,NSW,2060,-33.82921,151.21283,2,2,2,ApartmentUnitFlat,Apartment / Unit / Flat,False,0,m2,False
2017977354,listing,/512-54-high-street-north-sydney-nsw-2060-2017977354,410000,is-sold,Sold by private treaty 19 Oct 2022,20221019,512/54 High Street,NORTH SYDNEY,NSW,2060,-33.8422737,151.213974,,1.0,1.0,Studio,Studio,False,0,m2,False
2017980746,listing,/1103-221-miller-street-north-sydney-nsw-2060-2017980746,1350000,is-sold,Sold by private treaty 04 Oct 2022,20221004,1103/221 Miller Street,NORTH SYDNEY,NSW,2060,-33.8357849,151.208176,2,2,2,ApartmentUnitFlat,Apartment / Unit / Flat,False,0,m2,False
2017994041,listing,/23-doris-street-north-sydney-nsw-2060-2017994041,2900000,is-sold,Sold by private treaty 21 Sep 2022,20220921,23 Doris Street,NORTH SYDNEY,NSW,2060,-33.8402443,151.213425,5,5,5,House,House,False,0,m2,False
2018012649,listing,/706-9-william-street-north-sydney-nsw-2060-2018012649,735000,is-sold,Sold by private treaty 17 Oct 2022,20221017,706/9 William Street,NORTH SYDNEY,NSW,2060,-33.8396835,151.206009,1,1,1,ApartmentUnitFlat,Apartment / Unit / Flat,False,0,m2,False
2018021878,listing,/4-16-mackenzie-street-lavender-bay-nsw-2060-2018021878,1435000,is-sold,Sold at auction 24 Sep 2022,20220924,4/16 Mackenzie Street,LAVENDER BAY,NSW,2060,-33.8421135,151.2069,2,2,2,ApartmentUnitFlat,Apartment / Unit / Flat,False,0,m2,False
2018028602,listing,/9-26-east-crescent-street-mcmahons-point-nsw-2060-2018028602,,is-sold,Sold prior to auction 21 Sep 2022,20220921,9/26 East Crescent Street,MCMAHONS POINT,NSW,2060,-33.84636,151.2048,1,1,1,ApartmentUnitFlat,Apartment / Unit / Flat,False,68,m2,False
2018030989,listing,/1513-211-223-pacific-highway-north-sydney-nsw-2060-2018030989,1375000,is-sold,Sold by private treaty 13 Oct 2022,20221013,1513/211-223 Pacific Highway,NORTH SYDNEY,NSW,2060,-33.83577,151.205673,2,2,2,ApartmentUnitFlat,Apartment / Unit / Flat,False,81,m2,False
2018039042,listing,/51-bank-street-north-sydney-nsw-2060-2018039042,2350000,is-sold,Sold prior to auction 13 Oct 2022,20221013,51 Bank Street,NORTH SYDNEY,NSW,2060,-33.8391075,151.202164,3,3,3,House,House,False,110,m2,False
2018044108,listing,/g03-150-walker-st-north-sydney-nsw-2060-2018044108,,is-sold,Sold by private treaty 15 Oct 2022,20221015,G03/150 Walker St,NORTH SYDNEY,NSW,2060,-33.8358269,151.209167,2,2,2,ApartmentUnitFlat,Apartment / Unit / Flat,False,0,m2,False
2018051139,listing,/51-171-walker-street-north-sydney-nsw-2060-2018051139,1505000,is-sold,Sold at auction 18 Oct 2022,20221018,51/171 Walker Street,NORTH SYDNEY,NSW,2060,-33.8369179,151.209564,2,2,2,ApartmentUnitFlat,Apartment / Unit / Flat,False,0,m2,False
2018054153,listing,/806-150-pacific-highway-north-sydney-nsw-2060-2018054153,970000,is-sold,Sold by private treaty 19 Sep 2022,20220919,806/150 Pacific Highway,NORTH SYDNEY,NSW,2060,-33.8363876,151.205368,1,1,1,ApartmentUnitFlat,Apartment / Unit / Flat,False,0,m2,False
2018067264,listing,/11-2-waverton-avenue-waverton-nsw-2060-2018067264,1310000,is-sold,Sold prior to auction 10 Oct 2022,20221010,11/2 Waverton Avenue,WAVERTON,NSW,2060,-33.83709,151.20018,2,2,2,ApartmentUnitFlat,Apartment / Unit / Flat,False,0,m2,False
2018069089,listing,/22-1-kiara-close-north-sydney-nsw-2060-2018069089,4200000,is-sold,Sold at auction 15 Oct 2022,20221015,22/1 Kiara Close,NORTH SYDNEY,NSW,2060,-33.8427048,151.216,3,3,3,ApartmentUnitFlat,Apartment / Unit / Flat,False,0,m2,False
2018076390,listing,/1-28-ridge-street-north-sydney-nsw-2060-2018076390,880000,is-sold,Sold prior to auction 11 Oct 2022,20221011,1/28 Ridge Street,NORTH SYDNEY,NSW,2060,-33.8323364,151.2067,1,1,1,ApartmentUnitFlat,Apartment / Unit / Flat,False,0,m2,False
2018084288,listing,/4-120-blues-point-road-mcmahons-point-nsw-2060-2018084288,960000,is-sold,Sold at auction 15 Oct 2022,20221015,4/120 Blues Point Road,MCMAHONS POINT,NSW,2060,-33.8453827,151.203827,1,1,1,ApartmentUnitFlat,Apartment / Unit / Flat,False,0,m2,False
2018113517,listing,/7-mckye-street-waverton-nsw-2060-2018113517,3205000,is-sold,Sold by private treaty 19 Oct 2022,20221019,7 McKye Street,WAVERTON,NSW,2060,-33.836338,151.196243,3,3,3,House,House,False,0,m2,False
2017796850,listing,/1301-79-81-berry-street-north-sydney-nsw-2060-2017796850,714000,is-sold,Sold by private treaty 09 Sep 2022,20220909,1301/79-81 Berry Street,NORTH SYDNEY,NSW,2060,-33.83747,151.208344,1,1,1,ApartmentUnitFlat,Apartment / Unit / Flat,False,0,m2,False
2017814426,listing,/5-50-60-clark-road-north-sydney-nsw-2060-2017814426,2200000,is-sold,Sold by private treaty 25 Aug 2022,20220825,5/50-60 Clark Road,NORTH SYDNEY,NSW,2060,-33.83936,151.213684,4,4,4,Townhouse,Townhouse,False,0,m2,False
2017874009,listing,/2001-221-miller-street-north-sydney-nsw-2060-2017874009,2020000,is-sold,Sold by private treaty 17 Aug 2022,20220817,2001/221 Miller Street,NORTH SYDNEY,NSW,2060,-33.8357849,151.208176,3,3,3,ApartmentUnitFlat,Apartment / Unit / Flat,False,0,m2,False
2017920901,listing,/701-211-pacific-hwy-north-sydney-nsw-2060-2017920901,1210000,is-sold,Sold by private treaty 01 Sep 2022,20220901,701/211 Pacific Hwy,NORTH SYDNEY,NSW,2060,-33.83605,151.205826,2,2,2,ApartmentUnitFlat,Apartment / Unit / Flat,False,0,m2,False
2017931878,listing,/unit-3-236-falcon-st-north-sydney-nsw-2060-2017931878,660000,is-sold,Sold by private treaty 24 Aug 2022,20220824,Unit 3/236 Falcon St,NORTH SYDNEY,NSW,2060,-33.82921,151.2125,2,2,2,ApartmentUnitFlat,Apartment / Unit / Flat,False,0,m2,False
2017948985,listing,/64-100-high-street-north-sydney-nsw-2060-2017948985,455000,is-sold,Sold by private treaty 11 Aug 2022,20220811,64/100 High Street,NORTH SYDNEY,NSW,2060,-33.8431969,151.215347,,1.0,1.0,Studio,Studio,False,0,m2,False
2017949412,listing,/15-thomas-street-mcmahons-point-nsw-2060-2017949412,2760000,is-sold,Sold prior to auction 13 Aug 2022,20220813,15 Thomas Street,MCMAHONS POINT,NSW,2060,-33.84292,151.202148,2,2,2,House,House,False,202,m2,False
2017949569,listing,/2b-priory-road-waverton-nsw-2060-2017949569,3065000,is-sold,Sold at auction 19 Aug 2022,20220819,2B Priory Road,WAVERTON,NSW,2060,-33.8365364,151.202347,4,4,4,House,House,False,236,m2,False
2017961368,listing,/unit-8-19-21-crows-nest-rd-waverton-nsw-2060-2017961368,920000,is-sold,Sold by private treaty 01 Sep 2022,20220901,Unit 8/19-21 Crows Nest Rd,WAVERTON,NSW,2060,-33.83603,151.199631,2,2,2,ApartmentUnitFlat,Apartment / Unit / Flat,False,0,m2,False
2017961411,listing,/8-36-east-crescent-street-mcmahons-point-nsw-2060-2017961411,1390000,is-sold,Sold prior to auction 12 Aug 2022,20220812,8/36 East Crescent Street,MCMAHONS POINT,NSW,2060,-33.8456154,151.204468,2,2,2,ApartmentUnitFlat,Apartment / Unit / Flat,False,0,m2,False
2017961695,listing,/2-204-falcon-street-north-sydney-nsw-2060-2017961695,650000,is-sold,Sold prior to auction 02 Sep 2022,20220902,2/204 Falcon Street,NORTH SYDNEY,NSW,2060,-33.8288841,151.210449,2,2,2,ApartmentUnitFlat,Apartment / Unit / Flat,False,74,m2,False
2017969499,listing,/63-52-high-street-north-sydney-nsw-2060-2017969499,370000,is-sold,Sold prior to auction 01 Sep 2022,20220901,63/52 High Street,NORTH SYDNEY,NSW,2060,-33.84204,151.213455,,1.0,,Studio,Studio,False,0,m2,False
2017977268,listing,/4b-26-ross-street-waverton-nsw-2060-2017977268,3060000,is-sold,Sold prior to auction 31 Aug 2022,20220831,4B/26 Ross Street,WAVERTON,NSW,2060,-33.837822,151.1944,3,3,3,ApartmentUnitFlat,Apartment / Unit / Flat,False,0,m2,False
2017978517,listing,/11-queens-avenue-mcmahons-point-nsw-2060-2017978517,3500000,is-sold,Sold by private treaty 02 Sep 2022,20220902,11 Queens Avenue,MCMAHONS POINT,NSW,2060,-33.8449821,151.203171,3,3,3,House,House,False,0,m2,False
2017987156,listing,/9c-50-whaling-road-north-sydney-nsw-2060-2017987156,,is-sold,Sold at auction 10 Sep 2022,20220910,9C/50 Whaling Road,NORTH SYDNEY,NSW,2060,-33.84166,151.2141,4,4,4,ApartmentUnitFlat,Apartment / Unit / Flat,False,0,m2,False
2017991587,listing,/504-9-william-street-north-sydney-nsw-2060-2017991587,762500,is-sold,Sold by private treaty 06 Sep 2022,20220906,504/9 William Street,NORTH SYDNEY,NSW,2060,-33.8396835,151.206009,1,1,1,ApartmentUnitFlat,Apartment / Unit / Flat,False,0,m2,False
2017993412,listing,/8-toongarah-road-waverton-nsw-2060-2017993412,4518000,is-sold,Sold prior to auction 16 Aug 2022,20220816,8 Toongarah Road,WAVERTON,NSW,2060,-33.83729,151.201523,4,4,4,House,House,False,495,m2,False
2018004858,listing,/101-9-11-doohat-avenue-north-sydney-nsw-2060-2018004858,1025000,is-sold,Sold at auction 03 Sep 2022,20220903,101/9-11 Doohat Avenue,NORTH SYDNEY,NSW,2060,-33.8361473,151.204254,1,1,1,ApartmentUnitFlat,Apartment / Unit / Flat,False,0,m2,False
2018009055,listing,/7-28-ridge-street-north-sydney-nsw-2060-2018009055,1050000,is-sold,Sold prior to auction 03 Sep 2022,20220903,7/28 Ridge Street,NORTH SYDNEY,NSW,2060,-33.8323364,151.2067,2,2,2,ApartmentUnitFlat,Apartment / Unit / Flat,False,0,m2,False
2018024226,listing,/14-106-108-bay-road-waverton-nsw-2060-2018024226,1350000,is-sold,Sold prior to auction 06 Sep 2022,20220906,14/106-108 Bay Road,WAVERTON,NSW,2060,-33.838192,151.196854,2,2,2,ApartmentUnitFlat,Apartment / Unit / Flat,False,0,m2,False
2017569369,listing,/802-10-mount-street-north-sydney-nsw-2060-2017569369,1795000,is-sold,Sold by private treaty 19 Jul 2022,20220719,802/10 Mount Street,NORTH SYDNEY,NSW,2060,-33.83825,151.204727,3,3,3,ApartmentUnitFlat,Apartment / Unit / Flat,False,0,m2,False
2017622403,listing,/30-arthur-street-lavender-bay-nsw-2060-2017622403,3625000,is-sold,Sold by private treaty 08 Jul 2022,20220708,30 Arthur Street,LAVENDER BAY,NSW,2060,-33.8423042,151.209045,3,3,3,House,House,False,0,m2,False
2017677210,listing,/13-197-walker-street-north-sydney-nsw-2060-2017677210,2000000,is-sold,Sold by private treaty 25 Jul 2022,20220725,13/197 Walker Street,NORTH SYDNEY,NSW,2060,-33.8345871,151.210464,3,3,3,ApartmentUnitFlat,Apartment / Unit / Flat,False,0,m2,False
2017760563,listing,/56-52-high-street-north-sydney-nsw-2060-2017760563,350000,is-sold,Sold by private treaty 07 Jul 2022,20220707,56/52 High Street,NORTH SYDNEY,NSW,2060,-33.84204,151.213455,,1.0,,Studio,Studio,False,0,m2,False
2017776410,listing,/1-32-hipwood-street-north-sydney-nsw-2060-2017776410,1050000,is-sold,Sold by private treaty 14 Jul 2022,20220714,1/32 Hipwood Street,NORTH SYDNEY,NSW,2060,-33.8423157,151.215,2,2,2,ApartmentUnitFlat,Apartment / Unit / Flat,False,0,m2,False
2017784769,listing,/7-183-high-street-north-sydney-nsw-2060-2017784769,1750000,is-sold,Sold by private treaty 02 Aug 2022,20220802,7/183 High Street,NORTH SYDNEY,NSW,2060,-33.8449936,151.218018,2,2,2,ApartmentUnitFlat,Apartment / Unit / Flat,False,0,m2,False
2017798700,listing,/2-31-bay-road-waverton-nsw-2060-2017798700,985000,is-sold,Sold by private treaty 05 Aug 2022,20220805,2/31 Bay Road,WAVERTON,NSW,2060,-33.83634,151.200485,2,2,2,ApartmentUnitFlat,Apartment / Unit / Flat,False,0,m2,False
2017834919,listing,/72-237-miller-street-north-sydney-nsw-2060-2017834919,1040000,is-sold,Sold prior to auction 10 Jul 2022,20220710,72/237 Miller Street,NORTH SYDNEY,NSW,2060,-33.83515,151.208038,2,2,2,ApartmentUnitFlat,Apartment / Unit / Flat,False,97,m2,False
2017847286,listing,/11-8-munro-street-mcmahons-point-nsw-2060-2017847286,1675000,is-sold,Sold by private treaty 29 Jul 2022,20220729,11/8 Munro Street,MCMAHONS POINT,NSW,2060,-33.84449,151.200439,2,2,2,ApartmentUnitFlat,Apartment / Unit / Flat,False,95,m2,False
2017858563,listing,/9-neutral-street-north-sydney-nsw-2060-2017858563,2000000,is-sold,Sold prior to auction 28 Jul 2022,20220728,9 Neutral Street,NORTH SYDNEY,NSW,2060,-33.8403244,151.212631,2,2,2,SemiDetached,Semi-Detached,False,158,m2,False
2017868492,listing,/12-18-20-woolcott-st-waverton-nsw-2060-2017868492,950000,is-sold,Sold at auction 09 Jul 2022,20220709,12/18-20 Woolcott St,WAVERTON,NSW,2060,-33.83897,151.197388,2,2,2,ApartmentUnitFlat,Apartment / Unit / Flat,False,0,m2,False
2017869765,listing,/43-ancrum-street-waverton-nsw-2060-2017869765,2750000,is-sold,Sold prior to auction 08 Jul 2022,20220708,43 Ancrum Street,WAVERTON,NSW,2060,-33.8389626,151.2016,3,3,3,House,House,False,0,m2,False
2017887857,listing,/10d-50-whaling-road-north-sydney-nsw-2060-2017887857,2025000,is-sold,Sold by private treaty 25 Jul 2022,20220725,10D/50 Whaling Road,NORTH SYDNEY,NSW,2060,-33.84166,151.2141,2,2,2,ApartmentUnitFlat,Apartment / Unit / Flat,False,0,m2,False
2017895364,listing,/1212-79-81-berry-street-north-sydney-nsw-2060-2017895364,760000,is-sold,Sold by private treaty 22 Jul 2022,20220722,1212/79-81 Berry Street,NORTH SYDNEY,NSW,2060,-33.83747,151.208344,1,1,1,ApartmentUnitFlat,Apartment / Unit / Flat,False,0,m2,False
2017899574,listing,/705-225-pacific-highway-north-sydney-nsw-2060-2017899574,1200000,is-sold,Sold by private treaty 21 Jul 2022,20220721,705/225 Pacific Highway,NORTH SYDNEY,NSW,2060,-33.8355026,151.20549,2,2,2,ApartmentUnitFlat,Apartment / Unit / Flat,False,0,m2,False
2017900073,listing,/810-225-pacific-highway-north-sydney-nsw-2060-2017900073,760000,is-sold,Sold prior to auction 15 Jul 2022,20220715,810/225 Pacific Highway,NORTH SYDNEY,NSW,2060,-33.8355026,151.20549,1,1,1,ApartmentUnitFlat,Apartment / Unit / Flat,False,0,m2,False
2017911911,listing,/2e-12-king-street-waverton-nsw-2060-2017911911,2315000,is-sold,Sold by private treaty 09 Aug 2022,20220809,2E/12 King Street,WAVERTON,NSW,2060,-33.8359375,151.195709,3,3,3,ApartmentUnitFlat,Apartment / Unit / Flat,False,0,m2,False
2017932491,listing,/3-1-harriott-street-waverton-nsw-2060-2017932491,1272000,is-sold,Sold at auction 06 Aug 2022,20220806,3/1 Harriott Street,WAVERTON,NSW,2060,-33.83576,151.200516,2,2,2,ApartmentUnitFlat,Apartment / Unit / Flat,False,107,m2,False
2017938734,listing,/12-197-walker-street-north-sydney-nsw-2060-2017938734,1050000,is-sold,Sold prior to auction 05 Aug 2022,20220805,12/197 Walker Street,NORTH SYDNEY,NSW,2060,-33.8345871,151.210464,2,2,2,ApartmentUnitFlat,Apartment / Unit / Flat,False,0,m2,False
2018355641,listing,/37-12-berry-street-north-sydney-nsw-2060-2018355641,1500000,is-sold,Sold prior to auction 08 Jul 2022,20220708,37/12 Berry Street,NORTH SYDNEY,NSW,2060,-33.83645,151.204941,3,3,3,ApartmentUnitFlat,Apartment / Unit / Flat,False,0,m2,False
2017635638,listing,/410-22-doris-street-north-sydney-nsw-2060-2017635638,400000,is-sold,Sold by private treaty 30 Jun 2022,20220630,410/22 Doris Street,NORTH SYDNEY,NSW,2060,-33.83939,151.213,,1.0,1.0,Studio,Studio,False,5000,m2,False
2017645860,listing,/12-2-4-east-crescent-st-mcmahons-point-nsw-2060-2017645860,917000,is-sold,Sold by private treaty 28 Jun 2022,20220628,12/2-4 East Crescent St,MCMAHONS POINT,NSW,2060,-33.8479538,151.20462,,1.0,1.0,ApartmentUnitFlat,Apartment / Unit / Flat,False,0,m2,False
2017698226,listing,/3-23-waiwera-street-lavender-bay-nsw-2060-2017698226,715000,is-sold,Sold by private treaty 24 Jun 2022,20220624,3/23 Waiwera Street,LAVENDER BAY,NSW,2060,-33.84382,151.205566,1,1,1,ApartmentUnitFlat,Apartment / Unit / Flat,False,0,m2,False
2017711953,listing,/46-crows-nest-road-waverton-nsw-2060-2017711953,5305501,is-sold,Sold by private treaty 24 Jun 2022,20220624,46 Crows Nest Road,WAVERTON,NSW,2060,-33.8332748,151.202713,4,4,4,House,House,False,752,m2,False
2017735538,listing,/207-225-pacific-highway-north-sydney-nsw-2060-2017735538,990000,is-sold,Sold by private treaty 16 Jun 2022,20220616,207/225 Pacific Highway,NORTH SYDNEY,NSW,2060,-33.8355026,151.20549,2,2,2,ApartmentUnitFlat,Apartment / Unit / Flat,False,0,m2,False
2017748457,listing,/206-100-bay-rd-waverton-nsw-2060-2017748457,835000,is-sold,Sold by private treaty 16 Jun 2022,20220616,206/100 Bay Rd,WAVERTON,NSW,2060,-33.83775,151.197067,1,1,1,ApartmentUnitFlat,Apartment / Unit / Flat,False,0,m2,False
2017749952,listing,/1-29-crows-nest-road-waverton-nsw-2060-2017749952,1000000,is-sold,Sold by private treaty 17 Jun 2022,20220617,1/29 Crows Nest Road,WAVERTON,NSW,2060,-33.8352928,151.2006,2,2,2,ApartmentUnitFlat,Apartment / Unit / Flat,False,0,m2,False
2017796793,listing,/2-216-blues-point-road-north-sydney-nsw-2060-2017796793,940000,is-sold,Sold by private treaty 07 Jul 2022,20220707,2/216 Blues Point Road,NORTH SYDNEY,NSW,2060,-33.8415451,151.205673,2,2,2,ApartmentUnitFlat,Apartment / Unit / Flat,False,0,m2,False
2017826688,listing,/207-333-pacific-highway-north-sydney-nsw-2060-2017826688,1155000,is-sold,Sold by private treaty 24 Jun 2022,20220624,207/333 Pacific Highway,NORTH SYDNEY,NSW,2060,-33.8315773,151.204,2,2,2,ApartmentUnitFlat,Apartment / Unit / Flat,False,0,m2,False
2017828004,listing,/11-22-crows-nest-road-waverton-nsw-2060-2017828004,1070000,is-sold,Sold at auction 18 Jun 2022,20220618,11/22 Crows Nest Road,WAVERTON,NSW,2060,-33.835228,151.199448,2,2,2,ApartmentUnitFlat,Apartment / Unit / Flat,False,0,m2,False
2017828199,listing,/10-8-10-east-crescent-st-mcmahons-point-nsw-2060-2017828199,2095000,is-sold,Sold at auction 25 Jun 2022,20220625,10/8-10 East Crescent St,MCMAHONS POINT,NSW,2060,-33.84761,151.2047,3,3,3,ApartmentUnitFlat,Apartment / Unit / Flat,False,0,m2,False
2017832521,listing,/10-18-ridge-street-north-sydney-nsw-2060-2017832521,1462000,is-sold,Sold by private treaty 18 Jun 2022,20220618,10/18 Ridge Street,NORTH SYDNEY,NSW,2060,-33.8322754,151.2062,2,2,2,ApartmentUnitFlat,Apartment / Unit / Flat,False,0,m2,False
2017832801,listing,/31-2-4-east-crescent-street-mcmahons-point-nsw-2060-2017832801,1135000,is-sold,Sold at auction 25 Jun 2022,20220625,31/2-4 East Crescent Street,MCMAHONS POINT,NSW,2060,-33.8479538,151.20462,,1.0,1.0,ApartmentUnitFlat,Apartment / Unit / Flat,False,0,m2,False
2017844037,listing,/2-1-harriott-street-waverton-nsw-2060-2017844037,1200000,is-sold,Sold at auction 25 Jun 2022,20220625,2/1 Harriott Street,WAVERTON,NSW,2060,-33.83576,151.200516,2,2,2,ApartmentUnitFlat,Apartment / Unit / Flat,False,0,m2,False
2017844084,listing,/24-ancrum-street-waverton-nsw-2060-2017844084,2450000,is-sold,Sold prior to auction 24 Jun 2022,20220624,24 Ancrum Street,WAVERTON,NSW,2060,-33.83968,151.201172,3,3,3,House,House,False,190,m2,False
2017844567,listing,/1-15-east-crescent-street-mcmahons-point-nsw-2060-2017844567,850000,is-sold,Sold at auction 17 Jun 2022,20220617,1/15 East Crescent Street,MCMAHONS POINT,NSW,2060,-33.8475037,151.205215,1,1,1,ApartmentUnitFlat,Apartment / Unit / Flat,False,0,m2,False
2017847015,listing,/6-2-waverton-avenue-waverton-nsw-2060-2017847015,1300000,is-sold,Sold prior to auction 22 Jun 2022,20220622,6/2 Waverton Avenue,WAVERTON,NSW,2060,-33.83709,151.20018,2,2,2,ApartmentUnitFlat,Apartment / Unit / Flat,False,116,m2,False
2017847280,listing,/17-thomas-street-mcmahons-point-nsw-2060-2017847280,4150000,is-sold,Sold prior to auction 01 Jul 2022,20220701,17 Thomas Street,MCMAHONS POINT,NSW,2060,-33.84286,151.202209,3,3,3,House,House,False,0,m2,False
2017853367,listing,/65-106-high-street-north-sydney-nsw-2060-2017853367,750000,is-sold,Sold by private treaty 01 Jul 2022,20220701,65/106 High Street,NORTH SYDNEY,NSW,2060,-33.8433456,151.215622,1,1,1,ApartmentUnitFlat,Apartment / Unit / Flat,False,0,m2,False
2017887389,listing,/3-3-bardsley-gardens-north-sydney-nsw-2060-2017887389,950000,is-sold,Sold prior to auction 07 Jul 2022,20220707,3/3 Bardsley Gardens,NORTH SYDNEY,NSW,2060,-33.8283272,151.210449,2,2,2,ApartmentUnitFlat,Apartment / Unit / Flat,False,0,m2,False
2017543018,listing,/2002-79-81-berry-north-sydney-nsw-2060-2017543018,1240000,is-sold,Sold by private treaty 14 Jun 2022,20220614,2002/79-81 Berry,NORTH SYDNEY,NSW,2060,-33.83747,151.208344,2,2,2,ApartmentUnitFlat,Apartment / Unit / Flat,False,0,m2,False
2017631454,listing,/11-webb-street-mcmahons-point-nsw-2060-2017631454,2200000,is-sold,Sold by private treaty 26 May 2022,20220526,11 Webb Street,MCMAHONS POINT,NSW,2060,-33.8428268,151.202515,2,2,2,SemiDetached,Semi-Detached,False,0,m2,False
2017654134,listing,/3201-79-81-berry-street-north-sydney-nsw-2060-2017654134,1690000,is-sold,Sold by private treaty 08 Jun 2022,20220608,3201/79-81 Berry Street,NORTH SYDNEY,NSW,2060,-33.83747,151.208344,3,3,3,ApartmentUnitFlat,Apartment / Unit / Flat,False,0,m2,False
2017669297,listing,/4-206-falcon-st-north-sydney-nsw-2060-2017669297,649999,is-sold,Sold by private treaty 26 May 2022,20220526,4/206 Falcon St,NORTH SYDNEY,NSW,2060,-33.8289261,151.210587,1,1,1,ApartmentUnitFlat,Apartment / Unit / Flat,False,0,m2,False
2017689195,listing,/g-02-2-hazelbank-place-north-sydney-nsw-2060-2017689195,775000,is-sold,Sold by private treaty 15 Jun 2022,20220615,G.02/2 Hazelbank Place,NORTH SYDNEY,NSW,2060,-33.8321342,151.2048,1,1,1,ApartmentUnitFlat,Apartment / Unit / Flat,False,66,m2,False
2017745058,listing,/201-3-east-crescent-street-mcmahons-point-nsw-2060-2017745058,8300000,is-sold,Sold by private treaty 26 May 2022,20220526,201/3 East Crescent Street,MCMAHONS POINT,NSW,2060,-33.8481369,151.205292,4,4,4,ApartmentUnitFlat,Apartment / Unit / Flat,False,0,m2,False
2017750019,listing,/309-22-doris-street-north-sydney-nsw-2060-2017750019,385000,is-sold,Sold by private treaty 15 Jun 2022,20220615,309/22 Doris Street,NORTH SYDNEY,NSW,2060,-33.83939,151.213,,1.0,1.0,Studio,Studio,False,0,m2,False
2017751458,listing,/1706-225-pacific-highway-north-sydney-nsw-2060-2017751458,2625000,is-sold,Sold by private treaty 02 Jun 2022,20220602,1706/225 Pacific Highway,NORTH SYDNEY,NSW,2060,-33.8355026,151.20549,3,3,3,ApartmentUnitFlat,Apartment / Unit / Flat,False,0,m2,False
2017754834,listing,/76-2-4-east-crescent-street-mcmahons-point-nsw-2060-2017754834,945000,is-sold,Sold at auction 27 May 2022,20220527,76/2-4 East Crescent Street,MCMAHONS POINT,NSW,2060,-33.8479538,151.20462,1,1,1,ApartmentUnitFlat,Apartment / Unit / Flat,False,0,m2,False
2017763544,listing,/13-4-little-alfred-street-north-sydney-nsw-2060-2017763544,1080000,is-sold,Sold prior to auction 27 May 2022,20220527,13/4 Little Alfred Street,NORTH SYDNEY,NSW,2060,-33.8403473,151.2116,2,2,2,ApartmentUnitFlat,Apartment / Unit / Flat,False,0,m2,False
2017764969,listing,/25-16-carr-street-waverton-nsw-2060-2017764969,1505000,is-sold,Sold prior to auction 26 May 2022,20220526,25/16 Carr Street,WAVERTON,NSW,2060,-33.8383675,151.19873,2,2,2,ApartmentUnitFlat,Apartment / Unit / Flat,False,0,m2,False
2017766552,listing,/49-union-street-mcmahons-point-nsw-2060-2017766552,3900000,is-sold,Sold by private treaty 01 Jun 2022,20220601,49 Union Street,MCMAHONS POINT,NSW,2060,-33.8415337,151.20134,4,4,4,Terrace,Terrace,False,0,m2,False
2017779685,listing,/4d-whaling-road-north-sydney-nsw-2060-2017779685,2720000,is-sold,Sold at auction 04 Jun 2022,20220604,4D Whaling Road,NORTH SYDNEY,NSW,2060,-33.84052,151.212051,4,4,4,Townhouse,Townhouse,False,0,m2,False
2017781598,listing,/903-156-158-pacific-highway-north-sydney-nsw-2060-2017781598,2910000,is-sold,Sold at auction 07 Jun 2022,20220607,903/156-158 Pacific Highway,NORTH SYDNEY,NSW,2060,-33.8361778,151.205292,3,3,3,ApartmentUnitFlat,Apartment / Unit / Flat,False,0,m2,False
2017787417,listing,/8-214-blues-point-road-mcmahons-point-nsw-2060-2017787417,1075000,is-sold,Sold prior to auction 27 May 2022,20220527,8/214 Blues Point Road,MCMAHONS POINT,NSW,2060,-33.8416862,151.205582,2,2,2,ApartmentUnitFlat,Apartment / Unit / Flat,False,0,m2,False
2017787419,listing,/906-225-pacific-highway-north-sydney-nsw-2060-2017787419,990000,is-sold,Sold prior to auction 25 May 2022,20220525,906/225 Pacific Highway,NORTH SYDNEY,NSW,2060,-33.8355026,151.20549,1,1,1,ApartmentUnitFlat,Apartment / Unit / Flat,False,0,m2,False
2017792744,listing,/12-144-high-street-north-sydney-nsw-2060-2017792744,2600000,is-sold,Sold at auction 04 Jun 2022,20220604,12/144 High Street,NORTH SYDNEY,NSW,2060,-33.8444557,151.217911,2,2,2,ApartmentUnitFlat,Apartment / Unit / Flat,False,0,m2,False
2017793204,listing,/33-21-east-crescent-street-mcmahons-point-nsw-2060-2017793204,850000,is-sold,Sold by private treaty 09 Jun 2022,20220609,33/21 East Crescent Street,MCMAHONS POINT,NSW,2060,-33.8470459,151.205475,1,1,1,ApartmentUnitFlat,Apartment / Unit / Flat,False,0,m2,False
2017811619,listing,/1902-79-81-berry-street-north-sydney-nsw-2060-2017811619,1120000,is-sold,Sold prior to auction 07 Jun 2022,20220607,1902/79-81 Berry Street,NORTH SYDNEY,NSW,2060,-33.83747,151.208344,2,2,2,ApartmentUnitFlat,Apartment / Unit / Flat,False,0,m2,False
2017818880,listing,/88-2-4-east-crescent-street-mcmahons-point-nsw-2060-2017818880,880000,is-sold,Sold prior to auction 15 Jun 2022,20220615,88/2-4 East Crescent Street,MCMAHONS POINT,NSW,2060,-33.8479538,151.20462,1,1,1,ApartmentUnitFlat,Apartment / Unit / Flat,False,47,m2,False
2017346642,listing,/1203-138-walker-street-north-sydney-nsw-2060-2017346642,705000,is-sold,Sold by private treaty 17 May 2022,20220517,1203/138 Walker Street,NORTH SYDNEY,NSW,2060,-33.83629,151.208939,1,1,1,ApartmentUnitFlat,Apartment / Unit / Flat,False,0,m2,False
2017608600,listing,/u210-2-east-lane-north-sydney-nsw-2060-2017608600,1300000,is-sold,Sold by private treaty 11 May 2022,20220511,U210/2 East Lane,NORTH SYDNEY,NSW,2060,-33.8319931,151.204468,2,2,2,ApartmentUnitFlat,Apartment / Unit / Flat,False,0,m2,False
2017652576,listing,/808-211-pacific-highway-north-sydney-nsw-2060-2017652576,1388000,is-sold,Sold by private treaty 20 May 2022,20220520,808/211 Pacific Highway,NORTH SYDNEY,NSW,2060,-33.83605,151.205826,2,2,2,ApartmentUnitFlat,Apartment / Unit / Flat,False,0,m2,False
2017664097,listing,/1305-79-berry-street-north-sydney-nsw-2060-2017664097,955000,is-sold,Sold by private treaty 11 May 2022,20220511,1305/79 Berry Street,NORTH SYDNEY,NSW,2060,-33.83747,151.208344,2,2,2,ApartmentUnitFlat,Apartment / Unit / Flat,False,0,m2,False
2017670204,listing,/107-54-high-street-north-sydney-nsw-2060-2017670204,500000,is-sold,Sold by private treaty 18 May 2022,20220518,107/54 High Street,NORTH SYDNEY,NSW,2060,-33.8422737,151.213974,1,1,1,ApartmentUnitFlat,Apartment / Unit / Flat,False,0,m2,False
2017718221,listing,/710-54-high-street-north-sydney-nsw-2060-2017718221,510000,is-sold,Sold by private treaty 19 May 2022,20220519,710/54 High Street,NORTH SYDNEY,NSW,2060,-33.8422737,151.213974,,1.0,,Studio,Studio,False,0,m2,False
2017720131,listing,/509-245-pacific-highway-north-sydney-nsw-2060-2017720131,1190000,is-sold,Sold by private treaty 14 May 2022,20220514,509/245 Pacific Highway,NORTH SYDNEY,NSW,2060,-33.83514,151.20549,2,2,2,ApartmentUnitFlat,Apartment / Unit / Flat,False,0,m2,False
2017724198,listing,/6-82-blues-point-road-mcmahons-point-nsw-2060-2017724198,1590000,is-sold,Sold by private treaty 18 May 2022,20220518,6/82 Blues Point Road,MCMAHONS POINT,NSW,2060,-33.8466873,151.20372,2,2,2,ApartmentUnitFlat,Apartment / Unit / Flat,False,0,m2,False
2017740103,listing,/808-138-walker-street-north-sydney-nsw-2060-2017740103,695000,is-sold,Sold by private treaty 10 May 2022,20220510,808/138 Walker Street,NORTH SYDNEY,NSW,2060,-33.83621,151.209061,1,1,1,ApartmentUnitFlat,Apartment / Unit / Flat,False,0,m2,False
2017746919,listing,/91-21-east-crescent-street-mcmahons-point-nsw-2060-2017746919,1720000,is-sold,Sold prior to auction 13 May 2022,20220513,91/21 East Crescent Street,MCMAHONS POINT,NSW,2060,-33.8470459,151.205475,1,1,1,ApartmentUnitFlat,Apartment / Unit / Flat,False,0,m2,False
2017747721,listing,/11-34-40-union-street-mcmahons-point-nsw-2060-2017747721,,is-sold,Sold prior to auction 17 May 2022,20220517,11/34-40 Union Street,MCMAHONS POINT,NSW,2060,-33.84137,151.202286,3,3,3,Townhouse,Townhouse,False,0,m2,False
2017749789,listing,/5-bank-lane-mcmahons-point-nsw-2060-2017749789,3860000,is-sold,Sold prior to auction 12 May 2022,20220512,5 Bank Lane,MCMAHONS POINT,NSW,2060,-33.8408737,151.202133,4,4,4,House,House,False,0,m2,False
2017751329,listing,/6b-22-king-street-waverton-nsw-2060-2017751329,3170000,is-sold,Sold prior to auction 14 May 2022,20220514,6B/22 King Street,WAVERTON,NSW,2060,-33.83597,151.195755,3,3,3,ApartmentUnitFlat,Apartment / Unit / Flat,False,198,m2,False
2017753425,listing,/2-28-west-street-north-sydney-nsw-2060-2017753425,2300000,is-sold,Sold by private treaty 09 May 2022,20220509,2/28 West Street,NORTH SYDNEY,NSW,2060,-33.825325,151.206863,3,3,3,Townhouse,Townhouse,False,242,m2,False
2017772805,listing,/707-150-pacific-highway-north-sydney-nsw-2060-2017772805,1300000,is-sold,Sold prior to auction 20 May 2022,20220520,707/150 Pacific Highway,NORTH SYDNEY,NSW,2060,-33.8363876,151.205368,2,2,2,ApartmentUnitFlat,Apartment / Unit / Flat,False,97,m2,False
2017780316,listing,/303-59-61-ridge-street-north-sydney-nsw-2060-2017780316,1760000,is-sold,Sold prior to auction 17 May 2022,20220517,303/59-61 Ridge Street,NORTH SYDNEY,NSW,2060,-33.8331261,151.208466,2,2,2,ApartmentUnitFlat,Apartment / Unit / Flat,False,0,m2,False
2017780969,listing,/3-38-woolcott-street-waverton-nsw-2060-2017780969,2600000,is-sold,Sold prior to auction 20 May 2022,20220520,3/38 Woolcott Street,WAVERTON,NSW,2060,-33.8396339,151.1989,3,3,3,ApartmentUnitFlat,Apartment / Unit / Flat,False,0,m2,False
2017784750,listing,/8-183-high-street-north-sydney-nsw-2060-2017784750,990000,is-sold,Sold prior to auction 13 May 2022,20220513,8/183 High Street,NORTH SYDNEY,NSW,2060,-33.8449936,151.218018,1,1,1,ApartmentUnitFlat,Apartment / Unit / Flat,False,0,m2,False
2017785094,listing,/2-queens-avenue-mcmahons-point-nsw-2060-2017785094,8100000,is-sold,Sold by private treaty 16 May 2022,20220516,2 Queens Avenue,MCMAHONS POINT,NSW,2060,-33.8452072,151.203033,4,4,4,House,House,False,0,m2,False
2017835867,listing,/5-21-priory-road-waverton-nsw-2060-2017835867,1720000,is-sold,Sold by private treaty 20 May 2022,20220520,5/21 Priory Road,WAVERTON,NSW,2060,-33.83705,151.202545,2,2,2,ApartmentUnitFlat,Apartment / Unit / Flat,False,0,m2,False
2017212014,listing,/37-171-walker-street-north-sydney-nsw-2060-2017212014,2200000,is-sold,Sold prior to auction 14 Apr 2022,20220414,37/171 Walker Street,NORTH SYDNEY,NSW,2060,-33.8369179,151.209564,3,3,3,ApartmentUnitFlat,Apartment / Unit / Flat,False,0,m2,False
2017344706,listing,/801-2-10-mount-street-north-sydney-nsw-2060-2017344706,1750000,is-sold,Sold by private treaty 19 Apr 2022,20220419,801/2-10 Mount Street,NORTH SYDNEY,NSW,2060,-33.8382835,151.204758,3,3,3,ApartmentUnitFlat,Apartment / Unit / Flat,False,0,m2,False
2017428906,listing,/1501-225-pacific-highway-north-sydney-nsw-2060-2017428906,770000,is-sold,Sold by private treaty 21 Apr 2022,20220421,1501/225 Pacific Highway,NORTH SYDNEY,NSW,2060,-33.8353653,151.205765,1,1,1,ApartmentUnitFlat,Apartment / Unit / Flat,False,0,m2,False
2017498601,listing,/606-138-walker-street-north-sydney-nsw-2060-2017498601,686000,is-sold,Sold by private treaty 13 Apr 2022,20220413,606/138 Walker Street,NORTH SYDNEY,NSW,2060,-33.83621,151.209061,1,1,1,ApartmentUnitFlat,Apartment / Unit / Flat,False,0,m2,False
2017543814,listing,/510-245-pacific-highway-north-sydney-nsw-2060-2017543814,1200000,is-sold,Sold by private treaty 06 May 2022,20220506,510/245 Pacific Highway,NORTH SYDNEY,NSW,2060,-33.83514,151.20549,2,2,2,ApartmentUnitFlat,Apartment / Unit / Flat,False,0,m2,False
2017567394,listing,/19-199-walker-street-north-sydney-nsw-2060-2017567394,1800000,is-sold,Sold by private treaty 26 Apr 2022,20220426,19/199 Walker Street,NORTH SYDNEY,NSW,2060,-33.83451,151.210083,3,3,3,ApartmentUnitFlat,Apartment / Unit / Flat,False,0,m2,False
2017626210,listing,/2506-79-81-berry-street-north-sydney-nsw-2060-2017626210,1487000,is-sold,Sold by private treaty 21 Apr 2022,20220421,2506/79-81 Berry Street,NORTH SYDNEY,NSW,2060,-33.83747,151.208344,2,2,2,ApartmentUnitFlat,Apartment / Unit / Flat,False,0,m2,False
2017665776,listing,/2-26-toongarah-road-waverton-nsw-2060-2017665776,1200000,is-sold,Sold by private treaty 06 May 2022,20220506,2/26 Toongarah Road,WAVERTON,NSW,2060,-33.8362236,151.201889,2,2,2,ApartmentUnitFlat,Apartment / Unit / Flat,False,0,m2,False
2017666995,listing,/4-13-carr-street-waverton-nsw-2060-2017666995,920000,is-sold,Sold prior to auction 27 Apr 2022,20220427,4/13 Carr Street,WAVERTON,NSW,2060,-33.8393326,151.19989,2,2,2,ApartmentUnitFlat,Apartment / Unit / Flat,False,0,m2,False
2017676108,listing,/5-31-crows-nest-road-waverton-nsw-2060-2017676108,1100000,is-sold,Sold at auction 14 Apr 2022,20220414,5/31 Crows Nest Road,WAVERTON,NSW,2060,-33.83508,151.2008,2,2,2,ApartmentUnitFlat,Apartment / Unit / Flat,False,0,m2,False
2017686974,listing,/8-36-arthur-street-lavender-bay-nsw-2060-2017686974,640000,is-sold,Sold at auction 13 Apr 2022,20220413,8/36 Arthur Street,LAVENDER BAY,NSW,2060,-33.8420639,151.2091,1,1,1,ApartmentUnitFlat,Apartment / Unit / Flat,False,0,m2,False
2017700148,listing,/58-west-street-north-sydney-nsw-2060-2017700148,2400000,is-sold,Sold by private treaty 06 May 2022,20220506,58 West Street,NORTH SYDNEY,NSW,2060,-33.8312454,151.20546,3,3,3,House,House,False,0,m2,False
2017710179,listing,/24-191-195-walker-street-north-sydney-nsw-2060-2017710179,2050000,is-sold,Sold prior to auction 29 Apr 2022,20220429,24/191-195 Walker Street,NORTH SYDNEY,NSW,2060,-33.83493,151.210312,3,3,3,ApartmentUnitFlat,Apartment / Unit / Flat,False,0,m2,False
2017720456,listing,/1909-211-pacific-highway-north-sydney-nsw-2060-2017720456,1480000,is-sold,Sold at auction 14 Apr 2022,20220414,1909/211 Pacific Highway,NORTH SYDNEY,NSW,2060,-33.83605,151.205826,2,2,2,ApartmentUnitFlat,Apartment / Unit / Flat,False,108,m2,False
2017722151,listing,/7-35-bay-road-waverton-nsw-2060-2017722151,2410000,is-sold,Sold prior to auction 06 May 2022,20220506,7/35 Bay Road,WAVERTON,NSW,2060,-33.8365746,151.2,3,3,3,Townhouse,Townhouse,False,0,m2,False
2017730876,listing,/3-12-east-crescent-street-mcmahons-point-nsw-2060-2017730876,1520000,is-sold,Sold by private treaty 05 May 2022,20220505,3/12 East Crescent Street,MCMAHONS POINT,NSW,2060,-33.84739,151.204849,2,2,2,ApartmentUnitFlat,Apartment / Unit / Flat,False,0,m2,False
2017738818,listing,/3-13-15-myrtle-street-north-sydney-nsw-2060-2017738818,1200000,is-sold,Sold at auction 02 May 2022,20220502,3/13-15 Myrtle Street,NORTH SYDNEY,NSW,2060,-33.831192,151.204422,2,2,2,ApartmentUnitFlat,Apartment / Unit / Flat,False,0,m2,False
2017747610,listing,/4-27a-bay-road-waverton-nsw-2060-2017747610,1505000,is-sold,Sold by private treaty 05 May 2022,20220505,4/27A Bay Road,WAVERTON,NSW,2060,-33.83578,151.200928,2,2,2,ApartmentUnitFlat,Apartment / Unit / Flat,False,0,m2,False
2017767922,listing,/15-52-high-street-north-sydney-nsw-2060-2017767922,360000,is-sold,Sold by private treaty 09 May 2022,20220509,15/52 High Street,NORTH SYDNEY,NSW,2060,-33.84204,151.213455,1,1,1,ApartmentUnitFlat,Apartment / Unit / Flat,False,0,m2,False
2017864118,listing,/4-27a-bay-road-waverton-nsw-2060-2017864118,1505000,is-sold,Sold by private treaty 05 May 2022,20220505,4/27A Bay Road,WAVERTON,NSW,2060,-33.83578,151.200928,2,2,2,ApartmentUnitFlat,Apartment / Unit / Flat,False,0,m2,False
2017582898,listing,/7-197-walker-street-north-sydney-nsw-2060-2017582898,1625000,is-sold,Sold by private treaty 12 Apr 2022,20220412,7/197 Walker Street,NORTH SYDNEY,NSW,2060,-33.83454,151.210464,3,3,3,ApartmentUnitFlat,Apartment / Unit / Flat,False,0,m2,False
2017599757,listing,/9-29-east-crescent-street-mcmahons-point-nsw-2060-2017599757,782500,is-sold,Sold by private treaty 01 Apr 2022,20220401,9/29 East Crescent Street,MCMAHONS POINT,NSW,2060,-33.84659,151.205566,1,1,1,ApartmentUnitFlat,Apartment / Unit / Flat,False,0,m2,False
2017611656,listing,/1006-138-walker-street-north-sydney-nsw-2060-2017611656,680000,is-sold,Sold by private treaty 01 Apr 2022,20220401,1006/138 Walker Street,NORTH SYDNEY,NSW,2060,-33.83621,151.209061,1,1,1,ApartmentUnitFlat,Apartment / Unit / Flat,False,60,m2,False
2017616991,listing,/13-21-waiwera-street-lavender-bay-nsw-2060-2017616991,1270000,is-sold,Sold at auction 09 Apr 2022,20220409,13/21 Waiwera Street,LAVENDER BAY,NSW,2060,-33.8439827,151.205673,2,2,2,ApartmentUnitFlat,Apartment / Unit / Flat,False,0,m2,False
2017621391,listing,/4-16-carr-street-waverton-nsw-2060-2017621391,1260000,is-sold,Sold by private treaty 08 Apr 2022,20220408,4/16 Carr Street,WAVERTON,NSW,2060,-33.8383675,151.19873,2,2,2,ApartmentUnitFlat,Apartment / Unit / Flat,False,0,m2,False
2017631622,listing,/96-2-4-east-crescent-street-mcmahons-point-nsw-2060-2017631622,970000,is-sold,Sold prior to auction 01 Apr 2022,20220401,96/2-4 East Crescent Street,MCMAHONS POINT,NSW,2060,-33.8479538,151.20462,1,1,1,ApartmentUnitFlat,Apartment / Unit / Flat,False,0,m2,False
2017641298,listing,/104-2-hazelbank-place-north-sydney-nsw-2060-2017641298,965000,is-sold,Sold prior to auction 11 Apr 2022,20220411,104/2 Hazelbank Place,NORTH SYDNEY,NSW,2060,-33.8321342,151.2048,2,2,2,ApartmentUnitFlat,Apartment / Unit / Flat,False,0,m2,False
2017650842,listing,/g01-9-doohat-avenue-north-sydney-nsw-2060-2017650842,,is-sold,Sold prior to auction 01 Apr 2022,20220401,G01/9 Doohat Avenue,NORTH SYDNEY,NSW,2060,-33.83612,151.2043,1,1,1,ApartmentUnitFlat,Apartment / Unit / Flat,False,0,m2,False
2017651138,listing,/4-5-waverton-avenue-waverton-nsw-2060-2017651138,2250000,is-sold,Sold at auction 02 Apr 2022,20220402,4/5 Waverton Avenue,WAVERTON,NSW,2060,-33.837368,151.200882,3,3,3,Townhouse,Townhouse,False,0,m2,False
2017652122,listing,/73-21-east-crescent-street-mcmahons-point-nsw-2060-2017652122,920000,is-sold,Sold prior to auction 05 Apr 2022,20220405,73/21 East Crescent Street,MCMAHONS POINT,NSW,2060,-33.8470459,151.205475,1,1,1,ApartmentUnitFlat,Apartment / Unit / Flat,False,0,m2,False
2017657892,listing,/31-90-blues-point-road-mcmahons-point-nsw-2060-2017657892,1700000,is-sold,Sold at auction 02 Apr 2022,20220402,31/90 Blues Point Road,MCMAHONS POINT,NSW,2060,-33.84638,151.2038,2,2,2,ApartmentUnitFlat,Apartment / Unit / Flat,False,107,m2,False
2017665701,listing,/6-10-cassins-avenue-north-sydney-nsw-2060-2017665701,1175000,is-sold,Sold prior to auction 01 Apr 2022,20220401,6/10 Cassins Avenue,NORTH SYDNEY,NSW,2060,-33.8312035,151.206833,1,1,1,ApartmentUnitFlat,Apartment / Unit / Flat,False,0,m2,False
2017668118,listing,/33-10-carr-street-waverton-nsw-2060-2017668118,1930000,is-sold,Sold at auction 09 Apr 2022,20220409,33/10 Carr Street,WAVERTON,NSW,2060,-33.8387337,151.199081,3,3,3,ApartmentUnitFlat,Apartment / Unit / Flat,False,0,m2,False
2017669815,listing,/1-queens-avenue-mcmahons-point-nsw-2060-2017669815,4460000,is-sold,Sold at auction 09 Apr 2022,20220409,1 Queens Avenue,MCMAHONS POINT,NSW,2060,-33.845108,151.203384,3,3,3,House,House,False,0,m2,False
2017671130,listing,/23-14-18-ross-street-waverton-nsw-2060-2017671130,5424857,is-sold,Sold prior to auction 08 Apr 2022,20220408,23/14-18 Ross Street,WAVERTON,NSW,2060,-33.8383026,151.194687,3,3,3,House,House,False,0,m2,False
2017684415,listing,/7-24-crows-nest-road-waverton-nsw-2060-2017684415,1660000,is-sold,Sold by private treaty 07 Apr 2022,20220407,7/24 Crows Nest Road,WAVERTON,NSW,2060,-33.8349953,151.199814,2,2,2,ApartmentUnitFlat,Apartment / Unit / Flat,False,0,m2,False
2017687729,listing,/27-whatmore-street-waverton-nsw-2060-2017687729,3225000,is-sold,Sold prior to auction 11 Apr 2022,20220411,27 Whatmore Street,WAVERTON,NSW,2060,-33.8373756,151.195175,3,3,3,House,House,False,0,m2,False
2017687922,listing,/2002-211-223-pacific-highway-north-sydney-nsw-2060-2017687922,3300000,is-sold,Sold by private treaty 04 Apr 2022,20220404,2002/211-223 Pacific Highway,NORTH SYDNEY,NSW,2060,-33.83577,151.205673,3,3,3,ApartmentUnitFlat,Apartment / Unit / Flat,False,0,m2,False
2017698338,listing,/9-144-high-street-north-sydney-nsw-2060-2017698338,2380000,is-sold,Sold at auction 13 Apr 2022,20220413,9/144 High Street,NORTH SYDNEY,NSW,2060,-33.8444557,151.217911,2,2,2,ApartmentUnitFlat,Apartment / Unit / Flat,False,0,m2,False
2017864116,listing,/7-24-crows-nest-road-waverton-nsw-2060-2017864116,1660000,is-sold,Sold by private treaty 07 Apr 2022,20220407,7/24 Crows Nest Road,WAVERTON,NSW,2060,-33.835,151.199814,2,2,2,ApartmentUnitFlat,Apartment / Unit / Flat,False,0,m2,False
2017402853,listing,/14-18-22-west-crescent-street-mcmahons-point-nsw-2060-2017402853,3700000,is-sold,Sold at auction 29 Mar 2022,20220329,14/18-22 West Crescent Street,MCMAHONS POINT,NSW,2060,-33.84641,151.202621,3,3,3,ApartmentUnitFlat,Apartment / Unit / Flat,False,0,m2,False
2017416515,listing,/150-pacific-highway-north-sydney-nsw-2060-2017416515,,is-sold,Sold by private treaty 26 Mar 2022,20220326,150 Pacific Highway,NORTH SYDNEY,NSW,2060,-33.8365936,151.20546,2,2,2,ApartmentUnitFlat,Apartment / Unit / Flat,False,93,m2,False
2017561256,listing,/47-bank-street-mcmahons-point-nsw-2060-2017561256,3350000,is-sold,Sold at auction 26 Mar 2022,20220326,47 Bank Street,MCMAHONS POINT,NSW,2060,-33.8391876,151.202225,3,3,3,SemiDetached,Semi-Detached,False,0,m2,False
2017565399,listing,/4-21-east-crescent-street-mcmahons-point-nsw-2060-2017565399,1200000,is-sold,Sold by private treaty 28 Mar 2022,20220328,4/21 East Crescent Street,MCMAHONS POINT,NSW,2060,-33.8470459,151.205475,2,2,2,ApartmentUnitFlat,Apartment / Unit / Flat,False,0,m2,False
2017570718,listing,/150-pacific-highway-north-sydney-nsw-2060-2017570718,,is-sold,Sold by private treaty 28 Mar 2022,20220328,150 Pacific Highway,NORTH SYDNEY,NSW,2060,-33.8365936,151.20546,2,2,2,ApartmentUnitFlat,Apartment / Unit / Flat,False,93,m2,False
2017581661,listing,/1403-221-miller-street-north-sydney-nsw-2060-2017581661,1400000,is-sold,Sold by private treaty 26 Mar 2022,20220326,1403/221 Miller Street,NORTH SYDNEY,NSW,2060,-33.8357849,151.208176,2,2,2,ApartmentUnitFlat,Apartment / Unit / Flat,False,0,m2,False
2017582310,listing,/17-bay-view-street-mcmahons-point-nsw-2060-2017582310,6000000,is-sold,Sold by private treaty 28 Mar 2022,20220328,17 Bay View Street,MCMAHONS POINT,NSW,2060,-33.845192,151.206284,3,3,3,House,House,False,0,m2,False
2017586831,listing,/301-35-myrtle-street-north-sydney-nsw-2060-2017586831,5500000,is-sold,Sold by private treaty 18 Mar 2022,20220318,301/35 Myrtle Street,NORTH SYDNEY,NSW,2060,-33.8313141,151.205215,3,3,3,ApartmentUnitFlat,Apartment / Unit / Flat,False,0,m2,False
2017603735,listing,/7-18-carr-street-waverton-nsw-2060-2017603735,730000,is-sold,Sold by private treaty 25 Mar 2022,20220325,7/18 Carr Street,WAVERTON,NSW,2060,-33.8381577,151.19873,1,1,1,ApartmentUnitFlat,Apartment / Unit / Flat,False,52,m2,False
2017612312,listing,/38-90-blues-point-road-mcmahons-point-nsw-2060-2017612312,1010000,is-sold,Sold prior to auction 17 Mar 2022,20220317,38/90 Blues Point Road,MCMAHONS POINT,NSW,2060,-33.84638,151.2038,1,1,1,ApartmentUnitFlat,Apartment / Unit / Flat,False,0,m2,False
2017617971,listing,/22-29-east-crescent-street-mcmahons-point-nsw-2060-2017617971,830000,is-sold,Sold by private treaty 27 Mar 2022,20220327,22/29 East Crescent Street,MCMAHONS POINT,NSW,2060,-33.84659,151.205566,1,1,1,ApartmentUnitFlat,Apartment / Unit / Flat,False,0,m2,False
2017619283,listing,/1-30-crows-nest-road-waverton-nsw-2060-2017619283,1645000,is-sold,Sold at auction 19 Mar 2022,20220319,1/30 Crows Nest Road,WAVERTON,NSW,2060,-33.8345642,151.2004,2,2,2,ApartmentUnitFlat,Apartment / Unit / Flat,False,0,m2,False
2017619389,listing,/3-12-berry-street-north-sydney-nsw-2060-2017619389,,is-sold,Sold prior to auction 18 Mar 2022,20220318,3/12 Berry Street,NORTH SYDNEY,NSW,2060,-33.83645,151.204941,1,1,1,ApartmentUnitFlat,Apartment / Unit / Flat,False,0,m2,False
2017619757,listing,/8-39-king-street-waverton-nsw-2060-2017619757,1320000,is-sold,Sold at auction 18 Mar 2022,20220318,8/39 King Street,WAVERTON,NSW,2060,-33.8356476,151.198288,2,2,2,ApartmentUnitFlat,Apartment / Unit / Flat,False,106,m2,False
2017639243,listing,/13-neutral-street-north-sydney-nsw-2060-2017639243,2600000,is-sold,Sold at auction 28 Mar 2022,20220328,13 Neutral Street,NORTH SYDNEY,NSW,2060,-33.84016,151.212646,3,3,3,House,House,False,0,m2,False
2017649590,listing,/6-toongarah-road-waverton-nsw-2060-2017649590,4590000,is-sold,Sold at auction 28 Mar 2022,20220328,6 Toongarah Road,WAVERTON,NSW,2060,-33.8374138,151.2015,4,4,4,House,House,False,557,m2,False
2017652259,listing,/3-28-east-crescent-street-mcmahons-point-nsw-2060-2017652259,2278000,is-sold,Sold at auction 23 Mar 2022,20220323,3/28 East Crescent Street,MCMAHONS POINT,NSW,2060,-33.84619,151.204758,2,2,2,ApartmentUnitFlat,Apartment / Unit / Flat,False,188,m2,False
2017654543,listing,/1-14-18-ross-street-waverton-nsw-2060-2017654543,3675000,is-sold,Sold prior to auction 25 Mar 2022,20220325,1/14-18 Ross Street,WAVERTON,NSW,2060,-33.8383026,151.194687,3,3,3,ApartmentUnitFlat,Apartment / Unit / Flat,False,0,m2,False
2017665337,listing,/1001-231-miller-street-north-sydney-nsw-2060-2017665337,1400000,is-sold,Sold by private treaty 28 Mar 2022,20220328,1001/231 Miller Street,NORTH SYDNEY,NSW,2060,-33.83532,151.208038,2,2,2,ApartmentUnitFlat,Apartment / Unit / Flat,False,0,m2,False
2017683461,listing,/1510-150-pacific-highway-north-sydney-nsw-2060-2017683461,1850000,is-sold,Sold by private treaty 23 Mar 2022,20220323,1510/150 Pacific Highway,NORTH SYDNEY,NSW,2060,-33.8363876,151.205368,2,2,2,ApartmentUnitFlat,Apartment / Unit / Flat,False,0,m2,False
2017521704,listing,/3-32-high-street-north-sydney-nsw-2060-2017521704,850000,is-sold,Sold by private treaty 04 Mar 2022,20220304,3/32 High Street,NORTH SYDNEY,NSW,2060,-33.84171,151.212433,2,2,2,ApartmentUnitFlat,Apartment / Unit / Flat,False,0,m2,False
2017559349,listing,/11-18-carr-street-waverton-nsw-2060-2017559349,1545000,is-sold,Sold by private treaty 11 Mar 2022,20220311,11/18 Carr Street,WAVERTON,NSW,2060,-33.8381577,151.19873,4,4,4,ApartmentUnitFlat,Apartment / Unit / Flat,False,0,m2,False
2017577193,listing,/18-166-pacific-highway-north-sydney-nsw-2060-2017577193,745000,is-sold,Sold prior to auction 10 Mar 2022,20220310,18/166 Pacific Highway,NORTH SYDNEY,NSW,2060,-33.83578,151.205048,1,1,1,ApartmentUnitFlat,Apartment / Unit / Flat,False,0,m2,False
2017578978,listing,/59-west-street-north-sydney-nsw-2060-2017578978,3890000,is-sold,Sold prior to auction 08 Mar 2022,20220308,59 West Street,NORTH SYDNEY,NSW,2060,-33.83098,151.206223,3,3,3,House,House,False,488,m2,False
2017582567,listing,/55-euroka-street-waverton-nsw-2060-2017582567,2850000,is-sold,Sold at auction 08 Mar 2022,20220308,55 Euroka Street,WAVERTON,NSW,2060,-33.8390732,151.201111,4,4,4,House,House,False,230,m2,False
2017583685,listing,/502-231-miller-street-north-sydney-nsw-2060-2017583685,765000,is-sold,Sold by private treaty 02 Mar 2022,20220302,502/231 Miller Street,NORTH SYDNEY,NSW,2060,-33.83532,151.207932,1,1,1,ApartmentUnitFlat,Apartment / Unit / Flat,False,57,m2,False
2017584340,listing,/82-106-high-street-north-sydney-nsw-2060-2017584340,1030000,is-sold,Sold at auction 12 Mar 2022,20220312,82/106 High Street,NORTH SYDNEY,NSW,2060,-33.84339,151.2156,1,1,1,ApartmentUnitFlat,Apartment / Unit / Flat,False,0,m2,False
2017587198,listing,/5-15-east-crescent-st-mcmahons-point-nsw-2060-2017587198,850000,is-sold,Sold at auction 05 Mar 2022,20220305,5/15 East Crescent St,MCMAHONS POINT,NSW,2060,-33.8475037,151.205215,1,1,1,ApartmentUnitFlat,Apartment / Unit / Flat,False,0,m2,False
2017599532,listing,/42-edward-street-north-sydney-nsw-2060-2017599532,4500000,is-sold,Sold at auction 12 Mar 2022,20220312,42 Edward Street,NORTH SYDNEY,NSW,2060,-33.8369675,151.203537,5,5,5,House,House,False,0,m2,False
2017602067,listing,/6-48-high-street-north-sydney-nsw-2060-2017602067,610000,is-sold,Sold by private treaty 02 Mar 2022,20220302,6/48 High Street,NORTH SYDNEY,NSW,2060,-33.8418427,151.213135,1,1,1,ApartmentUnitFlat,Apartment / Unit / Flat,False,0,m2,False
2017602068,listing,/17-8-munro-street-mcmahons-point-nsw-2060-2017602068,2050000,is-sold,Sold at auction 12 Mar 2022,20220312,17/8 Munro Street,MCMAHONS POINT,NSW,2060,-33.84449,151.200439,2,2,2,ApartmentUnitFlat,Apartment / Unit / Flat,False,0,m2,False
2017603229,listing,/314-miller-street-north-sydney-nsw-2060-2017603229,4130000,is-sold,Sold by private treaty 08 Mar 2022,20220308,314 Miller Street,NORTH SYDNEY,NSW,2060,-33.8297844,151.208389,4,4,4,Terrace,Terrace,False,256,m2,False
2017606451,listing,/20-margaret-street-north-sydney-nsw-2060-2017606451,2095000,is-sold,Sold at auction 12 Mar 2022,20220312,20 Margaret Street,NORTH SYDNEY,NSW,2060,-33.84015,151.213791,2,2,2,House,House,False,139,m2,False
2017618738,listing,/46-237-miller-street-north-sydney-nsw-2060-2017618738,1891500,is-sold,Sold prior to auction 04 Mar 2022,20220304,46/237 Miller Street,NORTH SYDNEY,NSW,2060,-33.83515,151.208038,3,3,3,ApartmentUnitFlat,Apartment / Unit / Flat,False,0,m2,False
2017619159,listing,/72-21-east-crescent-street-mcmahons-point-nsw-2060-2017619159,1820000,is-sold,Sold by private treaty 09 Mar 2022,20220309,72/21 East Crescent Street,MCMAHONS POINT,NSW,2060,-33.84707,151.20546,2,2,2,ApartmentUnitFlat,Apartment / Unit / Flat,False,0,m2,False
2017619839,listing,/1-19-lavender-street-lavender-bay-nsw-2060-2017619839,10000000,is-sold,Sold prior to auction 11 Mar 2022,20220311,1/19 Lavender Street,LAVENDER BAY,NSW,2060,-33.84299,151.2065,5,5,5,House,House,False,0,m2,False
2017628151,listing,/211-225-pacific-highway-north-sydney-nsw-2060-2017628151,670000,is-sold,Sold prior to auction 10 Mar 2022,20220310,211/225 Pacific Highway,NORTH SYDNEY,NSW,2060,-33.8355026,151.20549,1,1,1,ApartmentUnitFlat,Apartment / Unit / Flat,False,0,m2,False
2017647506,listing,/1015-221-miller-street-north-sydney-nsw-2060-2017647506,1300000,is-sold,Sold prior to auction 11 Mar 2022,20220311,1015/221 Miller Street,NORTH SYDNEY,NSW,2060,-33.8357849,151.208176,2,2,2,ApartmentUnitFlat,Apartment / Unit / Flat,False,0,m2,False
2017864105,listing,/6-48-high-street-north-sydney-nsw-2060-2017864105,610000,is-sold,Sold by private treaty 02 Mar 2022,20220302,6/48 High Street,NORTH SYDNEY,NSW,2060,-33.841835,151.213135,1,1,1,ApartmentUnitFlat,Apartment / Unit / Flat,False,0,m2,False
2017864106,listing,/17-8-munro-street-mcmahons-point-nsw-2060-2017864106,2050000,is-sold,Sold at auction 12 Mar 2022,20220312,17/8 Munro Street,MCMAHONS POINT,NSW,2060,-33.84449,151.200439,2,2,2,ApartmentUnitFlat,Apartment / Unit / Flat,False,0,m2,False
2017534932,listing,/2-16-hampden-street-north-sydney-nsw-2060-2017534932,1200000,is-sold,Sold by private treaty 24 Feb 2022,20220224,2/16 Hampden Street,NORTH SYDNEY,NSW,2060,-33.8354149,151.210327,2,2,2,ApartmentUnitFlat,Apartment / Unit / Flat,False,0,m2,False
2017535005,listing,/910-22-doris-street-north-sydney-nsw-2060-2017535005,460000,is-sold,Sold prior to auction 25 Feb 2022,20220225,910/22 Doris Street,NORTH SYDNEY,NSW,2060,-33.83939,151.213,,1.0,1.0,ApartmentUnitFlat,Apartment / Unit / Flat,False,0,m2,False
2017539817,listing,/507-88-berry-north-sydney-nsw-2060-2017539817,840000,is-sold,Sold by private treaty 22 Feb 2022,20220222,507/88 Berry,NORTH SYDNEY,NSW,2060,-33.8366356,151.21,1,1,1,ApartmentUnitFlat,Apartment / Unit / Flat,False,0,m2,False
2017545400,listing,/1-18-mckye-street-waverton-nsw-2060-2017545400,1380000,is-sold,Sold prior to auction 15 Feb 2022,20220215,1/18 Mckye Street,WAVERTON,NSW,2060,-33.8360519,151.198,2,2,2,ApartmentUnitFlat,Apartment / Unit / Flat,False,0,m2,False
2017548546,listing,/301-3-east-crescent-street-mcmahons-point-nsw-2060-2017548546,6350000,is-sold,Sold by private treaty 25 Feb 2022,20220225,301/3 East Crescent Street,MCMAHONS POINT,NSW,2060,-33.84816,151.2053,3,3,3,ApartmentUnitFlat,Apartment / Unit / Flat,False,0,m2,False
2017551152,listing,/207-13-eden-street-north-sydney-nsw-2060-2017551152,1464500,is-sold,Sold prior to auction 26 Feb 2022,20220226,207/13 Eden Street,NORTH SYDNEY,NSW,2060,-33.8314629,151.204926,2,2,2,ApartmentUnitFlat,Apartment / Unit / Flat,False,0,m2,False
2017552431,listing,/13-263-269-alfred-street-north-enter-via-whaling-road-north-sydney-nsw-2060-2017552431,2475000,is-sold,Sold prior to auction 02 Mar 2022,20220302,13/263-269 Alfred Street North (Enter via Whaling Road),NORTH SYDNEY,NSW,2060,-33.8404121,151.211349,3,3,3,Townhouse,Townhouse,False,0,m2,False
2017553138,listing,/3-king-george-street-mcmahons-point-nsw-2060-2017553138,3760000,is-sold,Sold by private treaty 23 Feb 2022,20220223,3 King George Street,MCMAHONS POINT,NSW,2060,-33.8442268,151.205017,3,3,3,Terrace,Terrace,False,0,m2,False
2017564892,listing,/28-victoria-street-mcmahons-point-nsw-2060-2017564892,3380000,is-sold,Sold prior to auction 17 Feb 2022,20220217,28 Victoria Street,MCMAHONS POINT,NSW,2060,-33.8434372,151.202545,2,2,2,House,House,False,278,m2,False
2017565062,listing,/122-bay-road-waverton-nsw-2060-2017565062,6220000,is-sold,Sold prior to auction 21 Feb 2022,20220221,122 Bay Road,WAVERTON,NSW,2060,-33.8387451,151.195923,5,5,5,House,House,False,683,m2,False
2017565681,listing,/704-54-high-street-north-sydney-nsw-2060-2017565681,500000,is-sold,Sold at auction 26 Feb 2022,20220226,704/54 High Street,NORTH SYDNEY,NSW,2060,-33.84227,151.213974,,1.0,1.0,ApartmentUnitFlat,Apartment / Unit / Flat,False,0,m2,False
2017566263,listing,/1712-221-miller-street-north-sydney-nsw-2060-2017566263,1500000,is-sold,Sold by private treaty 01 Mar 2022,20220301,1712/221 Miller Street,NORTH SYDNEY,NSW,2060,-33.8357964,151.208145,2,2,2,ApartmentUnitFlat,Apartment / Unit / Flat,False,0,m2,False
2017568252,listing,/4-webb-street-mcmahons-point-nsw-2060-2017568252,4170000,is-sold,Sold prior to auction 23 Feb 2022,20220223,4 Webb Street,MCMAHONS POINT,NSW,2060,-33.8433151,151.202255,3,3,3,House,House,False,0,m2,False
2017572789,listing,/7-22-mackenzie-street-lavender-bay-nsw-2060-2017572789,7750000,is-sold,Sold prior to auction 25 Feb 2022,20220225,7/22 Mackenzie Street,LAVENDER BAY,NSW,2060,-33.8421021,151.208,4,4,4,Terrace,Terrace,False,0,m2,False
2017583636,listing,/304-229-miller-street-north-sydney-nsw-2060-2017583636,1375000,is-sold,Sold prior to auction 21 Feb 2022,20220221,304/229 Miller Street,NORTH SYDNEY,NSW,2060,-33.83566,151.208313,2,2,2,ApartmentUnitFlat,Apartment / Unit / Flat,False,103,m2,False
2017584190,listing,/402-39-mclaren-street-north-sydney-nsw-2060-2017584190,2100000,is-sold,Sold prior to auction 25 Feb 2022,20220225,402/39 McLaren Street,NORTH SYDNEY,NSW,2060,-33.8352242,151.208282,3,3,3,ApartmentUnitFlat,Apartment / Unit / Flat,False,0,m2,False
2017585827,listing,/2-76-bay-road-waverton-nsw-2060-2017585827,2250000,is-sold,Sold at auction 02 Mar 2022,20220302,2/76 Bay Road,WAVERTON,NSW,2060,-33.8372841,151.2,3,3,3,ApartmentUnitFlat,Apartment / Unit / Flat,False,0,m2,False
2017599219,listing,/307-1a-eden-st-north-sydney-nsw-2060-2017599219,765000,is-sold,Sold prior to auction 01 Mar 2022,20220301,307/1A Eden St,NORTH SYDNEY,NSW,2060,-33.8319321,151.204742,1,1,1,ApartmentUnitFlat,Apartment / Unit / Flat,False,0,m2,False
2017631169,listing,/604-54-high-street-north-sydney-nsw-2060-2017631169,555000,is-sold,Sold by private treaty 22 Feb 2022,20220222,604/54 High Street,NORTH SYDNEY,NSW,2060,-33.84227,151.213974,1,1,1,ApartmentUnitFlat,Apartment / Unit / Flat,False,0,m2,False
2017344040,listing,/31-95a-ridge-street-north-sydney-nsw-2060-2017344040,1950000,is-sold,Sold by private treaty 03 Feb 2022,20220203,31/95A Ridge Street,NORTH SYDNEY,NSW,2060,-33.8341141,151.210754,3,3,3,ApartmentUnitFlat,Apartment / Unit / Flat,False,0,m2,False
2017387868,listing,/8-316-miller-street-north-sydney-nsw-2060-2017387868,600000,is-sold,Sold by private treaty 28 Jan 2022,20220128,8/316 Miller Street,NORTH SYDNEY,NSW,2060,-33.8296471,151.208389,1,1,1,ApartmentUnitFlat,Apartment / Unit / Flat,False,57,m2,False
2017416026,listing,/20-12-16-berry-street-north-sydney-nsw-2060-2017416026,,is-sold,Sold at auction 12 Feb 2022,20220212,20/12-16 Berry Street,NORTH SYDNEY,NSW,2060,-33.8364944,151.204956,2,2,2,ApartmentUnitFlat,Apartment / Unit / Flat,False,0,m2,False
2017458087,listing,/1908-138-walker-street-north-sydney-nsw-2060-2017458087,965000,is-sold,Sold by private treaty 29 Jan 2022,20220129,1908/138 Walker Street,NORTH SYDNEY,NSW,2060,-33.83621,151.209061,1,1,1,ApartmentUnitFlat,Apartment / Unit / Flat,False,0,m2,False
2017512848,listing,/710-211-pacific-highway-north-sydney-nsw-2060-2017512848,1020000,is-sold,Sold prior to auction 27 Jan 2022,20220127,710/211 Pacific Highway,NORTH SYDNEY,NSW,2060,-33.8360634,151.2059,1,1,1,ApartmentUnitFlat,Apartment / Unit / Flat,False,70,m2,False
2017513051,listing,/1-46-clark-road-north-sydney-nsw-2060-2017513051,1045000,is-sold,Sold prior to auction 11 Feb 2022,20220211,1/46 Clark Road,NORTH SYDNEY,NSW,2060,-33.839653,151.213776,2,2,2,ApartmentUnitFlat,Apartment / Unit / Flat,False,0,m2,False
2017518283,listing,/5-45-union-street-mcmahons-point-nsw-2060-2017518283,1300000,is-sold,Sold at auction 21 Jan 2022,20220121,5/45 Union Street,MCMAHONS POINT,NSW,2060,-33.8413467,151.201218,2,2,2,ApartmentUnitFlat,Apartment / Unit / Flat,False,0,m2,False
2017519286,listing,/908-22-doris-street-north-sydney-nsw-2060-2017519286,460000,is-sold,Sold by private treaty 28 Jan 2022,20220128,908/22 Doris Street,NORTH SYDNEY,NSW,2060,-33.83939,151.213,,1.0,1.0,Studio,Studio,False,0,m2,False
2017519879,listing,/1d-50-whaling-road-north-sydney-nsw-2060-2017519879,1130000,is-sold,Sold at auction 05 Feb 2022,20220205,1D/50 Whaling Road,NORTH SYDNEY,NSW,2060,-33.84166,151.2141,2,2,2,ApartmentUnitFlat,Apartment / Unit / Flat,False,0,m2,False
2017520469,listing,/5-24-crows-nest-road-waverton-nsw-2060-2017520469,1442000,is-sold,Sold at auction 05 Feb 2022,20220205,5/24 Crows Nest Road,WAVERTON,NSW,2060,-33.8349953,151.199814,2,2,2,ApartmentUnitFlat,Apartment / Unit / Flat,False,0,m2,False
2017521492,listing,/41-king-street-waverton-nsw-2060-2017521492,2750000,is-sold,Sold at auction 05 Feb 2022,20220205,41 King Street,WAVERTON,NSW,2060,-33.83523,151.199,4,4,4,Townhouse,Townhouse,False,0,m2,False
2017535722,listing,/43-2a-henry-lawson-avenue-mcmahons-point-nsw-2060-2017535722,2300000,is-sold,Sold prior to auction 11 Feb 2022,20220211,43/2A Henry Lawson Avenue,MCMAHONS POINT,NSW,2060,-33.848526,151.20546,2,2,2,ApartmentUnitFlat,Apartment / Unit / Flat,False,0,m2,False
2017535911,listing,/21-clifton-street-waverton-nsw-2060-2017535911,2260000,is-sold,Sold prior to auction 09 Feb 2022,20220209,21 Clifton Street,WAVERTON,NSW,2060,-33.8391457,151.20047,2,2,2,House,House,False,0,m2,False
2017555044,listing,/10-32-40-lavender-street-lavender-bay-nsw-2060-2017555044,1630000,is-sold,Sold by private treaty 10 Feb 2022,20220210,10/32-40 Lavender Street,LAVENDER BAY,NSW,2060,-33.8429146,151.208984,2,2,2,ApartmentUnitFlat,Apartment / Unit / Flat,False,0,m2,False
2017565978,listing,/25-tunks-street-waverton-nsw-2060-2017565978,,is-sold,Sold prior to auction 15 Feb 2022,20220215,25 Tunks Street,WAVERTON,NSW,2060,-33.836853,151.196671,4,4,4,House,House,False,430,m2,False
2017567404,listing,/1206-211-pacific-highway-north-sydney-nsw-2060-2017567404,1100000,is-sold,Sold by private treaty 07 Feb 2022,20220207,1206/211 Pacific Highway,NORTH SYDNEY,NSW,2060,-33.8360634,151.2059,1,1,1,ApartmentUnitFlat,Apartment / Unit / Flat,False,0,m2,False
2017672899,listing,/3-27a-bay-road-waverton-nsw-2060-2017672899,1480000,is-sold,Sold prior to auction 08 Feb 2022,20220208,3/27A Bay Road,WAVERTON,NSW,2060,-33.835743,151.2009,2,2,2,ApartmentUnitFlat,Apartment / Unit / Flat,False,0,m2,False
2017864101,listing,/41-king-street-waverton-nsw-2060-2017864101,2750000,is-sold,Sold at auction 05 Feb 2022,20220205,41 King Street,WAVERTON,NSW,2060,-33.835228,151.199,4,4,4,Townhouse,Townhouse,False,0,m2,False
2017864103,listing,/5-24-crows-nest-road-waverton-nsw-2060-2017864103,1442000,is-sold,Sold at auction 05 Feb 2022,20220205,5/24 Crows Nest Road,WAVERTON,NSW,2060,-33.835,151.199814,2,2,2,ApartmentUnitFlat,Apartment / Unit / Flat,False,0,m2,False
2017960585,listing,/1d-50-whaling-road-north-sydney-nsw-2060-2017960585,1130000,is-sold,Sold at auction 05 Feb 2022,20220205,1D/50 Whaling Road,NORTH SYDNEY,NSW,2060,-33.84166,151.2141,2,2,2,ApartmentUnitFlat,Apartment / Unit / Flat,False,0,m2,False
2017151988,listing,/32-174-180-pacific-highway-north-sydney-nsw-2060-2017151988,758000,is-sold,Sold by private treaty 30 Dec 2021,20211230,32/174-180 Pacific Highway,NORTH SYDNEY,NSW,2060,-33.8354073,151.204834,1,1,1,ApartmentUnitFlat,Apartment / Unit / Flat,False,0,m2,False
2017259632,listing,/3-commodore-crescent-mcmahons-point-nsw-2060-2017259632,7775000,is-sold,Sold by private treaty 14 Dec 2021,20211214,3 Commodore Crescent,MCMAHONS POINT,NSW,2060,-33.8411942,151.19989,4,4,4,House,House,False,594,m2,False
2017361713,listing,/6-30-crows-nest-road-waverton-nsw-2060-2017361713,1150000,is-sold,Sold prior to auction 22 Dec 2021,20211222,6/30 Crows Nest Road,WAVERTON,NSW,2060,-33.8345642,151.2004,2,2,2,ApartmentUnitFlat,Apartment / Unit / Flat,False,0,m2,False
2017366979,listing,/1003-93-95-pacific-highway-north-sydney-nsw-2060-2017366979,520000,is-sold,Sold by private treaty 15 Dec 2021,20211215,1003/93-95 Pacific Highway,NORTH SYDNEY,NSW,2060,-33.8350143,151.2051,1,1,1,ApartmentUnitFlat,Apartment / Unit / Flat,False,0,m2,False
2017374749,listing,/115-blues-point-road-mcmahons-point-nsw-2060-2017374749,6075000,is-sold,Sold by private treaty 12 Jan 2022,20220112,115 Blues Point Road,MCMAHONS POINT,NSW,2060,-33.84483,151.2044,5,5,5,House,House,False,221,m2,False
2017391566,listing,/1-king-george-street-mcmahons-point-nsw-2060-2017391566,5000000,is-sold,Sold prior to auction 16 Dec 2021,20211216,1 King George Street,MCMAHONS POINT,NSW,2060,-33.84429,151.20488,4,4,4,House,House,False,288,m2,False
2017399103,listing,/12-14-east-crescent-street-mcmahons-point-nsw-2060-2017399103,1455000,is-sold,Sold at auction 11 Dec 2021,20211211,12/14 East Crescent Street,MCMAHONS POINT,NSW,2060,-33.8471146,151.204758,2,2,2,ApartmentUnitFlat,Apartment / Unit / Flat,False,0,m2,False
2017399793,listing,/1806-150-pacific-highway-north-sydney-nsw-2060-2017399793,925000,is-sold,Sold by private treaty 17 Dec 2021,20211217,1806/150 Pacific Highway,NORTH SYDNEY,NSW,2060,-33.8365936,151.20546,1,1,1,ApartmentUnitFlat,Apartment / Unit / Flat,False,0,m2,False
2017422794,listing,/99-bay-road-waverton-nsw-2060-2017422794,3500000,is-sold,Sold by private treaty 21 Jan 2022,20220121,99 Bay Road,WAVERTON,NSW,2060,-33.8384247,151.195572,4,4,4,House,House,False,0,m2,False
2017422979,listing,/2-169-high-street-north-sydney-nsw-2060-2017422979,2040000,is-sold,Sold at auction 16 Dec 2021,20211216,2/169 High Street,NORTH SYDNEY,NSW,2060,-33.8448563,151.217285,2,2,2,ApartmentUnitFlat,Apartment / Unit / Flat,False,0,m2,False
2017424906,listing,/8-18-22-west-crescent-street-mcmahons-point-nsw-2060-2017424906,5150000,is-sold,Sold prior to auction 10 Dec 2021,20211210,8/18-22 West Crescent Street,MCMAHONS POINT,NSW,2060,-33.8464279,151.202621,3,3,3,ApartmentUnitFlat,Apartment / Unit / Flat,False,0,m2,False
2017425841,listing,/12-19-priory-road-waverton-nsw-2060-2017425841,1000000,is-sold,Sold by private treaty 27 Dec 2021,20211227,12/19 Priory Road,WAVERTON,NSW,2060,-33.8370056,151.203079,2,2,2,ApartmentUnitFlat,Apartment / Unit / Flat,False,0,m2,False
2017431826,listing,/38-7-17-berry-street-north-sydney-nsw-2060-2017431826,1860000,is-sold,Sold at auction 11 Dec 2021,20211211,38/7-17 Berry Street,NORTH SYDNEY,NSW,2060,-33.8372459,151.2046,2,2,2,ApartmentUnitFlat,Apartment / Unit / Flat,False,0,m2,False
2017436051,listing,/5-14-mckye-street-waverton-nsw-2060-2017436051,772000,is-sold,Sold by private treaty 22 Dec 2021,20211222,5/14 McKye Street,WAVERTON,NSW,2060,-33.83625,151.19754,1,1,1,ApartmentUnitFlat,Apartment / Unit / Flat,False,0,m2,False
2017459372,listing,/607-138-walker-street-north-sydney-nsw-2060-2017459372,725000,is-sold,Sold prior to auction 17 Dec 2021,20211217,607/138 Walker Street,NORTH SYDNEY,NSW,2060,-33.83621,151.209061,1,1,1,ApartmentUnitFlat,Apartment / Unit / Flat,False,74,m2,False
2017462940,listing,/1106-138-walker-street-north-sydney-nsw-2060-2017462940,732000,is-sold,Sold by private treaty 16 Dec 2021,20211216,1106/138 Walker Street,NORTH SYDNEY,NSW,2060,-33.83621,151.209061,1,1,1,ApartmentUnitFlat,Apartment / Unit / Flat,False,0,m2,False
2017466147,listing,/2b-50-whaling-road-north-sydney-nsw-2060-2017466147,2150000,is-sold,Sold at auction 17 Dec 2021,20211217,2B/50 Whaling Road,NORTH SYDNEY,NSW,2060,-33.84166,151.2141,3,3,3,ApartmentUnitFlat,Apartment / Unit / Flat,False,0,m2,False
2017477732,listing,/1608-221-miller-street-north-sydney-nsw-2060-2017477732,1760000,is-sold,Sold prior to auction 12 Jan 2022,20220112,1608/221 Miller Street,NORTH SYDNEY,NSW,2060,-33.8357964,151.208145,4,4,4,ApartmentUnitFlat,Apartment / Unit / Flat,False,0,m2,False
2017492735,listing,/2705-79-81-berry-street-north-sydney-nsw-2060-2017492735,945000,is-sold,Sold by private treaty 20 Jan 2022,20220120,2705/79-81 Berry Street,NORTH SYDNEY,NSW,2060,-33.83747,151.208344,1,1,1,ApartmentUnitFlat,Apartment / Unit / Flat,False,0,m2,False
2017864097,listing,/5-14-mckye-street-waverton-nsw-2060-2017864097,772000,is-sold,Sold by private treaty 22 Dec 2021,20211222,5/14 McKye Street,WAVERTON,NSW,2060,-33.83625,151.19754,1,1,1,ApartmentUnitFlat,Apartment / Unit / Flat,False,0,m2,False
2016798512,listing,/1003-93-pacific-highway-north-sydney-nsw-2060-2016798512,520000,is-sold,Sold by private treaty 08 Dec 2021,20211208,1003/93 Pacific Highway,NORTH SYDNEY,NSW,2060,-33.8407059,151.209015,1,1,1,ApartmentUnitFlat,Apartment / Unit / Flat,False,0,m2,False
2017325226,listing,/124-blues-point-road-mcmahons-point-nsw-2060-2017325226,3200000,is-sold,Sold prior to auction 07 Dec 2021,20211207,124 Blues Point Road,MCMAHONS POINT,NSW,2060,-33.8453026,151.203827,4,4,4,House,House,False,209,m2,False
2017344639,listing,/3401-79-81-berry-street-north-sydney-nsw-2060-2017344639,4400000,is-sold,Sold by private treaty 26 Nov 2021,20211126,3401/79-81 Berry Street,NORTH SYDNEY,NSW,2060,-33.83747,151.208344,4,4,4,ApartmentUnitFlat,Apartment / Unit / Flat,False,0,m2,False
2017354017,listing,/904-79-81-berry-street-north-sydney-nsw-2060-2017354017,520000,is-sold,Sold prior to auction 30 Nov 2021,20211130,904/79-81 Berry Street,NORTH SYDNEY,NSW,2060,-33.83747,151.208344,,1.0,,ApartmentUnitFlat,Apartment / Unit / Flat,False,0,m2,False
2017360021,listing,/701-150-walker-street-north-sydney-nsw-2060-2017360021,2650000,is-sold,Sold by private treaty 29 Nov 2021,20211129,701/150 Walker Street,NORTH SYDNEY,NSW,2060,-33.8358269,151.209167,3,3,3,ApartmentUnitFlat,Apartment / Unit / Flat,False,0,m2,False
2017383375,listing,/g09-28-west-street-north-sydney-nsw-2060-2017383375,,is-sold,Sold prior to auction 10 Dec 2021,20211210,G09/28 West Street,NORTH SYDNEY,NSW,2060,-33.8325958,151.205368,2,2,2,ApartmentUnitFlat,Apartment / Unit / Flat,False,0,m2,False
2017385825,listing,/9-161-blues-point-road-mcmahons-point-nsw-2060-2017385825,1180000,is-sold,Sold at auction 25 Nov 2021,20211125,9/161 Blues Point Road,MCMAHONS POINT,NSW,2060,-33.8434,151.205048,2,2,2,ApartmentUnitFlat,Apartment / Unit / Flat,False,0,m2,False
2017398659,listing,/12-18-carr-street-waverton-nsw-2060-2017398659,1300000,is-sold,Sold at auction 08 Dec 2021,20211208,12/18 Carr Street,WAVERTON,NSW,2060,-33.8381577,151.19873,2,2,2,ApartmentUnitFlat,Apartment / Unit / Flat,False,0,m2,False
2017399154,listing,/307-22-doris-street-north-sydney-nsw-2060-2017399154,621000,is-sold,Sold by private treaty 06 Dec 2021,20211206,307/22 Doris Street,NORTH SYDNEY,NSW,2060,-33.83939,151.213,1,1,1,ApartmentUnitFlat,Apartment / Unit / Flat,False,0,m2,False
2017402601,listing,/105-2-10-mount-street-north-sydney-nsw-2060-2017402601,1250000,is-sold,Sold by private treaty 09 Dec 2021,20211209,105/2-10 Mount Street,NORTH SYDNEY,NSW,2060,-33.8382835,151.204758,2,2,2,ApartmentUnitFlat,Apartment / Unit / Flat,False,0,m2,False
2017404990,listing,/14-20-crows-nest-road-waverton-nsw-2060-2017404990,1460000,is-sold,Sold at auction 04 Dec 2021,20211204,14/20 Crows Nest Road,WAVERTON,NSW,2060,-33.8354568,151.19931,2,2,2,ApartmentUnitFlat,Apartment / Unit / Flat,False,0,m2,False
2017411708,listing,/2-171-walker-street-north-sydney-nsw-2060-2017411708,1362000,is-sold,Sold at auction 08 Dec 2021,20211208,2/171 Walker Street,NORTH SYDNEY,NSW,2060,-33.8368034,151.209717,2,2,2,ApartmentUnitFlat,Apartment / Unit / Flat,False,0,m2,False
2017417287,listing,/20-18-carr-street-waverton-nsw-2060-2017417287,780000,is-sold,Sold prior to auction 03 Dec 2021,20211203,20/18 Carr Street,WAVERTON,NSW,2060,-33.8381577,151.19873,1,1,1,ApartmentUnitFlat,Apartment / Unit / Flat,False,0,m2,False
2017417550,listing,/3004-79-81-berry-street-north-sydney-nsw-2060-2017417550,965000,is-sold,Sold prior to auction 26 Nov 2021,20211126,3004/79-81 Berry Street,NORTH SYDNEY,NSW,2060,-33.83747,151.208344,1,1,1,ApartmentUnitFlat,Apartment / Unit / Flat,False,0,m2,False
2017422788,listing,/10-33-east-crescent-street-mcmahons-point-nsw-2060-2017422788,10050000,is-sold,Sold at auction 26 Nov 2021,20211126,10/33 East Crescent Street,MCMAHONS POINT,NSW,2060,-33.8465157,151.206009,3,3,3,ApartmentUnitFlat,Apartment / Unit / Flat,False,0,m2,False
2017431747,listing,/7-4-riley-street-north-sydney-nsw-2060-2017431747,1485000,is-sold,Sold prior to auction 03 Dec 2021,20211203,7/4 Riley Street,NORTH SYDNEY,NSW,2060,-33.8379135,151.2024,2,2,2,Townhouse,Townhouse,False,0,m2,False
2017448262,listing,/15-8-10-east-crescent-street-mcmahons-point-nsw-2060-2017448262,3950100,is-sold,Sold prior to auction 10 Dec 2021,20211210,15/8-10 East Crescent Street,MCMAHONS POINT,NSW,2060,-33.84761,151.2047,3,3,3,ApartmentUnitFlat,Apartment / Unit / Flat,False,0,m2,False
2017450315,listing,/2-32-high-street-north-sydney-nsw-2060-2017450315,620000,is-sold,Sold by private treaty 26 Nov 2021,20211126,2/32 High Street,NORTH SYDNEY,NSW,2060,-33.84171,151.212433,1,1,1,ApartmentUnitFlat,Apartment / Unit / Flat,False,0,m2,False
2017864094,listing,/14-20-crows-nest-road-waverton-nsw-2060-2017864094,1460000,is-sold,Sold at auction 04 Dec 2021,20211204,14/20 Crows Nest Road,WAVERTON,NSW,2060,-33.8354568,151.19931,2,2,2,ApartmentUnitFlat,Apartment / Unit / Flat,False,0,m2,False
2017864096,listing,/12-18-carr-street-waverton-nsw-2060-2017864096,1300000,is-sold,Sold at auction 08 Dec 2021,20211208,12/18 Carr Street,WAVERTON,NSW,2060,-33.8381577,151.19873,2,2,2,ApartmentUnitFlat,Apartment / Unit / Flat,False,0,m2,False
2017139432,listing,/68-14-28-blues-point-road-mcmahons-point-nsw-2060-2017139432,1850000,is-sold,Sold by private treaty 17 Nov 2021,20211117,68/14-28 Blues Point Road,MCMAHONS POINT,NSW,2060,-33.8492,151.203217,2,2,2,ApartmentUnitFlat,Apartment / Unit / Flat,False,0,m2,False
2017175462,listing,/6-waiwera-street-lavender-bay-nsw-2060-2017175462,5000000,is-sold,Sold prior to auction 15 Nov 2021,20211115,6 Waiwera Street,LAVENDER BAY,NSW,2060,-33.8450851,151.204758,3,3,3,House,House,False,133,m2,False
2017204983,listing,/9-1-harbourview-crescent-lavender-bay-nsw-2060-2017204983,3650000,is-sold,Sold prior to auction 11 Nov 2021,20211111,9/1 Harbourview Crescent,LAVENDER BAY,NSW,2060,-33.8448334,151.210144,3,3,3,ApartmentUnitFlat,Apartment / Unit / Flat,False,0,m2,False
2017270414,listing,/94-2-crows-nest-road-waverton-nsw-2060-2017270414,1250000,is-sold,Sold by private treaty 17 Nov 2021,20211117,94/2 Crows Nest Road,WAVERTON,NSW,2060,-33.8373337,151.197784,2,2,2,ApartmentUnitFlat,Apartment / Unit / Flat,False,0,m2,False
2017304556,listing,/3304-79-81-berry-street-north-sydney-nsw-2060-2017304556,2000000,is-sold,Sold by private treaty 20 Nov 2021,20211120,3304/79-81 Berry Street,NORTH SYDNEY,NSW,2060,-33.83747,151.208344,3,3,3,ApartmentUnitFlat,Apartment / Unit / Flat,False,0,m2,False
2017326411,listing,/45-bank-street-north-sydney-nsw-2060-2017326411,3200000,is-sold,Sold prior to auction 12 Nov 2021,20211112,45 Bank Street,NORTH SYDNEY,NSW,2060,-33.8392029,151.202225,3,3,3,SemiDetached,Semi-Detached,False,168,m2,False
2017332549,listing,/117-225-pacific-highway-north-sydney-nsw-2060-2017332549,895000,is-sold,Sold prior to auction 20 Nov 2021,20211120,117/225 Pacific Highway,NORTH SYDNEY,NSW,2060,-33.8353653,151.205765,1,1,1,ApartmentUnitFlat,Apartment / Unit / Flat,False,0,m2,False
2017346747,listing,/1-13-west-crescent-street-mcmahons-point-nsw-2060-2017346747,3530000,is-sold,Sold prior to auction 17 Nov 2021,20211117,1/13 West Crescent Street,MCMAHONS POINT,NSW,2060,-33.8466339,151.203217,3,3,3,ApartmentUnitFlat,Apartment / Unit / Flat,False,0,m2,False
2017346822,listing,/23b-dumbarton-street-mcmahons-point-nsw-2060-2017346822,2250000,is-sold,Sold prior to auction 17 Nov 2021,20211117,23B Dumbarton Street,MCMAHONS POINT,NSW,2060,-33.84316,151.201431,2,2,2,House,House,False,0,m2,False
2017362732,listing,/11-39-king-street-waverton-nsw-2060-2017362732,1500000,is-sold,Sold prior to auction 15 Nov 2021,20211115,11/39 King Street,WAVERTON,NSW,2060,-33.8356438,151.198288,2,2,2,ApartmentUnitFlat,Apartment / Unit / Flat,False,0,m2,False
2017363805,listing,/9-74-bay-road-waverton-nsw-2060-2017363805,1610000,is-sold,Sold at auction 20 Nov 2021,20211120,9/74 Bay Road,WAVERTON,NSW,2060,-33.8368874,151.200638,2,2,2,ApartmentUnitFlat,Apartment / Unit / Flat,False,0,m2,False
2017371777,listing,/7-doris-street-north-sydney-nsw-2060-2017371777,2375000,is-sold,Sold prior to auction 12 Nov 2021,20211112,7 Doris Street,NORTH SYDNEY,NSW,2060,-33.8407135,151.213181,3,3,3,House,House,False,0,m2,False
2017381516,listing,/60-2-crows-nest-road-waverton-nsw-2060-2017381516,2215000,is-sold,Sold by private treaty 16 Nov 2021,20211116,60/2 Crows Nest Road,WAVERTON,NSW,2060,-33.8373337,151.197784,3,3,3,ApartmentUnitFlat,Apartment / Unit / Flat,False,0,m2,False
2017386253,listing,/807-28-west-street-north-sydney-nsw-2060-2017386253,1415000,is-sold,Sold prior to auction 12 Nov 2021,20211112,807/28 West Street,NORTH SYDNEY,NSW,2060,-33.83261,151.205368,2,2,2,ApartmentUnitFlat,Apartment / Unit / Flat,False,121,m2,False
2017386543,listing,/601-221-miller-street-north-sydney-nsw-2060-2017386543,1600000,is-sold,Sold prior to auction 25 Nov 2021,20211125,601/221 Miller Street,NORTH SYDNEY,NSW,2060,-33.8357849,151.208176,3,3,3,ApartmentUnitFlat,Apartment / Unit / Flat,False,0,m2,False
2017390614,listing,/2-88-berry-street-north-sydney-nsw-2060-2017390614,1510000,is-sold,Sold prior to auction 24 Nov 2021,20211124,2/88 Berry Street,NORTH SYDNEY,NSW,2060,-33.8364639,151.21,2,2,2,ApartmentUnitFlat,Apartment / Unit / Flat,False,0,m2,False
2017403288,listing,/5-2-waverton-avenue-waverton-nsw-2060-2017403288,1620000,is-sold,Sold by private treaty 10 Nov 2021,20211110,5/2 Waverton Avenue,WAVERTON,NSW,2060,-33.83716,151.200211,2,2,2,ApartmentUnitFlat,Apartment / Unit / Flat,False,0,m2,False
2017414730,listing,/1-157-blues-point-road-mcmahons-point-nsw-2060-2017414730,815000,is-sold,Sold prior to auction 24 Nov 2021,20211124,1/157 Blues Point Road,MCMAHONS POINT,NSW,2060,-33.84349,151.204941,1,1,1,ApartmentUnitFlat,Apartment / Unit / Flat,False,49,m2,False
2017864091,listing,/60-2-crows-nest-road-waverton-nsw-2060-2017864091,2215000,is-sold,Sold by private treaty 16 Nov 2021,20211116,60/2 Crows Nest Road,WAVERTON,NSW,2060,-33.8373337,151.197784,3,3,3,ApartmentUnitFlat,Apartment / Unit / Flat,False,0,m2,False
2017864095,listing,/9-74-bay-road-waverton-nsw-2060-2017864095,1610000,is-sold,Sold at auction 20 Nov 2021,20211120,9/74 Bay Road,WAVERTON,NSW,2060,-33.8368874,151.200638,2,2,2,ApartmentUnitFlat,Apartment / Unit / Flat,False,0,m2,False
2017186910,listing,/25-52-high-street-north-sydney-nsw-2060-2017186910,334000,is-sold,Sold by private treaty 08 Nov 2021,20211108,25/52 High street,NORTH SYDNEY,NSW,2060,-33.8420677,151.21347,,1.0,,Studio,Studio,False,0,m2,False
2017263928,listing,/803-225-pacific-highway-north-sydney-nsw-2060-2017263928,1250000,is-sold,Sold by private treaty 29 Oct 2021,20211029,803/225 Pacific Highway,NORTH SYDNEY,NSW,2060,-33.8353653,151.205765,2,2,2,ApartmentUnitFlat,Apartment / Unit / Flat,False,0,m2,False
2017286874,listing,/24-union-street-mcmahons-point-nsw-2060-2017286874,6650000,is-sold,Sold prior to auction 05 Nov 2021,20211105,24 Union Street,MCMAHONS POINT,NSW,2060,-33.84113,151.201843,5,5,5,House,House,False,0,m2,False
2017288239,listing,/15-edward-street-waverton-nsw-2060-2017288239,3150000,is-sold,Sold prior to auction 29 Oct 2021,20211029,15 Edward Street,WAVERTON,NSW,2060,-33.83817,151.204422,3,3,3,House,House,False,0,m2,False
2017299570,listing,/73-14-28-blues-point-road-mcmahons-point-nsw-2060-2017299570,1500000,is-sold,Sold by private treaty 04 Nov 2021,20211104,73/14-28 Blues Point Road,MCMAHONS POINT,NSW,2060,-33.8492,151.203217,1,1,1,ApartmentUnitFlat,Apartment / Unit / Flat,False,0,m2,False
2017300881,listing,/2-22-mackenzie-street-lavender-bay-nsw-2060-2017300881,4100000,is-sold,Sold at auction 30 Oct 2021,20211030,2/22 MacKenzie Street,LAVENDER BAY,NSW,2060,-33.84208,151.207932,3,3,3,Townhouse,Townhouse,False,0,m2,False
2017300972,listing,/100-bank-street-north-sydney-nsw-2060-2017300972,5300000,is-sold,Sold prior to auction 05 Nov 2021,20211105,100 Bank Street,NORTH SYDNEY,NSW,2060,-33.8382034,151.201614,3,3,3,House,House,False,387,m2,False
2017313447,listing,/29-90-blues-point-road-mcmahons-point-nsw-2060-2017313447,1012000,is-sold,Sold prior to auction 02 Nov 2021,20211102,29/90 Blues Point Road,MCMAHONS POINT,NSW,2060,-33.84638,151.2038,1,1,1,ApartmentUnitFlat,Apartment / Unit / Flat,False,0,m2,False
2017315219,listing,/28-2-east-crescent-street-mcmahons-point-nsw-2060-2017315219,890000,is-sold,Sold at auction 05 Nov 2021,20211105,28/2 East Crescent Street,MCMAHONS POINT,NSW,2060,-33.8480072,151.204651,1,1,1,ApartmentUnitFlat,Apartment / Unit / Flat,False,0,m2,False
2017323640,listing,/6-8-munro-street-mcmahons-point-nsw-2060-2017323640,1910000,is-sold,Sold at auction 06 Nov 2021,20211106,6/8 Munro Street,MCMAHONS POINT,NSW,2060,-33.84449,151.200439,2,2,2,ApartmentUnitFlat,Apartment / Unit / Flat,False,0,m2,False
2017325775,listing,/25-18-carr-street-waverton-nsw-2060-2017325775,1300000,is-sold,Sold by private treaty 28 Oct 2021,20211028,25/18 Carr Street,WAVERTON,NSW,2060,-33.8381577,151.19873,2,2,2,ApartmentUnitFlat,Apartment / Unit / Flat,False,0,m2,False
2017327061,listing,/4-49-blues-point-road-mcmahons-point-nsw-2060-2017327061,1220000,is-sold,Sold prior to auction 29 Oct 2021,20211029,4/49 Blues Point Road,MCMAHONS POINT,NSW,2060,-33.8470421,151.204025,2,2,2,ApartmentUnitFlat,Apartment / Unit / Flat,False,0,m2,False
