id,listingType,url,price,tagClassName,tagText,date,street,suburb,state,postcode,lat,lng,beds,baths,parking,propertyType,propertyTypeFormatted,isRural,landSize,landUnit,isRetirement
2018328673,listing,/1-55-wanganella-street-balgowlah-nsw-2093-2018328673,Price Withheld,is-sold,Sold by private treaty 28 Feb 2023,20230228,1/55 Wanganella Street,BALGOWLAH,NSW,2093,-33.7957764,151.257446,3,1,1,Duplex,Duplex,False,0,m2,False
2018044585,listing,/23a-woodbine-street-north-balgowlah-nsw-2093-2018044585,2800000,is-sold,Sold by private treaty 07 Feb 2023,20230207,23A Woodbine Street,NORTH BALGOWLAH,NSW,2093,-33.7875023,151.252716,4,3,4,House,House,False,860,m2,False
2018207888,listing,/30-quinlan-parade-manly-vale-nsw-2093-2018207888,Price Withheld,is-sold,Sold by private treaty 17 Feb 2023,20230217,30 Quinlan Parade,MANLY VALE,NSW,2093,-33.7805939,151.261963,4,1,2,House,House,False,923,m2,False
2018271060,listing,/53-peronne-avenue-clontarf-nsw-2093-2018271060,4870000,is-sold,Sold at auction 18 Feb 2023,20230218,53 Peronne Avenue,CLONTARF,NSW,2093,-33.8014946,151.253159,5,3,6,House,House,False,740,m2,False
2018299684,listing,/6a-waratah-street-balgowlah-nsw-2093-2018299684,Price Withheld,is-sold,Sold by private treaty 17 Feb 2023,20230217,6a Waratah Street,BALGOWLAH,NSW,2093,-33.79414,151.26857,3,2,2,House,House,False,0,m2,False
2018299840,listing,/2-121-west-street-balgowlah-nsw-2093-2018299840,Price Withheld,is-sold,Sold at auction 08 Feb 2023,20230208,2/121 West Street,BALGOWLAH,NSW,2093,-33.79075,151.2605,3,2,1,ApartmentUnitFlat,Apartment / Unit / Flat,False,181,m2,False
2018309633,listing,/99a-campbell-parade-manly-vale-nsw-2093-2018309633,1930000,is-sold,Sold at auction 18 Feb 2023,20230218,99A Campbell Parade,MANLY VALE,NSW,2093,-33.78013,151.2641,3,2,2,House,House,False,437,m2,False
2018311226,listing,/24-myrtle-street-north-balgowlah-nsw-2093-2018311226,Price Withheld,is-sold,Sold at auction 11 Feb 2023,20230211,24 Myrtle Street,NORTH BALGOWLAH,NSW,2093,-33.78894,151.256989,3,2,2,House,House,False,518,m2,False
2018313479,listing,/4-142-griffiths-street-balgowlah-nsw-2093-2018313479,Price Withheld,is-sold,Sold prior to auction 15 Feb 2023,20230215,4/142 Griffiths Street,BALGOWLAH,NSW,2093,-33.7912521,151.261932,2,1,1,ApartmentUnitFlat,Apartment / Unit / Flat,False,0,m2,False
2018318003,listing,/19a-serpentine-crescent-north-balgowlah-nsw-2093-2018318003,Price Withheld,is-sold,Sold at auction 25 Feb 2023,20230225,19a Serpentine Crescent,NORTH BALGOWLAH,NSW,2093,-33.7913055,151.2518,3,2,3,House,House,False,0,m2,False
2018319569,listing,/2-20-angle-street-balgowlah-nsw-2093-2018319569,1602000,is-sold,Sold by private treaty 10 Feb 2023,20230210,2/20 Angle Street,BALGOWLAH,NSW,2093,-33.7932968,151.26123,3,1,1,ApartmentUnitFlat,Apartment / Unit / Flat,False,143,m2,False
2018322697,listing,/17-2a-campbell-parade-manly-vale-nsw-2093-2018322697,Price Withheld,is-sold,Sold by private treaty 14 Feb 2023,20230214,17/2a Campbell Parade,MANLY VALE,NSW,2093,-33.7801781,151.269547,3,3,2,Townhouse,Townhouse,False,0,m2,False
2018323011,listing,/1-142-griffiths-street-balgowlah-nsw-2093-2018323011,Price Withheld,is-sold,Sold by private treaty 10 Feb 2023,20230210,1/142 Griffiths Street,BALGOWLAH,NSW,2093,-33.7912521,151.261932,2,2,1,ApartmentUnitFlat,Apartment / Unit / Flat,False,0,m2,False
2018326766,listing,/2-manning-street-north-balgowlah-nsw-2093-2018326766,Price Withheld,is-sold,Sold by private treaty 08 Feb 2023,20230208,2 Manning Street,NORTH BALGOWLAH,NSW,2093,-33.7825241,151.243835,5,3,2,House,House,False,0,m2,False
2018326804,listing,/9-48-lovett-street-manly-vale-nsw-2093-2018326804,Price Withheld,is-sold,Sold by private treaty 08 Feb 2023,20230208,9/48 Lovett Street,MANLY VALE,NSW,2093,-33.78313,151.273132,3,2,2,Townhouse,Townhouse,False,0,m2,False
2018328911,listing,/12-moore-street-clontarf-nsw-2093-2018328911,Price Withheld,is-sold,Sold by private treaty 20 Feb 2023,20230220,12 Moore Street,CLONTARF,NSW,2093,-33.80945,151.2574,5,4,3,House,House,False,521,m2,False
2018330241,listing,/5-60-kenneth-road-manly-vale-nsw-2093-2018330241,Price Withheld,is-sold,Sold by private treaty 13 Feb 2023,20230213,5/60 Kenneth Road,MANLY VALE,NSW,2093,-33.7865753,151.269287,2,1,1,ApartmentUnitFlat,Apartment / Unit / Flat,False,85,m2,False
2018330779,listing,/43-cutler-road-clontarf-nsw-2093-2018330779,Price Withheld,is-sold,Sold by private treaty 16 Feb 2023,20230216,43 Cutler Road,CLONTARF,NSW,2093,-33.8103943,151.259857,4,2,2,House,House,False,468,m2,False
2018360459,listing,/12-burchmore-road-manly-vale-nsw-2093-2018360459,2230000,is-sold,Sold by private treaty 16 Feb 2023,20230216,12 Burchmore Road,MANLY VALE,NSW,2093,-33.785347,151.271378,3,1,2,House,House,False,0,m2,False
2018374543,listing,/2-148-woodland-street-south-balgowlah-nsw-2093-2018374543,4725000,is-sold,Sold by private treaty 23 Feb 2023,20230223,2/148 Woodland Street South,BALGOWLAH,NSW,2093,-33.79531,151.262878,-,-,-,Duplex,Duplex,False,0,m2,False
2018111896,listing,/3-343-sydney-road-balgowlah-nsw-2093-2018111896,1775000,is-sold,Sold by private treaty 05 Jan 2023,20230105,3/343 Sydney Road,BALGOWLAH,NSW,2093,-33.7946167,151.265289,3,2,1,ApartmentUnitFlat,Apartment / Unit / Flat,False,0,m2,False
2018124425,listing,/34-peronne-avenue-clontarf-nsw-2093-2018124425,Price Withheld,is-sold,Sold by private treaty 21 Dec 2022,20221221,34 Peronne Avenue,CLONTARF,NSW,2093,-33.80353,151.254578,3,3,2,House,House,False,750,m2,False
2018129089,listing,/12-8-campbell-parade-manly-vale-nsw-2093-2018129089,Price Withheld,is-sold,Sold by private treaty 17 Jan 2023,20230117,12/8 Campbell Parade,MANLY VALE,NSW,2093,-33.78066,151.26947,2,1,1,ApartmentUnitFlat,Apartment / Unit / Flat,False,0,m2,False
2018160222,listing,/11-water-reserve-road-north-balgowlah-nsw-2093-2018160222,2330000,is-sold,Sold by private treaty 13 Jan 2023,20230113,11 Water Reserve Road,NORTH BALGOWLAH,NSW,2093,-33.7874527,151.255463,5,2,1,House,House,False,0,m2,False
2018164755,listing,/3-237-woodland-street-balgowlah-nsw-2093-2018164755,2360000,is-sold,Sold by private treaty 22 Dec 2022,20221222,3/237 Woodland Street,BALGOWLAH,NSW,2093,-33.79039,151.263138,3,2,2,Townhouse,Townhouse,False,0,m2,False
2018172410,listing,/2-8-rickard-street-balgowlah-nsw-2093-2018172410,Price Withheld,is-sold,Sold by private treaty 20 Dec 2022,20221220,2/8 Rickard Street,BALGOWLAH,NSW,2093,-33.7931824,151.25975,3,1,1,ApartmentUnitFlat,Apartment / Unit / Flat,False,0,m2,False
2018173464,listing,/4-9-fairway-close-manly-vale-nsw-2093-2018173464,800000,is-sold,Sold by private treaty 19 Dec 2022,20221219,4/9 Fairway Close,MANLY VALE,NSW,2093,-33.78669,151.273849,2,1,1,ApartmentUnitFlat,Apartment / Unit / Flat,False,0,m2,False
2018215647,listing,/21b-marinella-street-manly-vale-nsw-2093-2018215647,2375000,is-sold,Sold at auction 17 Dec 2022,20221217,21B Marinella Street,MANLY VALE,NSW,2093,-33.78712,151.262268,4,3,2,House,House,False,246,m2,False
2018220000,listing,/42-41-roseberry-street-manly-vale-nsw-2093-2018220000,Price Withheld,is-sold,Sold by private treaty 04 Feb 2023,20230204,42/41 Roseberry Street,MANLY VALE,NSW,2093,-33.7861443,151.26767,2,2,1,ApartmentUnitFlat,Apartment / Unit / Flat,False,0,m2,False
2018221675,listing,/8-299-sydney-road-balgowlah-nsw-2093-2018221675,1150000,is-sold,Sold by private treaty 21 Dec 2022,20221221,8/299 Sydney Road,BALGOWLAH,NSW,2093,-33.79549,151.267776,2,2,1,ApartmentUnitFlat,Apartment / Unit / Flat,False,0,m2,False
2018229766,listing,/1-14-campbell-parade-manly-vale-nsw-2093-2018229766,825000,is-sold,Sold by private treaty 20 Dec 2022,20221220,1/14 Campbell Parade,MANLY VALE,NSW,2093,-33.78066,151.268768,2,1,1,ApartmentUnitFlat,Apartment / Unit / Flat,False,99,m2,False
2018244735,listing,/127-condamine-street-balgowlah-nsw-2093-2018244735,4000000,is-sold,Sold at auction 04 Feb 2023,20230204,127 Condamine Street,BALGOWLAH,NSW,2093,-33.80003,151.263321,4,2,2,House,House,False,537,m2,False
2018281050,listing,/83-gordon-street-clontarf-nsw-2093-2018281050,Price Withheld,is-sold,Sold prior to auction 03 Feb 2023,20230203,83 Gordon Street,CLONTARF,NSW,2093,-33.80046,151.25589,2,1,1,House,House,False,186,m2,False
2018284393,listing,/18-myrtle-street-north-balgowlah-nsw-2093-2018284393,1670000,is-sold,Sold at auction 28 Jan 2023,20230128,18 Myrtle Street,NORTH BALGOWLAH,NSW,2093,-33.788887,151.256622,3,1,1,House,House,False,518,m2,False
2018285955,listing,/9-228-condamine-street-manly-vale-nsw-2093-2018285955,825000,is-sold,Sold prior to auction 25 Jan 2023,20230125,9/228 Condamine Street,MANLY VALE,NSW,2093,-33.78579,151.267242,2,1,1,ApartmentUnitFlat,Apartment / Unit / Flat,False,0,m2,False
2018285993,listing,/4-436-sydney-road-balgowlah-nsw-2093-2018285993,Price Withheld,is-sold,Sold by private treaty 02 Feb 2023,20230202,4/436 Sydney Road,BALGOWLAH,NSW,2093,-33.7934341,151.25972,2,1,1,ApartmentUnitFlat,Apartment / Unit / Flat,False,0,m2,False
2018289268,listing,/12-285-condamine-street-manly-vale-nsw-2093-2018289268,Price Withheld,is-sold,Sold by private treaty 26 Jan 2023,20230126,12/285 Condamine Street,MANLY VALE,NSW,2093,-33.78546,151.266556,2,1,1,ApartmentUnitFlat,Apartment / Unit / Flat,False,0,m2,False
2018292321,listing,/306-1-sylvan-avenue-balgowlah-nsw-2093-2018292321,Price Withheld,is-sold,Sold by private treaty 20 Jan 2023,20230120,306/1 Sylvan Avenue,BALGOWLAH,NSW,2093,-33.79304,151.2632,2,2,1,ApartmentUnitFlat,Apartment / Unit / Flat,False,0,m2,False
2018302015,listing,/10-farrar-street-balgowlah-heights-nsw-2093-2018302015,Price Withheld,is-sold,Sold by private treaty 02 Feb 2023,20230202,10 Farrar Street,BALGOWLAH HEIGHTS,NSW,2093,-33.80221,151.263412,5,3,2,House,House,False,0,m2,False
2018329929,listing,/9-moore-street-clontarf-nsw-2093-2018329929,Price Withheld,is-sold,Sold by private treaty 04 Feb 2023,20230204,9 Moore Street,CLONTARF,NSW,2093,-33.81001,151.2574,4,4,2,House,House,False,0,m2,False
2017827835,listing,/209-woodland-street-balgowlah-nsw-2093-2017827835,Price Withheld,is-sold,Sold by private treaty 14 Dec 2022,20221214,209 Woodland Street,BALGOWLAH,NSW,2093,-33.7923279,151.262772,3,1,1,House,House,False,0,m2,False
2018027427,listing,/16-monash-crescent-clontarf-nsw-2093-2018027427,Price Withheld,is-sold,Sold at auction 07 Dec 2022,20221207,16 Monash Crescent,CLONTARF,NSW,2093,-33.8086052,151.253708,4,3,5,House,House,False,658,m2,False
2018078634,listing,/2-7-fairway-close-manly-vale-nsw-2093-2018078634,659700,is-sold,Sold by private treaty 14 Dec 2022,20221214,2/7 Fairway Close,MANLY VALE,NSW,2093,-33.7872467,151.27359,2,1,1,ApartmentUnitFlat,Apartment / Unit / Flat,False,0,m2,False
2018110854,listing,/1-35-lower-beach-street-balgowlah-nsw-2093-2018110854,2370000,is-sold,Sold by private treaty 29 Nov 2022,20221129,1/35 Lower Beach Street,BALGOWLAH,NSW,2093,-33.79879,151.260178,3,2,2,House,House,False,0,m2,False
2018118095,listing,/1-6-whittle-avenue-balgowlah-nsw-2093-2018118095,1320000,is-sold,Sold by private treaty 02 Dec 2022,20221202,1/6 Whittle Avenue,BALGOWLAH,NSW,2093,-33.79691,151.253067,3,1,1,Duplex,Duplex,False,0,m2,False
2018120392,listing,/31-rickard-street-balgowlah-nsw-2093-2018120392,Price Withheld,is-sold,Sold at auction 02 Dec 2022,20221202,31 Rickard Street,BALGOWLAH,NSW,2093,-33.7915764,151.259491,5,4,2,House,House,False,0,m2,False
2018125344,listing,/2-2a-boyle-street-balgowlah-nsw-2093-2018125344,1660000,is-sold,Sold by private treaty 09 Dec 2022,20221209,2/2A Boyle Street,BALGOWLAH,NSW,2093,-33.79676,151.267059,3,1,1,ApartmentUnitFlat,Apartment / Unit / Flat,False,0,m2,False
2018127044,listing,/21-curban-street-balgowlah-heights-nsw-2093-2018127044,Price Withheld,is-sold,Sold by private treaty 06 Dec 2022,20221206,21 Curban Street,BALGOWLAH HEIGHTS,NSW,2093,-33.8057365,151.263275,4,2,2,House,House,False,594,m2,False
2018135193,listing,/4-10-pickworth-avenue-balgowlah-nsw-2093-2018135193,849000,is-sold,Sold by private treaty 05 Dec 2022,20221205,4/10 Pickworth Avenue,BALGOWLAH,NSW,2093,-33.79371,151.257172,2,1,-,ApartmentUnitFlat,Apartment / Unit / Flat,False,0,m2,False
2018141939,listing,/20-addiscombe-road-manly-vale-nsw-2093-2018141939,Price Withheld,is-sold,Sold by private treaty 08 Dec 2022,20221208,20 Addiscombe Road,MANLY VALE,NSW,2093,-33.7843132,151.274887,5,2,3,House,House,False,505,m2,False
2018170575,listing,/7-295-297-condamine-street-manly-vale-nsw-2093-2018170575,650000,is-sold,Sold by private treaty 09 Dec 2022,20221209,7/295-297 Condamine Street,MANLY VALE,NSW,2093,-33.7849541,151.266678,1,1,1,ApartmentUnitFlat,Apartment / Unit / Flat,False,0,m2,False
2018188150,listing,/3-16-rickard-street-balgowlah-nsw-2093-2018188150,1675000,is-sold,Sold by private treaty 07 Dec 2022,20221207,3/16 Rickard Street,BALGOWLAH,NSW,2093,-33.79268,151.2599,3,2,2,ApartmentUnitFlat,Apartment / Unit / Flat,False,0,m2,False
2018188296,listing,/6d-29-quirk-road-manly-vale-nsw-2093-2018188296,775000,is-sold,Sold by private treaty 16 Dec 2022,20221216,6D/29 Quirk Road,MANLY VALE,NSW,2093,-33.78485,151.269577,2,1,1,ApartmentUnitFlat,Apartment / Unit / Flat,False,0,m2,False
2018192291,listing,/22-5a-pitt-street-balgowlah-nsw-2093-2018192291,868800,is-sold,Sold by private treaty 02 Dec 2022,20221202,22/5A Pitt Street,BALGOWLAH,NSW,2093,-33.7891159,151.263687,2,1,2,ApartmentUnitFlat,Apartment / Unit / Flat,False,0,m2,False
2018204952,listing,/8-10-bentley-street-balgowlah-nsw-2093-2018204952,1130000,is-sold,Sold at auction 02 Dec 2022,20221202,8/10 Bentley Street,BALGOWLAH,NSW,2093,-33.7951164,151.265488,2,1,1,ApartmentUnitFlat,Apartment / Unit / Flat,False,0,m2,False
2018213589,listing,/106-4-sylvan-avenue-balgowlah-nsw-2093-2018213589,2470000,is-sold,Sold prior to auction 06 Dec 2022,20221206,106/4 Sylvan Avenue,BALGOWLAH,NSW,2093,-33.79304,151.2632,2,2,1,ApartmentUnitFlat,Apartment / Unit / Flat,False,0,m2,False
2018218933,listing,/31-quinlan-parade-manly-vale-nsw-2093-2018218933,3535000,is-sold,Sold prior to auction 30 Nov 2022,20221130,31 Quinlan Parade,MANLY VALE,NSW,2093,-33.78115,151.2624,4,2,2,House,House,False,752,m2,False
2018221860,listing,/36a-burchmore-road-manly-vale-nsw-2093-2018221860,1765000,is-sold,Sold by private treaty 30 Nov 2022,20221130,36A Burchmore Road,MANLY VALE,NSW,2093,-33.7857971,151.2729,3,2,1,House,House,False,0,m2,False
2018227623,listing,/2-151-balgowlah-road-balgowlah-nsw-2093-2018227623,Price Withheld,is-sold,Sold prior to auction 16 Dec 2022,20221216,2/151 Balgowlah Road,BALGOWLAH,NSW,2093,-33.7909,151.268509,2,1,1,ApartmentUnitFlat,Apartment / Unit / Flat,False,0,m2,False
2018228085,listing,/101-4-sylvan-avenue-balgowlah-nsw-2093-2018228085,1430000,is-sold,Sold by private treaty 10 Dec 2022,20221210,101/4 Sylvan Avenue,BALGOWLAH,NSW,2093,-33.79304,151.2632,1,1,1,ApartmentUnitFlat,Apartment / Unit / Flat,False,0,m2,False
2017626397,listing,/10-3-cross-street-balgowlah-nsw-2093-2017626397,565000,is-sold,Sold by private treaty 21 Nov 2022,20221121,10/3 Cross Street,BALGOWLAH,NSW,2093,-33.7894249,151.26506,1,1,1,ApartmentUnitFlat,Apartment / Unit / Flat,False,0,m2,False
2018053041,listing,/12-pickworth-avenue-balgowlah-nsw-2093-2018053041,2740000,is-sold,Sold by private treaty 11 Nov 2022,20221111,12 Pickworth Avenue,BALGOWLAH,NSW,2093,-33.79344,151.257217,3,1,1,House,House,False,607,m2,False
2018067609,listing,/10-6-campbell-parade-manly-vale-nsw-2093-2018067609,727000,is-sold,Sold prior to auction 23 Nov 2022,20221123,10/6 Campbell Parade,MANLY VALE,NSW,2093,-33.7806664,151.269714,2,1,1,ApartmentUnitFlat,Apartment / Unit / Flat,False,0,m2,False
2018088198,listing,/16-ethel-street-balgowlah-nsw-2093-2018088198,3395000,is-sold,Sold by private treaty 25 Nov 2022,20221125,16 Ethel Street,BALGOWLAH,NSW,2093,-33.7978134,151.2538,5,4,4,House,House,False,544,m2,False
2018088789,listing,/146-condamine-street-balgowlah-nsw-2093-2018088789,2050000,is-sold,Sold by private treaty 10 Nov 2022,20221110,146 Condamine Street,BALGOWLAH,NSW,2093,-33.7919769,151.265656,3,1,2,House,House,False,375,m2,False
2018092430,listing,/203-7-sylvan-avenue-balgowlah-nsw-2093-2018092430,925000,is-sold,Sold by private treaty 15 Nov 2022,20221115,203/7 Sylvan Avenue,BALGOWLAH,NSW,2093,-33.79304,151.2632,1,1,1,ApartmentUnitFlat,Apartment / Unit / Flat,False,0,m2,False
2018111671,listing,/404-5-sylvan-avenue-balgowlah-nsw-2093-2018111671,1120000,is-sold,Sold by private treaty 21 Nov 2022,20221121,404/5 Sylvan Avenue,BALGOWLAH,NSW,2093,-33.7935181,151.26413,1,1,1,ApartmentUnitFlat,Apartment / Unit / Flat,False,0,m2,False
2018115544,listing,/32-ogilvy-road-clontarf-nsw-2093-2018115544,Price Withheld,is-sold,Sold by private treaty 12 Nov 2022,20221112,32 Ogilvy Road,CLONTARF,NSW,2093,-33.81078,151.259171,4,3,2,House,House,False,468,m2,False
2018133730,listing,/2-18-seaview-street-balgowlah-nsw-2093-2018133730,Price Withheld,is-sold,Sold prior to auction 18 Nov 2022,20221118,2/18 Seaview Street,BALGOWLAH,NSW,2093,-33.7992363,151.258377,3,2,2,Townhouse,Townhouse,False,0,m2,False
2018153567,listing,/1-426-sydney-road-balgowlah-nsw-2093-2018153567,845000,is-sold,Sold prior to auction 25 Nov 2022,20221125,1/426 Sydney Road,BALGOWLAH,NSW,2093,-33.7936554,151.260376,2,1,-,ApartmentUnitFlat,Apartment / Unit / Flat,False,0,m2,False
2018153804,listing,/2-17-rickard-street-balgowlah-nsw-2093-2018153804,1602500,is-sold,Sold prior to auction 15 Nov 2022,20221115,2/17 Rickard Street,BALGOWLAH,NSW,2093,-33.79276,151.259262,3,2,1,House,House,False,0,m2,False
2018159295,listing,/117-wanganella-street-balgowlah-nsw-2093-2018159295,Price Withheld,is-sold,Sold by private treaty 11 Nov 2022,20221111,117 Wanganella Street,BALGOWLAH,NSW,2093,-33.79062,151.25853,3,2,1,House,House,False,0,m2,False
2018161953,listing,/18-kenneth-road-manly-vale-nsw-2093-2018161953,2210000,is-sold,Sold prior to auction 25 Nov 2022,20221125,18 Kenneth Road,MANLY VALE,NSW,2093,-33.7871437,151.273438,3,1,2,House,House,False,0,m2,False
2018172143,listing,/7-waratah-street-balgowlah-nsw-2093-2018172143,Price Withheld,is-sold,Sold by private treaty 21 Nov 2022,20221121,7 Waratah Street,BALGOWLAH,NSW,2093,-33.7939339,151.268021,4,3,2,House,House,False,537,m2,False
2018174793,listing,/19-301-303-condamine-street-manly-vale-nsw-2093-2018174793,920000,is-sold,Sold prior to auction 18 Nov 2022,20221118,19/301-303 Condamine Street,MANLY VALE,NSW,2093,-33.7845764,151.266846,2,2,1,ApartmentUnitFlat,Apartment / Unit / Flat,False,0,m2,False
2018174887,listing,/1-8-koorala-street-manly-vale-nsw-2093-2018174887,1250000,is-sold,Sold by private treaty 23 Nov 2022,20221123,1/8 Koorala Street,MANLY VALE,NSW,2093,-33.7840347,151.26828,2,2,1,ApartmentUnitFlat,Apartment / Unit / Flat,False,0,m2,False
2018176989,listing,/9-78-balgowlah-road-balgowlah-nsw-2093-2018176989,936000,is-sold,Sold by private treaty 16 Nov 2022,20221116,9/78 Balgowlah Road,BALGOWLAH,NSW,2093,-33.78963,151.263824,2,1,1,ApartmentUnitFlat,Apartment / Unit / Flat,False,0,m2,False
2018177780,listing,/16-gordon-street-clontarf-nsw-2093-2018177780,7600000,is-sold,Sold by private treaty 18 Nov 2022,20221118,16 Gordon Street,CLONTARF,NSW,2093,-33.8044853,151.255737,5,4,2,House,House,False,0,m2,False
2018193624,listing,/21-cutler-road-clontarf-nsw-2093-2018193624,Price Withheld,is-sold,Sold by private treaty 29 Nov 2022,20221129,21 Cutler Road,CLONTARF,NSW,2093,-33.8106422,151.262024,3,2,2,House,House,False,664,m2,False
2018262875,listing,/37-west-street-balgowlah-nsw-2093-2018262875,4300000,is-sold,Sold by private treaty 18 Nov 2022,20221118,37 West Street,BALGOWLAH,NSW,2093,-33.7971039,151.259354,5,3,2,House,House,False,0,m2,False
2018021153,listing,/82-west-street-balgowlah-nsw-2093-2018021153,3400000,is-sold,Sold by private treaty 09 Nov 2022,20221109,82 West Street,BALGOWLAH,NSW,2093,-33.791317,151.261322,5,3,2,House,House,False,430,m2,False
2018042538,listing,/85-woodland-street-balgowlah-heights-nsw-2093-2018042538,3500000,is-sold,Sold at auction 03 Nov 2022,20221103,85 Woodland Street,BALGOWLAH HEIGHTS,NSW,2093,-33.80208,151.260681,4,2,1,House,House,False,572,m2,False
2018052114,listing,/75-seaview-street-balgowlah-nsw-2093-2018052114,2900000,is-sold,Sold by private treaty 04 Nov 2022,20221104,75 Seaview Street,BALGOWLAH,NSW,2093,-33.7952271,151.258682,4,2,2,House,House,False,340,m2,False
2018056631,listing,/5-curban-street-balgowlah-heights-nsw-2093-2018056631,3200000,is-sold,Sold by private treaty 31 Oct 2022,20221031,5 Curban Street,BALGOWLAH HEIGHTS,NSW,2093,-33.805542,151.261871,4,3,2,House,House,False,615,m2,False
2018067883,listing,/112-woodland-street-balgowlah-nsw-2093-2018067883,2950000,is-sold,Sold by private treaty 09 Nov 2022,20221109,112 Woodland Street,BALGOWLAH,NSW,2093,-33.7980232,151.262115,4,2,2,House,House,False,538,m2,False
2018076832,listing,/1-76-kenneth-road-manly-vale-nsw-2093-2018076832,700000,is-sold,Sold by private treaty 08 Nov 2022,20221108,1/76 Kenneth Road,MANLY VALE,NSW,2093,-33.78636,151.267654,1,1,1,ApartmentUnitFlat,Apartment / Unit / Flat,False,0,m2,False
2018080028,listing,/3-6-campbell-parade-manly-vale-nsw-2093-2018080028,720000,is-sold,Sold prior to auction 04 Nov 2022,20221104,3/6 Campbell Parade,MANLY VALE,NSW,2093,-33.7807159,151.2697,2,1,1,ApartmentUnitFlat,Apartment / Unit / Flat,False,0,m2,False
2018084317,listing,/3-myrtle-street-north-balgowlah-nsw-2093-2018084317,1700000,is-sold,Sold by private treaty 04 Nov 2022,20221104,3 Myrtle Street,NORTH BALGOWLAH,NSW,2093,-33.7892342,151.25563,3,1,2,House,House,False,641,m2,False
2018096224,listing,/3-dorrigo-avenue-north-balgowlah-nsw-2093-2018096224,1900000,is-sold,Sold at auction 29 Oct 2022,20221029,3 Dorrigo Avenue,NORTH BALGOWLAH,NSW,2093,-33.7856827,151.245239,4,1,2,House,House,False,600,m2,False
2018110001,listing,/72-seaview-street-balgowlah-nsw-2093-2018110001,3780000,is-sold,Sold by private treaty 08 Nov 2022,20221108,72 Seaview Street,BALGOWLAH,NSW,2093,-33.7953644,151.2592,4,2,1,House,House,False,0,m2,False
2018111758,listing,/258a-sydney-road-balgowlah-nsw-2093-2018111758,3190000,is-sold,Sold at auction 29 Oct 2022,20221029,258a Sydney Road,BALGOWLAH,NSW,2093,-33.79471,151.268845,5,3,1,SemiDetached,Semi-Detached,False,281,m2,False
2018113302,listing,/91a-griffiths-street-balgowlah-nsw-2093-2018113302,Price Withheld,is-sold,Sold at auction 05 Nov 2022,20221105,91A Griffiths Street,BALGOWLAH,NSW,2093,-33.7925034,151.266785,4,3,2,SemiDetached,Semi-Detached,False,275,m2,False
2018121065,listing,/9-glade-street-balgowlah-heights-nsw-2093-2018121065,2695000,is-sold,Sold prior to auction 04 Nov 2022,20221104,9 Glade Street,BALGOWLAH HEIGHTS,NSW,2093,-33.8045921,151.263962,3,1,2,House,House,False,0,m2,False
2018127983,listing,/15-299-sydney-road-enter-via-16-northcote-ave-fairlight-balgowlah-nsw-2093-2018127983,1685000,is-sold,Sold at auction 05 Nov 2022,20221105,"15/299 Sydney Road (ENTER VIA 16 NORTHCOTE AVE, FAIRLIGHT)",BALGOWLAH,NSW,2093,-33.795517,151.26799,2,2,2,ApartmentUnitFlat,Apartment / Unit / Flat,False,0,m2,False
2018128145,listing,/2a-pitt-street-balgowlah-nsw-2093-2018128145,Price Withheld,is-sold,Sold by private treaty 04 Nov 2022,20221104,2a Pitt Street,BALGOWLAH,NSW,2093,-33.7893677,151.264511,2,2,2,ApartmentUnitFlat,Apartment / Unit / Flat,False,0,m2,False
2018143168,listing,/11-9-innes-road-manly-vale-nsw-2093-2018143168,915000,is-sold,Sold by private treaty 07 Nov 2022,20221107,11/9 Innes Road,MANLY VALE,NSW,2093,-33.78378,151.268692,2,1,1,ApartmentUnitFlat,Apartment / Unit / Flat,False,0,m2,False
2018144394,listing,/503-9-sylvan-avenue-balgowlah-nsw-2093-2018144394,3600000,is-sold,Sold prior to auction 09 Nov 2022,20221109,503/9 Sylvan Avenue,BALGOWLAH,NSW,2093,-33.79304,151.2632,3,2,2,ApartmentUnitFlat,Apartment / Unit / Flat,False,265,m2,False
2018153889,listing,/24-woodbine-street-north-balgowlah-nsw-2093-2018153889,2435000,is-sold,Sold by private treaty 07 Nov 2022,20221107,24 Woodbine Street,NORTH BALGOWLAH,NSW,2093,-33.7873268,151.2533,3,2,2,House,House,False,0,m2,False
2018159171,listing,/2-87-west-street-balgowlah-nsw-2093-2018159171,1785000,is-sold,Sold prior to auction 02 Nov 2022,20221102,2/87 West Street,BALGOWLAH,NSW,2093,-33.7929955,151.260361,2,3,2,Townhouse,Townhouse,False,0,m2,False
2018184271,listing,/91-griffiths-street-balgowlah-nsw-2093-2018184271,3410000,is-sold,Sold by private treaty 07 Nov 2022,20221107,91 Griffiths Street,BALGOWLAH,NSW,2093,-33.7925034,151.266785,4,3,2,SemiDetached,Semi-Detached,False,275,m2,False
2017990763,listing,/4-17a-rickard-street-balgowlah-nsw-2093-2017990763,Price Withheld,is-sold,Sold by private treaty 13 Oct 2022,20221013,4/17a Rickard Street,BALGOWLAH,NSW,2093,-33.7927132,151.259552,2,1,1,ApartmentUnitFlat,Apartment / Unit / Flat,False,0,m2,False
2018014555,listing,/43-seaview-street-balgowlah-nsw-2093-2018014555,4900000,is-sold,Sold by private treaty 28 Oct 2022,20221028,43 Seaview Street,BALGOWLAH,NSW,2093,-33.7972374,151.258316,4,3,2,House,House,False,682,m2,False
2018042564,listing,/15-brighton-street-balgowlah-nsw-2093-2018042564,3000000,is-sold,Sold at auction 25 Oct 2022,20221025,15 Brighton Street,BALGOWLAH,NSW,2093,-33.79203,151.257492,4,2,2,House,House,False,0,m2,False
2018053976,listing,/74-condamine-st-balgowlah-nsw-2093-2018053976,4500000,is-sold,Sold by private treaty 26 Oct 2022,20221026,74 Condamine St,BALGOWLAH,NSW,2093,-33.79788,151.264389,4,3,2,House,House,False,585,m2,False
2018056180,listing,/2-81-west-street-balgowlah-nsw-2093-2018056180,912000,is-sold,Sold at auction 15 Oct 2022,20221015,2/81 West Street,BALGOWLAH,NSW,2093,-33.7934151,151.260269,2,1,1,ApartmentUnitFlat,Apartment / Unit / Flat,False,0,m2,False
2018056626,listing,/12a-woodland-street-balgowlah-heights-nsw-2093-2018056626,3000000,is-sold,Sold by private treaty 27 Oct 2022,20221027,12a Woodland Street,BALGOWLAH HEIGHTS,NSW,2093,-33.80861,151.260086,4,3,2,House,House,False,780,m2,False
2018056757,listing,/304-9-sylvan-avenue-balgowlah-nsw-2093-2018056757,1350000,is-sold,Sold prior to auction 26 Oct 2022,20221026,304/9 Sylvan Avenue,BALGOWLAH,NSW,2093,-33.79304,151.2632,1,1,1,ApartmentUnitFlat,Apartment / Unit / Flat,False,0,m2,False
2018063137,listing,/10-84-wanganella-street-balgowlah-nsw-2093-2018063137,1175000,is-sold,Sold by private treaty 12 Oct 2022,20221012,10/84 Wanganella Street,BALGOWLAH,NSW,2093,-33.7929039,151.258652,2,1,1,ApartmentUnitFlat,Apartment / Unit / Flat,False,0,m2,False
2018066057,listing,/5-285-287-condamine-street-manly-vale-nsw-2093-2018066057,800000,is-sold,Sold by private treaty 28 Oct 2022,20221028,5/285-287 Condamine Street,MANLY VALE,NSW,2093,-33.78546,151.266556,2,1,1,ApartmentUnitFlat,Apartment / Unit / Flat,False,0,m2,False
2018070194,listing,/5-vista-avenue-balgowlah-heights-nsw-2093-2018070194,5000000,is-sold,Sold by private treaty 25 Oct 2022,20221025,5 Vista Avenue,BALGOWLAH HEIGHTS,NSW,2093,-33.8091354,151.261368,4,2,2,House,House,False,1277,m2,False
2018078954,listing,/5-58-kenneth-road-manly-vale-nsw-2093-2018078954,850000,is-sold,Sold by private treaty 12 Oct 2022,20221012,5/58 Kenneth Road,MANLY VALE,NSW,2093,-33.7866859,151.2695,2,1,1,ApartmentUnitFlat,Apartment / Unit / Flat,False,0,m2,False
2018085783,listing,/22-kitchener-street-balgowlah-nsw-2093-2018085783,2425000,is-sold,Sold by private treaty 14 Oct 2022,20221014,22 Kitchener Street,BALGOWLAH,NSW,2093,-33.78964,151.2594,4,2,2,House,House,False,0,m2,False
2018085848,listing,/23a-serpentine-crescent-north-balgowlah-nsw-2093-2018085848,2900000,is-sold,Sold prior to auction 27 Oct 2022,20221027,23A Serpentine Crescent,NORTH BALGOWLAH,NSW,2093,-33.79176,151.252167,4,3,2,House,House,False,632,m2,False
2018097086,listing,/35-beatty-street-balgowlah-heights-nsw-2093-2018097086,6675000,is-sold,Sold prior to auction 28 Oct 2022,20221028,35 Beatty Street,BALGOWLAH HEIGHTS,NSW,2093,-33.80323,151.268768,5,4,3,House,House,False,0,m2,False
2018099047,listing,/38-8-koorala-street-manly-vale-nsw-2093-2018099047,1455000,is-sold,Sold prior to auction 17 Oct 2022,20221017,38/8 Koorala Street,MANLY VALE,NSW,2093,-33.784687,151.267548,3,2,2,ApartmentUnitFlat,Apartment / Unit / Flat,False,0,m2,False
2018099678,listing,/63-cutler-road-clontarf-nsw-2093-2018099678,Price Withheld,is-sold,Sold at auction 28 Oct 2022,20221028,63 Cutler Road,CLONTARF,NSW,2093,-33.81102,151.257828,3,1,-,House,House,False,0,m2,False
2018105270,listing,/13-kenneth-road-manly-vale-nsw-2093-2018105270,1950000,is-sold,Sold prior to auction 25 Oct 2022,20221025,13 Kenneth Road,MANLY VALE,NSW,2093,-33.7864838,151.264511,4,2,2,House,House,False,0,m2,False
2018130835,listing,/46-peronne-avenue-clontarf-nsw-2093-2018130835,4000000,is-sold,Sold prior to auction 18 Oct 2022,20221018,46 Peronne Avenue,CLONTARF,NSW,2093,-33.80269,151.254913,5,3,3,House,House,False,563,m2,False
2018138743,listing,/9-woolgoolga-street-north-balgowlah-nsw-2093-2018138743,3510000,is-sold,Sold by private treaty 24 Oct 2022,20221024,9 Woolgoolga Street,NORTH BALGOWLAH,NSW,2093,-33.7867775,151.248611,5,3,2,House,House,False,0,m2,False
2018144445,listing,/3-430-sydney-road-balgowlah-nsw-2093-2018144445,1175000,is-sold,Sold by private treaty 28 Oct 2022,20221028,3/430 Sydney Road,BALGOWLAH,NSW,2093,-33.7936478,151.260086,2,1,1,ApartmentUnitFlat,Apartment / Unit / Flat,False,0,m2,False
2017763043,listing,/4a-winsome-avenue-north-balgowlah-nsw-2093-2017763043,2800000,is-sold,Sold by private treaty 16 Sep 2022,20220916,4A Winsome Avenue,NORTH BALGOWLAH,NSW,2093,-33.788517,151.252167,7,3,2,House,House,False,867,m2,False
2017784117,listing,/6-4-campbell-parade-manly-vale-nsw-2093-2017784117,980000,is-sold,Sold by private treaty 21 Sep 2022,20220921,6/4 Campbell Parade,MANLY VALE,NSW,2093,-33.78072,151.269943,2,2,1,ApartmentUnitFlat,Apartment / Unit / Flat,False,0,m2,False
2017864145,listing,/2a-west-street-balgowlah-nsw-2093-2017864145,Price Withheld,is-sold,Sold by private treaty 07 Oct 2022,20221007,2A West Street,BALGOWLAH,NSW,2093,-33.80069,151.259766,5,4,2,House,House,False,1064,m2,False
2017921007,listing,/8-301-condamine-street-manly-vale-nsw-2093-2017921007,935000,is-sold,Sold by private treaty 16 Sep 2022,20220916,8/301 Condamine Street,MANLY VALE,NSW,2093,-33.7845764,151.266846,2,2,1,ApartmentUnitFlat,Apartment / Unit / Flat,False,0,m2,False
2018007775,listing,/4-gordon-street-clontarf-nsw-2093-2018007775,5500000,is-sold,Sold prior to auction 06 Oct 2022,20221006,4 Gordon Street,CLONTARF,NSW,2093,-33.8053474,151.255585,4,3,2,House,House,False,810,m2,False
2018011170,listing,/1-299-condamine-street-manly-vale-nsw-2093-2018011170,700000,is-sold,Sold by private treaty 17 Sep 2022,20220917,1/299 Condamine Street,MANLY VALE,NSW,2093,-33.7847137,151.266754,1,1,1,ApartmentUnitFlat,Apartment / Unit / Flat,False,0,m2,False
2018011488,listing,/81-boyle-street-balgowlah-nsw-2093-2018011488,Price Withheld,is-sold,Sold by private treaty 19 Sep 2022,20220919,81 Boyle Street,BALGOWLAH,NSW,2093,-33.79075,151.267609,4,2,2,House,House,False,410,m2,False
2018013713,listing,/22-dobroyd-road-balgowlah-heights-nsw-2093-2018013713,4650000,is-sold,Sold by private treaty 21 Sep 2022,20220921,22 Dobroyd Road,BALGOWLAH HEIGHTS,NSW,2093,-33.80673,151.26387,5,3,2,House,House,False,639,m2,False
2018027687,listing,/7-west-street-balgowlah-nsw-2093-2018027687,7030000,is-sold,Sold at auction 17 Sep 2022,20220917,7 West Street,BALGOWLAH,NSW,2093,-33.799778,151.258865,5,3,2,House,House,False,961,m2,False
2018040404,listing,/77a-condamine-street-balgowlah-heights-nsw-2093-2018040404,2035000,is-sold,Sold by private treaty 19 Sep 2022,20220919,77A Condamine Street,BALGOWLAH HEIGHTS,NSW,2093,-33.8034859,151.262589,3,2,1,House,House,False,354,m2,False
2018043370,listing,/4-60-62-gordon-street-manly-vale-nsw-2093-2018043370,Price Withheld,is-sold,Sold by private treaty 06 Oct 2022,20221006,4/60-62 Gordon Street,MANLY VALE,NSW,2093,-33.781456,151.268326,2,1,1,ApartmentUnitFlat,Apartment / Unit / Flat,False,0,m2,False
2018043407,listing,/31-ernest-street-balgowlah-heights-nsw-2093-2018043407,Price Withheld,is-sold,Sold prior to auction 11 Oct 2022,20221011,31 Ernest Street,BALGOWLAH HEIGHTS,NSW,2093,-33.8052254,151.26236,3,2,2,House,House,False,576,m2,False
2018053042,listing,/76-beatrice-street-balgowlah-heights-nsw-2093-2018053042,Price Withheld,is-sold,Sold prior to auction 29 Sep 2022,20220929,76 Beatrice Street,BALGOWLAH HEIGHTS,NSW,2093,-33.80326,151.257126,3,1,1,House,House,False,518,m2,False
2018055400,listing,/11-3-fairway-close-manly-vale-nsw-2093-2018055400,790000,is-sold,Sold by private treaty 29 Sep 2022,20220929,11/3 Fairway Close,MANLY VALE,NSW,2093,-33.78656,151.274445,2,1,1,ApartmentUnitFlat,Apartment / Unit / Flat,False,0,m2,False
2018055513,listing,/6-106-condamine-street-balgowlah-nsw-2093-2018055513,1200000,is-sold,Sold by private treaty 07 Oct 2022,20221007,6/106 Condamine Street,BALGOWLAH,NSW,2093,-33.7949867,151.26506,3,2,1,ApartmentUnitFlat,Apartment / Unit / Flat,False,0,m2,False
2018056004,listing,/14-horning-parade-manly-vale-nsw-2093-2018056004,2660000,is-sold,Sold at auction 08 Oct 2022,20221008,14 Horning Parade,MANLY VALE,NSW,2093,-33.7845726,151.264236,4,2,2,House,House,False,620,m2,False
2018057857,listing,/3-ethel-street-balgowlah-nsw-2093-2018057857,3100000,is-sold,Sold prior to auction 05 Oct 2022,20221005,3 Ethel Street,BALGOWLAH,NSW,2093,-33.7984123,151.254578,4,2,2,House,House,False,518,m2,False
2018060527,listing,/3-45-49-campbell-parade-manly-vale-nsw-2093-2018060527,865000,is-sold,Sold by private treaty 16 Sep 2022,20220916,3/45-49 Campbell Parade,MANLY VALE,NSW,2093,-33.7812653,151.269287,2,1,1,ApartmentUnitFlat,Apartment / Unit / Flat,False,0,m2,False
2018074054,listing,/703-3-sylvan-avenue-balgowlah-nsw-2093-2018074054,3450000,is-sold,Sold by private treaty 26 Sep 2022,20220926,703/3 Sylvan Avenue,BALGOWLAH,NSW,2093,-33.79304,151.2632,3,2,2,ApartmentUnitFlat,Apartment / Unit / Flat,False,0,m2,False
2018096871,listing,/42-curban-street-balgowlah-heights-nsw-2093-2018096871,4650000,is-sold,Sold by private treaty 06 Oct 2022,20221006,42 Curban Street,BALGOWLAH HEIGHTS,NSW,2093,-33.8056221,151.26622,4,3,2,House,House,False,727,m2,False
2017828651,listing,/3-1-brighton-street-balgowlah-nsw-2093-2017828651,1800000,is-sold,Sold by private treaty 02 Sep 2022,20220902,3/1 Brighton Street,BALGOWLAH,NSW,2093,-33.79231,151.259537,3,2,2,Townhouse,Townhouse,False,145,m2,False
2017860233,listing,/54-lodge-street-balgowlah-nsw-2093-2017860233,Price Withheld,is-sold,Sold by private treaty 29 Aug 2022,20220829,54 Lodge Street,BALGOWLAH,NSW,2093,-33.79022,151.261871,4,3,2,House,House,False,0,m2,False
2017862279,listing,/1-adrian-place-balgowlah-heights-nsw-2093-2017862279,3800000,is-sold,Sold by private treaty 03 Sep 2022,20220903,1 Adrian Place,BALGOWLAH HEIGHTS,NSW,2093,-33.807888,151.261185,5,3,3,House,House,False,626,m2,False
2017869676,listing,/5-8-campbell-parade-manly-vale-nsw-2093-2017869676,550000,is-sold,Sold by private treaty 02 Sep 2022,20220902,5/8 Campbell Parade,MANLY VALE,NSW,2093,-33.78066,151.26947,1,1,1,ApartmentUnitFlat,Apartment / Unit / Flat,False,0,m2,False
2017870989,listing,/71a-wanganella-street-balgowlah-nsw-2093-2017870989,Price Withheld,is-sold,Sold by private treaty 09 Sep 2022,20220909,71a Wanganella Street,BALGOWLAH,NSW,2093,-33.79385,151.257721,4,2,2,House,House,False,445,m2,False
2017874476,listing,/32-bungaloe-avenue-balgowlah-nsw-2093-2017874476,2165000,is-sold,Sold by private treaty 07 Sep 2022,20220907,32 Bungaloe Avenue,BALGOWLAH,NSW,2093,-33.80116,151.262726,3,1,1,House,House,False,0,m2,False
2017890870,listing,/12-allenby-street-clontarf-nsw-2093-2017890870,Price Withheld,is-sold,Sold by private treaty 02 Sep 2022,20220902,12 Allenby Street,CLONTARF,NSW,2093,-33.80759,151.254166,5,3,2,House,House,False,533,m2,False
2017915027,listing,/3-16-18-koorala-street-manly-vale-nsw-2093-2017915027,1240000,is-sold,Sold by private treaty 08 Sep 2022,20220908,3/16-18 Koorala Street,MANLY VALE,NSW,2093,-33.785244,151.269287,3,1,1,ApartmentUnitFlat,Apartment / Unit / Flat,False,0,m2,False
2017944469,listing,/5-abingdon-street-north-balgowlah-nsw-2093-2017944469,2100000,is-sold,Sold by private treaty 13 Sep 2022,20220913,5 Abingdon Street,NORTH BALGOWLAH,NSW,2093,-33.78841,151.257141,4,2,1,House,House,False,669,m2,False
2017946146,listing,/2-coral-street-balgowlah-nsw-2093-2017946146,2350000,is-sold,Sold by private treaty 07 Sep 2022,20220907,2 Coral Street,BALGOWLAH,NSW,2093,-33.7975769,151.2538,3,2,2,House,House,False,0,m2,False
2017970421,listing,/4-kitchener-street-balgowlah-nsw-2093-2017970421,1900000,is-sold,Sold prior to auction 02 Sep 2022,20220902,4 Kitchener Street,BALGOWLAH,NSW,2093,-33.7898827,151.260544,3,1,2,House,House,False,0,m2,False
2017993221,listing,/6-121-griffiths-street-balgowlah-nsw-2093-2017993221,1042000,is-sold,Sold by private treaty 01 Sep 2022,20220901,6/121 Griffiths Street,BALGOWLAH,NSW,2093,-33.79222,151.2641,2,1,1,ApartmentUnitFlat,Apartment / Unit / Flat,False,0,m2,False
2017993256,listing,/8-21-25-quirk-road-manly-vale-nsw-2093-2017993256,920000,is-sold,Sold at auction 03 Sep 2022,20220903,8/21-25 Quirk Road,MANLY VALE,NSW,2093,-33.78543,151.270126,1,1,1,ApartmentUnitFlat,Apartment / Unit / Flat,False,114,m2,False
2017999436,listing,/2-waratah-street-balgowlah-nsw-2093-2017999436,4005000,is-sold,Sold prior to auction 02 Sep 2022,20220902,2 Waratah Street,BALGOWLAH,NSW,2093,-33.79436,151.268417,5,4,3,House,House,False,0,m2,False
2018005056,listing,/34-35-37-quirk-road-manly-vale-nsw-2093-2018005056,1325000,is-sold,Sold prior to auction 02 Sep 2022,20220902,34/35-37 Quirk Road,MANLY VALE,NSW,2093,-33.7842445,151.269669,2,2,1,ApartmentUnitFlat,Apartment / Unit / Flat,False,0,m2,False
2018012860,listing,/29-eileen-street-north-balgowlah-nsw-2093-2018012860,2850000,is-sold,Sold by private treaty 13 Sep 2022,20220913,29 Eileen Street,NORTH BALGOWLAH,NSW,2093,-33.7888374,151.248062,4,2,2,House,House,False,0,m2,False
2018025832,listing,/3-5-brighton-street-balgowlah-nsw-2093-2018025832,2070000,is-sold,Sold by private treaty 09 Sep 2022,20220909,3/5 Brighton Street,BALGOWLAH,NSW,2093,-33.7921867,151.259216,3,2,2,Townhouse,Townhouse,False,0,m2,False
2018027093,listing,/11-36-40-gordon-street-manly-vale-nsw-2093-2018027093,Price Withheld,is-sold,Sold prior to auction 09 Sep 2022,20220909,11/36-40 Gordon Street,MANLY VALE,NSW,2093,-33.78161,151.27034,2,1,1,ApartmentUnitFlat,Apartment / Unit / Flat,False,0,m2,False
2018065441,listing,/4-21-25-quirk-road-manly-vale-nsw-2093-2018065441,885000,is-sold,Sold by private treaty 13 Sep 2022,20220913,4/21-25 Quirk Road,MANLY VALE,NSW,2093,-33.78543,151.270126,1,1,1,ApartmentUnitFlat,Apartment / Unit / Flat,False,0,m2,False
2018066477,listing,/11-seebrees-street-manly-vale-nsw-2093-2018066477,3350000,is-sold,Sold by private treaty 14 Sep 2022,20220914,11 Seebrees Street,MANLY VALE,NSW,2093,-33.783268,151.262863,4,3,3,House,House,False,0,m2,False
2017807178,listing,/4-linkmead-avenue-clontarf-nsw-2093-2017807178,8950000,is-sold,Sold by private treaty 25 Aug 2022,20220825,4 Linkmead Avenue,CLONTARF,NSW,2093,-33.80209,151.250931,5,3,2,House,House,False,796,m2,False
2017883917,listing,/2-5-fairway-close-manly-vale-nsw-2093-2017883917,800000,is-sold,Sold by private treaty 11 Aug 2022,20220811,2/5 Fairway Close,MANLY VALE,NSW,2093,-33.7869949,151.2745,2,1,1,ApartmentUnitFlat,Apartment / Unit / Flat,False,0,m2,False
2017892153,listing,/7-145-woodland-street-balgowlah-nsw-2093-2017892153,Price Withheld,is-sold,Sold by private treaty 09 Aug 2022,20220809,7/145 Woodland Street,BALGOWLAH,NSW,2093,-33.79697,151.261749,2,1,1,ApartmentUnitFlat,Apartment / Unit / Flat,False,0,m2,False
2017904145,listing,/85-8-koorala-street-manly-vale-nsw-2093-2017904145,1140000,is-sold,Sold by private treaty 11 Aug 2022,20220811,85/8 Koorala Street,MANLY VALE,NSW,2093,-33.78459,151.268219,2,2,2,ApartmentUnitFlat,Apartment / Unit / Flat,False,0,m2,False
2017920506,listing,/119-wanganella-street-balgowlah-nsw-2093-2017920506,2200000,is-sold,Sold by private treaty 08 Aug 2022,20220808,119 Wanganella Street,BALGOWLAH,NSW,2093,-33.790535,151.258545,3,1,1,House,House,False,0,m2,False
2017927162,listing,/31-amiens-road-clontarf-nsw-2093-2017927162,5000000,is-sold,Sold by private treaty 22 Aug 2022,20220822,31 Amiens Road,CLONTARF,NSW,2093,-33.8076134,151.254578,5,4,2,House,House,False,439,m2,False
2017930632,listing,/6-5-cross-street-balgowlah-nsw-2093-2017930632,730000,is-sold,Sold by private treaty 18 Aug 2022,20220818,6/5 Cross Street,BALGOWLAH,NSW,2093,-33.7894363,151.264862,2,1,1,ApartmentUnitFlat,Apartment / Unit / Flat,False,0,m2,False
2017937671,listing,/4-76-wanganella-street-balgowlah-nsw-2093-2017937671,1005000,is-sold,Sold by private treaty 17 Aug 2022,20220817,4/76 Wanganella Street,BALGOWLAH,NSW,2093,-33.79351,151.258453,2,1,1,ApartmentUnitFlat,Apartment / Unit / Flat,False,0,m2,False
2017941485,listing,/127-campbell-parade-manly-vale-nsw-2093-2017941485,2800000,is-sold,Sold at auction 13 Aug 2022,20220813,127 Campbell Parade,MANLY VALE,NSW,2093,-33.77995,151.261459,4,2,3,House,House,False,0,m2,False
2017942837,listing,/14-serpentine-crescent-north-balgowlah-nsw-2093-2017942837,2850000,is-sold,Sold by private treaty 27 Aug 2022,20220827,14 Serpentine Crescent,NORTH BALGOWLAH,NSW,2093,-33.7903748,151.252716,3,2,2,House,House,False,731,m2,False
2017946634,listing,/34-coramba-street-north-balgowlah-nsw-2093-2017946634,2140000,is-sold,Sold at auction 13 Aug 2022,20220813,34 Coramba Street,NORTH BALGOWLAH,NSW,2093,-33.78615,151.246475,4,2,1,House,House,False,531,m2,False
2017946789,listing,/5-adrian-place-balgowlah-heights-nsw-2093-2017946789,3650000,is-sold,Sold at auction 23 Aug 2022,20220823,5 Adrian Place,BALGOWLAH HEIGHTS,NSW,2093,-33.808548,151.261017,4,2,2,House,House,False,0,m2,False
2017950827,listing,/36-eileen-street-north-balgowlah-nsw-2093-2017950827,2300000,is-sold,Sold by private treaty 22 Aug 2022,20220822,36 Eileen Street,NORTH BALGOWLAH,NSW,2093,-33.7880554,151.247971,3,1,1,House,House,False,486,m2,False
2017951530,listing,/3-14-white-street-balgowlah-nsw-2093-2017951530,1355000,is-sold,Sold prior to auction 11 Aug 2022,20220811,3/14 White Street,BALGOWLAH,NSW,2093,-33.7965851,151.26506,3,1,1,ApartmentUnitFlat,Apartment / Unit / Flat,False,117,m2,False
2017961145,listing,/41-curban-street-balgowlah-heights-nsw-2093-2017961145,4750000,is-sold,Sold by private treaty 18 Aug 2022,20220818,41 Curban Street,BALGOWLAH HEIGHTS,NSW,2093,-33.8060722,151.264923,4,3,2,House,House,False,556,m2,False
2017964961,listing,/2b-pitt-street-balgowlah-nsw-2093-2017964961,1570000,is-sold,Sold by private treaty 16 Aug 2022,20220816,2B Pitt Street,BALGOWLAH,NSW,2093,-33.7893677,151.264511,3,2,2,Townhouse,Townhouse,False,0,m2,False
2017965882,listing,/10-289-condamine-street-manly-vale-nsw-2093-2017965882,750000,is-sold,Sold prior to auction 19 Aug 2022,20220819,10/289 Condamine Street,MANLY VALE,NSW,2093,-33.7852249,151.266647,1,1,1,ApartmentUnitFlat,Apartment / Unit / Flat,False,101,m2,False
2017979784,listing,/6-moore-street-clontarf-nsw-2093-2017979784,4150000,is-sold,Sold prior to auction 10 Aug 2022,20220810,6 Moore Street,CLONTARF,NSW,2093,-33.8095932,151.257813,3,2,1,House,House,False,500,m2,False
2017998160,listing,/13-cormack-street-balgowlah-nsw-2093-2017998160,3100000,is-sold,Sold prior to auction 17 Aug 2022,20220817,13 Cormack Street,BALGOWLAH,NSW,2093,-33.7925148,151.26619,3,2,2,House,House,False,277,m2,False
2018048628,listing,/31-west-street-balgowlah-nsw-2093-2018048628,Price Withheld,is-sold,Sold by private treaty 15 Aug 2022,20220815,31 West Street,BALGOWLAH,NSW,2093,-33.797493,151.259308,5,3,3,House,House,False,683,m2,False
2017707996,listing,/165-condamine-street-balgowlah-nsw-2093-2017707996,3450000,is-sold,Sold by private treaty 05 Aug 2022,20220805,165 Condamine Street,BALGOWLAH,NSW,2093,-33.79715,151.263962,3,2,4,House,House,False,569,m2,False
2017846181,listing,/7a-nield-avenue-balgowlah-nsw-2093-2017846181,4110000,is-sold,Sold by private treaty 27 Jul 2022,20220727,7A Nield Avenue,BALGOWLAH,NSW,2093,-33.7975731,151.259949,5,3,2,House,House,False,0,m2,False
2017846645,listing,/1-11-rickard-street-balgowlah-nsw-2093-2017846645,770000,is-sold,Sold by private treaty 25 Jul 2022,20220725,1/11 Rickard Street,BALGOWLAH,NSW,2093,-33.7929764,151.259171,2,1,1,ApartmentUnitFlat,Apartment / Unit / Flat,False,0,m2,False
2017847590,listing,/6-285-condamine-street-manly-vale-nsw-2093-2017847590,1025000,is-sold,Sold at auction 22 Jul 2022,20220722,6/285 Condamine Street,MANLY VALE,NSW,2093,-33.78546,151.266556,2,1,1,ApartmentUnitFlat,Apartment / Unit / Flat,False,0,m2,False
2017853322,listing,/12-kitchener-street-balgowlah-nsw-2093-2017853322,2160000,is-sold,Sold at auction 03 Aug 2022,20220803,12 Kitchener Street,BALGOWLAH,NSW,2093,-33.7897835,151.26,5,2,1,House,House,False,0,m2,False
2017873054,listing,/21a-condover-street-north-balgowlah-nsw-2093-2017873054,3200000,is-sold,Sold by private treaty 22 Jul 2022,20220722,21A Condover Street,NORTH BALGOWLAH,NSW,2093,-33.78778,151.259048,4,2,2,House,House,False,0,m2,False
2017887577,listing,/5-garraween-avenue-north-balgowlah-nsw-2093-2017887577,3710000,is-sold,Sold by private treaty 22 Jul 2022,20220722,5 Garraween Avenue,NORTH BALGOWLAH,NSW,2093,-33.78507,151.248657,5,2,2,House,House,False,464,m2,False
2017891122,listing,/3-gertrude-street-balgowlah-heights-nsw-2093-2017891122,6600000,is-sold,Sold by private treaty 26 Jul 2022,20220726,3 Gertrude Street,BALGOWLAH HEIGHTS,NSW,2093,-33.80288,151.258,5,3,5,House,House,False,923,m2,False
2017893156,listing,/43-burchmore-road-manly-vale-nsw-2093-2017893156,2150000,is-sold,Sold at auction 23 Jul 2022,20220723,43 Burchmore Road,MANLY VALE,NSW,2093,-33.78696,151.272385,3,1,1,House,House,False,407,m2,False
2017896986,listing,/8-32-serpentine-crescent-north-balgowlah-nsw-2093-2017896986,815000,is-sold,Sold by private treaty 02 Aug 2022,20220802,8/32 Serpentine Crescent,NORTH BALGOWLAH,NSW,2093,-33.79122,151.2532,2,1,1,ApartmentUnitFlat,Apartment / Unit / Flat,False,0,m2,False
2017916638,listing,/9-curban-street-balgowlah-heights-nsw-2093-2017916638,3005000,is-sold,Sold by private treaty 01 Aug 2022,20220801,9 Curban Street,BALGOWLAH HEIGHTS,NSW,2093,-33.80559,151.262222,4,2,2,House,House,False,746,m2,False
2017918771,listing,/10-condamine-street-balgowlah-heights-nsw-2093-2017918771,3320000,is-sold,Sold by private treaty 01 Aug 2022,20220801,10 Condamine Street,BALGOWLAH HEIGHTS,NSW,2093,-33.80437,151.263092,4,2,2,House,House,False,0,m2,False
2017923122,listing,/2-448-sydney-road-balgowlah-nsw-2093-2017923122,656000,is-sold,Sold prior to auction 29 Jul 2022,20220729,2/448 Sydney Road,BALGOWLAH,NSW,2093,-33.7940674,151.258591,1,1,1,ApartmentUnitFlat,Apartment / Unit / Flat,False,0,m2,False
2017927484,listing,/4-5-cross-street-balgowlah-nsw-2093-2017927484,590000,is-sold,Sold by private treaty 01 Aug 2022,20220801,4/5 Cross Street,BALGOWLAH,NSW,2093,-33.7894363,151.264862,1,1,-,ApartmentUnitFlat,Apartment / Unit / Flat,False,0,m2,False
2017931229,listing,/31-wanganella-street-balgowlah-nsw-2093-2017931229,4250000,is-sold,Sold by private treaty 22 Jul 2022,20220722,31 Wanganella Street,BALGOWLAH,NSW,2093,-33.7978935,151.256943,4,3,2,House,House,False,696,m2,False
2017950438,listing,/1-20-kitchener-street-balgowlah-nsw-2093-2017950438,2135000,is-sold,Sold by private treaty 05 Aug 2022,20220805,1/20 Kitchener Street,BALGOWLAH,NSW,2093,-33.7896576,151.259491,3,2,2,House,House,False,0,m2,False
2017950453,listing,/45-rickard-street-balgowlah-nsw-2093-2017950453,3150000,is-sold,Sold prior to auction 27 Jul 2022,20220727,45 Rickard Street,BALGOWLAH,NSW,2093,-33.79077,151.259628,3,2,2,House,House,False,538,m2,False
2017950775,listing,/37-fisher-street-balgowlah-heights-nsw-2093-2017950775,4200000,is-sold,Sold by private treaty 06 Aug 2022,20220806,37 Fisher Street,BALGOWLAH HEIGHTS,NSW,2093,-33.80551,151.268066,5,3,3,House,House,False,710,m2,False
2017987224,listing,/165-condamine-street-balgowlah-nsw-2093-2017987224,3450000,is-sold,Sold by private treaty 05 Aug 2022,20220805,165 Condamine Street,BALGOWLAH,NSW,2093,-33.7971077,151.263962,3,2,4,House,House,False,569,m2,False
2017996644,listing,/1-142-griffiths-street-balgowlah-nsw-2093-2017996644,865000,is-sold,Sold by private treaty 03 Aug 2022,20220803,1/142 Griffiths Street,BALGOWLAH,NSW,2093,-33.7912521,151.261932,2,1,1,ApartmentUnitFlat,Apartment / Unit / Flat,False,122,m2,False
2017535276,listing,/5-37-lodge-street-balgowlah-nsw-2093-2017535276,1005000,is-sold,Sold by private treaty 25 Jun 2022,20220625,5/37 Lodge Street,BALGOWLAH,NSW,2093,-33.79082,151.262177,2,1,1,ApartmentUnitFlat,Apartment / Unit / Flat,False,0,m2,False
2017815184,listing,/12-6-campbell-parade-manly-vale-nsw-2093-2017815184,830000,is-sold,Sold by private treaty 30 Jun 2022,20220630,12/6 Campbell Parade,MANLY VALE,NSW,2093,-33.7807159,151.2697,2,1,1,ApartmentUnitFlat,Apartment / Unit / Flat,False,0,m2,False
2017830727,listing,/16-illalong-avenue-north-balgowlah-nsw-2093-2017830727,2480000,is-sold,Sold by private treaty 21 Jun 2022,20220621,16 Illalong Avenue,NORTH BALGOWLAH,NSW,2093,-33.7840767,151.2501,2,1,1,House,House,False,0,m2,False
2017831243,listing,/10-lower-beach-street-balgowlah-nsw-2093-2017831243,Price Withheld,is-sold,Sold by private treaty 20 Jun 2022,20220620,10 Lower Beach Street,BALGOWLAH,NSW,2093,-33.798645,151.262589,3,2,1,House,House,False,689,m2,False
2017832068,listing,/29-ethel-street-balgowlah-nsw-2093-2017832068,3650000,is-sold,Sold by private treaty 28 Jun 2022,20220628,29 Ethel Street,BALGOWLAH,NSW,2093,-33.7981262,151.25267,4,3,3,House,House,False,0,m2,False
2017834981,listing,/10-228-condamine-street-manly-vale-nsw-2093-2017834981,Price Withheld,is-sold,Sold prior to auction 01 Jul 2022,20220701,10/228 Condamine Street,MANLY VALE,NSW,2093,-33.78579,151.267242,2,2,2,ApartmentUnitFlat,Apartment / Unit / Flat,False,0,m2,False
2017842789,listing,/8-434-sydney-road-balgowlah-nsw-2093-2017842789,676000,is-sold,Sold by private treaty 28 Jun 2022,20220628,8/434 Sydney Road,BALGOWLAH,NSW,2093,-33.79347,151.259979,2,1,1,ApartmentUnitFlat,Apartment / Unit / Flat,False,65,m2,False
2017844060,listing,/4-27-boyle-street-balgowlah-nsw-2093-2017844060,1501000,is-sold,Sold at auction 25 Jun 2022,20220625,4/27 Boyle Street,BALGOWLAH,NSW,2093,-33.7950935,151.266678,2,1,2,Townhouse,Townhouse,False,0,m2,False
2017846071,listing,/1-149-balgowlah-road-balgowlah-nsw-2093-2017846071,1850000,is-sold,Sold at auction 28 Jun 2022,20220628,1/149 Balgowlah Road,BALGOWLAH,NSW,2093,-33.79089,151.268784,3,1,1,House,House,False,0,m2,False
2017854797,listing,/2-109-griffiths-street-balgowlah-nsw-2093-2017854797,1800000,is-sold,Sold prior to auction 01 Jul 2022,20220701,2/109 Griffiths Street,BALGOWLAH,NSW,2093,-33.7923546,151.2651,3,2,1,ApartmentUnitFlat,Apartment / Unit / Flat,False,0,m2,False
2017855956,listing,/122-griffiths-street-balgowlah-nsw-2093-2017855956,3500000,is-sold,Sold by private treaty 21 Jul 2022,20220721,122 Griffiths Street,BALGOWLAH,NSW,2093,-33.79169,151.264374,2,1,1,House,House,False,765,m2,False
2017861819,listing,/3-58-kenneth-road-manly-vale-nsw-2093-2017861819,900000,is-sold,Sold by private treaty 05 Jul 2022,20220705,3/58 Kenneth Road,MANLY VALE,NSW,2093,-33.7866325,151.269516,2,1,1,ApartmentUnitFlat,Apartment / Unit / Flat,False,0,m2,False
2017862495,listing,/7-lombard-street-balgowlah-nsw-2093-2017862495,3125000,is-sold,Sold prior to auction 01 Jul 2022,20220701,7 Lombard Street,BALGOWLAH,NSW,2093,-33.7927246,151.262146,3,2,1,House,House,False,0,m2,False
2017862993,listing,/52-woodbine-street-north-balgowlah-nsw-2093-2017862993,2250000,is-sold,Sold prior to auction 15 Jul 2022,20220715,52 Woodbine Street,NORTH BALGOWLAH,NSW,2093,-33.786068,151.250381,4,2,1,House,House,False,873,m2,False
2017869927,listing,/23-barrabooka-street-clontarf-nsw-2093-2017869927,5275000,is-sold,Sold at auction 07 Jul 2022,20220707,23 Barrabooka Street,CLONTARF,NSW,2093,-33.8118362,151.261337,4,3,2,House,House,False,538,m2,False
2017874593,listing,/22-ernest-street-balgowlah-heights-nsw-2093-2017874593,3000000,is-sold,Sold prior to auction 06 Jul 2022,20220706,22 Ernest Street,BALGOWLAH HEIGHTS,NSW,2093,-33.80493,151.263092,4,2,2,House,House,False,590,m2,False
2017875831,listing,/3-4-white-street-balgowlah-nsw-2093-2017875831,1230000,is-sold,Sold at auction 09 Jul 2022,20220709,3/4 White Street,BALGOWLAH,NSW,2093,-33.79673,151.2661,2,1,2,ApartmentUnitFlat,Apartment / Unit / Flat,False,0,m2,False
2017879243,listing,/409-2-sylvan-avenue-balgowlah-nsw-2093-2017879243,2100000,is-sold,Sold prior to auction 24 Jun 2022,20220624,409/2 Sylvan Avenue,BALGOWLAH,NSW,2093,-33.79272,151.263931,2,2,1,ApartmentUnitFlat,Apartment / Unit / Flat,False,0,m2,False
2017900040,listing,/8-40-burchmore-road-manly-vale-nsw-2093-2017900040,1340000,is-sold,Sold by private treaty 21 Jul 2022,20220721,8/40 Burchmore Road,MANLY VALE,NSW,2093,-33.785984,151.273438,3,1,1,ApartmentUnitFlat,Apartment / Unit / Flat,False,133,m2,False
2017910538,listing,/71-8-koorala-street-manly-vale-nsw-2093-2017910538,1150000,is-sold,Sold by private treaty 24 Jun 2022,20220624,71/8 Koorala Street,MANLY VALE,NSW,2093,-33.7842979,151.267654,2,2,1,ApartmentUnitFlat,Apartment / Unit / Flat,False,0,m2,False
2017071607,listing,/1-49-seaview-street-balgowlah-nsw-2093-2017071607,Price Withheld,is-sold,Sold prior to auction 18 Jun 2022,20220618,1/49 Seaview Street,BALGOWLAH,NSW,2093,-33.796978,151.258316,3,1,1,House,House,False,0,m2,False
2017669448,listing,/141-balgowlah-road-balgowlah-nsw-2093-2017669448,2700000,is-sold,Sold by private treaty 17 Jun 2022,20220617,141 Balgowlah Road,BALGOWLAH,NSW,2093,-33.79104,151.269333,3,2,2,House,House,False,0,m2,False
2017687466,listing,/37-lower-beach-street-balgowlah-nsw-2093-2017687466,3600000,is-sold,Sold prior to auction 26 May 2022,20220526,37 Lower Beach Street,BALGOWLAH,NSW,2093,-33.79869,151.260025,5,3,4,House,House,False,620,m2,False
2017700733,listing,/12-angle-street-balgowlah-nsw-2093-2017700733,3820000,is-sold,Sold prior to auction 16 Jun 2022,20220616,12 Angle Street,BALGOWLAH,NSW,2093,-33.7932129,151.262009,4,2,1,House,House,False,0,m2,False
2017750383,listing,/2-lombard-street-balgowlah-nsw-2093-2017750383,3220000,is-sold,Sold by private treaty 18 Jun 2022,20220618,2 Lombard Street,BALGOWLAH,NSW,2093,-33.79234,151.2625,3,3,1,House,House,False,0,m2,False
2017761769,listing,/10-7-fairway-close-manly-vale-nsw-2093-2017761769,1000000,is-sold,Sold by private treaty 10 Jun 2022,20220610,10/7 Fairway Close,MANLY VALE,NSW,2093,-33.7872467,151.27359,2,1,1,ApartmentUnitFlat,Apartment / Unit / Flat,False,0,m2,False
2017766796,listing,/3-1-rickard-street-balgowlah-nsw-2093-2017766796,905000,is-sold,Sold by private treaty 08 Jun 2022,20220608,3/1 Rickard Street,BALGOWLAH,NSW,2093,-33.79381,151.258957,2,1,1,ApartmentUnitFlat,Apartment / Unit / Flat,False,0,m2,False
2017776821,listing,/1-7-9-quirk-road-manly-vale-nsw-2093-2017776821,1150000,is-sold,Sold by private treaty 31 May 2022,20220531,1/7-9 Quirk Road,MANLY VALE,NSW,2093,-33.78645,151.269882,2,2,1,ApartmentUnitFlat,Apartment / Unit / Flat,False,0,m2,False
2017779908,listing,/100-clontarf-street-north-balgowlah-nsw-2093-2017779908,2350000,is-sold,Sold prior to auction 27 May 2022,20220527,100 Clontarf Street,NORTH BALGOWLAH,NSW,2093,-33.784832,151.243073,2,1,2,House,House,False,0,m2,False
2017782656,listing,/11-295-condamine-st-manly-vale-nsw-2093-2017782656,750000,is-sold,Sold by private treaty 10 Jun 2022,20220610,11/295 Condamine St,MANLY VALE,NSW,2093,-33.784874,151.266754,1,1,1,ApartmentUnitFlat,Apartment / Unit / Flat,False,0,m2,False
2017783756,listing,/23-marinella-street-manly-vale-nsw-2093-2017783756,2275000,is-sold,Sold at auction 28 May 2022,20220528,23 Marinella Street,MANLY VALE,NSW,2093,-33.7872849,151.262146,3,3,2,House,House,False,0,m2,False
2017790655,listing,/46-beatrice-street-balgowlah-heights-nsw-2093-2017790655,5050000,is-sold,Sold by private treaty 02 Jun 2022,20220602,46 Beatrice Street,BALGOWLAH HEIGHTS,NSW,2093,-33.80547,151.257172,4,4,3,House,House,False,1037,m2,False
2017794981,listing,/1d-31-quirk-road-manly-vale-nsw-2093-2017794981,960000,is-sold,Sold by private treaty 27 May 2022,20220527,1D/31 Quirk Road,MANLY VALE,NSW,2093,-33.7845955,151.269775,2,1,1,ApartmentUnitFlat,Apartment / Unit / Flat,False,0,m2,False
2017815675,listing,/205-4-sylvan-avenue-balgowlah-nsw-2093-2017815675,2750000,is-sold,Sold at auction 08 Jun 2022,20220608,205/4 Sylvan Avenue,BALGOWLAH,NSW,2093,-33.79304,151.2632,2,2,2,ApartmentUnitFlat,Apartment / Unit / Flat,False,0,m2,False
2017816191,listing,/3-52-54-gordon-street-manly-vale-nsw-2093-2017816191,1050000,is-sold,Sold by private treaty 14 Jun 2022,20220614,3/52-54 Gordon Street,MANLY VALE,NSW,2093,-33.7815742,151.269135,2,2,1,ApartmentUnitFlat,Apartment / Unit / Flat,False,0,m2,False
2017828617,listing,/8-35-37-quirk-road-manly-vale-nsw-2093-2017828617,1440000,is-sold,Sold by private treaty 18 Jun 2022,20220618,8/35-37 Quirk Road,MANLY VALE,NSW,2093,-33.7842445,151.269669,2,2,1,ApartmentUnitFlat,Apartment / Unit / Flat,False,144,m2,False
2017830944,listing,/30-bungaloe-avenue-balgowlah-heights-nsw-2093-2017830944,3000000,is-sold,Sold at auction 18 Jun 2022,20220618,30 Bungaloe Avenue,BALGOWLAH HEIGHTS,NSW,2093,-33.8015022,151.262817,3,1,3,House,House,False,531,m2,False
2017839294,listing,/42-innes-road-manly-vale-nsw-2093-2017839294,3715000,is-sold,Sold prior to auction 17 Jun 2022,20220617,42 Innes Road,MANLY VALE,NSW,2093,-33.7837,151.271835,5,2,2,House,House,False,0,m2,False
2017840617,listing,/96a-wanganella-street-balgowlah-nsw-2093-2017840617,1970000,is-sold,Sold at auction 18 Jun 2022,20220618,96a Wanganella Street,BALGOWLAH,NSW,2093,-33.7922363,151.258759,3,1,2,House,House,False,0,m2,False
2017842612,listing,/102-8-koorala-street-manly-vale-nsw-2093-2017842612,1255000,is-sold,Sold prior to auction 14 Jun 2022,20220614,102/8 Koorala Street,MANLY VALE,NSW,2093,-33.78459,151.268219,2,2,1,ApartmentUnitFlat,Apartment / Unit / Flat,False,0,m2,False
2017579657,listing,/6a-31-quirk-road-manly-vale-nsw-2093-2017579657,660000,is-sold,Sold at auction 06 May 2022,20220506,6A/31 Quirk Road,MANLY VALE,NSW,2093,-33.7845955,151.269775,1,1,1,ApartmentUnitFlat,Apartment / Unit / Flat,False,0,m2,False
2017678480,listing,/100-bangaroo-street-north-balgowlah-nsw-2093-2017678480,3830000,is-sold,Sold at auction 12 May 2022,20220512,100 Bangaroo Street,NORTH BALGOWLAH,NSW,2093,-33.7842,151.251389,4,2,2,House,House,False,714,m2,False
2017685050,listing,/75-bangaroo-street-north-balgowlah-nsw-2093-2017685050,4120000,is-sold,Sold by private treaty 06 May 2022,20220506,75 Bangaroo Street,NORTH BALGOWLAH,NSW,2093,-33.786087,151.252274,5,4,3,House,House,False,689,m2,False
2017686923,listing,/156-condamine-street-balgowlah-nsw-2093-2017686923,1900000,is-sold,Sold by private treaty 09 May 2022,20220509,156 Condamine Street,BALGOWLAH,NSW,2093,-33.7913666,151.2657,3,2,2,House,House,False,309,m2,False
2017694821,listing,/21-228-condamine-street-manly-vale-nsw-2093-2017694821,Price Withheld,is-sold,Sold by private treaty 09 May 2022,20220509,21/228 Condamine Street,MANLY VALE,NSW,2093,-33.78579,151.267242,2,2,2,ApartmentUnitFlat,Apartment / Unit / Flat,False,0,m2,False
2017704154,listing,/2-10-bentley-street-balgowlah-nsw-2093-2017704154,1200000,is-sold,Sold prior to auction 06 May 2022,20220506,2/10 Bentley Street,BALGOWLAH,NSW,2093,-33.79514,151.265579,2,1,1,ApartmentUnitFlat,Apartment / Unit / Flat,False,0,m2,False
2017720159,listing,/8-450-sydney-road-balgowlah-nsw-2093-2017720159,965000,is-sold,Sold by private treaty 18 May 2022,20220518,8/450 Sydney Road,BALGOWLAH,NSW,2093,-33.79418,151.2584,2,1,1,ApartmentUnitFlat,Apartment / Unit / Flat,False,0,m2,False
2017728750,listing,/18-eileen-street-north-balgowlah-nsw-2093-2017728750,2900000,is-sold,Sold by private treaty 25 May 2022,20220525,18 Eileen Street,NORTH BALGOWLAH,NSW,2093,-33.78717,151.249069,4,2,1,House,House,False,0,m2,False
2017743013,listing,/5-1-lombard-street-balgowlah-nsw-2093-2017743013,2325000,is-sold,Sold by private treaty 24 May 2022,20220524,5/1 Lombard Street,BALGOWLAH,NSW,2093,-33.79283,151.262543,4,3,3,ApartmentUnitFlat,Apartment / Unit / Flat,False,0,m2,False
2017744644,listing,/6-3-pitt-street-balgowlah-nsw-2093-2017744644,950000,is-sold,Sold by private treaty 21 May 2022,20220521,6/3 Pitt Street,BALGOWLAH,NSW,2093,-33.7893066,151.264,2,1,1,ApartmentUnitFlat,Apartment / Unit / Flat,False,0,m2,False
2017750531,listing,/602-9-sylvan-avenue-balgowlah-nsw-2093-2017750531,3000000,is-sold,Sold by private treaty 25 May 2022,20220525,602/9 Sylvan Avenue,BALGOWLAH,NSW,2093,-33.79304,151.2632,3,2,2,ApartmentUnitFlat,Apartment / Unit / Flat,False,0,m2,False
2017752750,listing,/98-woodland-street-balgowlah-nsw-2093-2017752750,3925000,is-sold,Sold prior to auction 20 May 2022,20220520,98 Woodland Street,BALGOWLAH,NSW,2093,-33.7999954,151.26178,3,1,1,House,House,False,481,m2,False
2017754074,listing,/10-78-balgowlah-road-balgowlah-nsw-2093-2017754074,915000,is-sold,Sold at auction 17 May 2022,20220517,10/78 Balgowlah Road,BALGOWLAH,NSW,2093,-33.78963,151.263824,2,1,1,ApartmentUnitFlat,Apartment / Unit / Flat,False,0,m2,False
2017782570,listing,/2-2b-nield-avenue-balgowlah-nsw-2093-2017782570,2650000,is-sold,Sold by private treaty 20 May 2022,20220520,2/2B Nield Avenue,BALGOWLAH,NSW,2093,-33.7978134,151.26059,4,2,2,Townhouse,Townhouse,False,326,m2,False
2017783740,listing,/15-16-18-koorala-street-manly-vale-nsw-2093-2017783740,Price Withheld,is-sold,Sold prior to auction 24 May 2022,20220524,15/16-18 Koorala Street,MANLY VALE,NSW,2093,-33.785244,151.269287,2,1,1,ApartmentUnitFlat,Apartment / Unit / Flat,False,0,m2,False
2017797285,listing,/25-hill-street-balgowlah-nsw-2093-2017797285,2800000,is-sold,Sold prior to auction 24 May 2022,20220524,25 Hill Street,BALGOWLAH,NSW,2093,-33.79402,151.26918,3,1,2,House,House,False,0,m2,False
2017800859,listing,/16-52-54-gordon-street-manly-vale-nsw-2093-2017800859,1470000,is-sold,Sold prior to auction 23 May 2022,20220523,16/52-54 Gordon Street,MANLY VALE,NSW,2093,-33.7815742,151.269135,2,2,2,ApartmentUnitFlat,Apartment / Unit / Flat,False,0,m2,False
2017802776,listing,/6-9-fairway-close-manly-vale-nsw-2093-2017802776,930000,is-sold,Sold prior to auction 25 May 2022,20220525,6/9 Fairway Close,MANLY VALE,NSW,2093,-33.78669,151.273849,2,1,1,ApartmentUnitFlat,Apartment / Unit / Flat,False,0,m2,False
2017810708,listing,/12a-31-quirk-road-manly-vale-nsw-2093-2017810708,705000,is-sold,Sold by private treaty 17 May 2022,20220517,12A/31 Quirk Road,MANLY VALE,NSW,2093,-33.7845955,151.269775,1,1,1,ApartmentUnitFlat,Apartment / Unit / Flat,False,0,m2,False
2017951300,listing,/100-bangaroo-street-north-balgowlah-nsw-2093-2017951300,3830000,is-sold,Sold at auction 12 May 2022,20220512,100 Bangaroo Street,NORTH BALGOWLAH,NSW,2093,-33.7842,151.251389,4,2,2,House,House,False,714,m2,False
2017524746,listing,/30a-kitchener-street-balgowlah-nsw-2093-2017524746,2200000,is-sold,Sold by private treaty 04 May 2022,20220504,30A Kitchener Street,BALGOWLAH,NSW,2093,-33.7895737,151.258865,4,2,2,House,House,False,321,m2,False
2017599431,listing,/602-7-sylvan-avenue-balgowlah-nsw-2093-2017599431,2825000,is-sold,Sold by private treaty 14 Apr 2022,20220414,602/7 Sylvan Avenue,BALGOWLAH,NSW,2093,-33.79304,151.2632,3,2,2,ApartmentUnitFlat,Apartment / Unit / Flat,False,0,m2,False
2017630821,listing,/11-lone-pine-place-north-balgowlah-nsw-2093-2017630821,4400000,is-sold,Sold by private treaty 22 Apr 2022,20220422,11 Lone Pine Place,NORTH BALGOWLAH,NSW,2093,-33.78398,151.244049,5,3,2,House,House,False,770,m2,False
2017652625,listing,/6a-angle-street-balgowlah-nsw-2093-2017652625,2300000,is-sold,Sold by private treaty 14 Apr 2022,20220414,6A Angle Street,BALGOWLAH,NSW,2093,-33.7931023,151.2624,3,2,2,House,House,False,0,m2,False
2017663410,listing,/1-237-woodland-street-balgowlah-nsw-2093-2017663410,2850000,is-sold,Sold by private treaty 14 Apr 2022,20220414,1/237 Woodland Street,BALGOWLAH,NSW,2093,-33.79039,151.263138,4,2,2,House,House,False,0,m2,False
2017667160,listing,/1-9-jackson-street-balgowlah-nsw-2093-2017667160,2500000,is-sold,Sold by private treaty 27 Apr 2022,20220427,1/9 Jackson Street,BALGOWLAH,NSW,2093,-33.7976952,151.262634,3,2,2,SemiDetached,Semi-Detached,False,337,m2,False
2017670174,listing,/32-adelaide-street-balgowlah-heights-nsw-2093-2017670174,5300000,is-sold,Sold by private treaty 02 May 2022,20220502,32 Adelaide Street,BALGOWLAH HEIGHTS,NSW,2093,-33.8074722,151.25647,5,3,2,House,House,False,543,m2,False
2017671968,listing,/129-griffiths-street-balgowlah-nsw-2093-2017671968,3550000,is-sold,Sold by private treaty 19 Apr 2022,20220419,129 Griffiths Street,BALGOWLAH,NSW,2093,-33.7920151,151.2636,3,2,2,House,House,False,468,m2,False
2017684393,listing,/9-343-sydney-road-balgowlah-nsw-2093-2017684393,1910000,is-sold,Sold by private treaty 04 May 2022,20220504,9/343 Sydney Road,BALGOWLAH,NSW,2093,-33.7946167,151.265289,3,1,1,ApartmentUnitFlat,Apartment / Unit / Flat,False,123,m2,False
2017690556,listing,/5a-arana-street-manly-vale-nsw-2093-2017690556,2260000,is-sold,Sold prior to auction 29 Apr 2022,20220429,5a Arana Street,MANLY VALE,NSW,2093,-33.78238,151.258942,4,2,2,House,House,False,497,m2,False
2017698357,listing,/6-11-boyle-street-balgowlah-nsw-2093-2017698357,1355000,is-sold,Sold by private treaty 03 May 2022,20220503,6/11 Boyle Street,BALGOWLAH,NSW,2093,-33.796524,151.266312,2,1,1,ApartmentUnitFlat,Apartment / Unit / Flat,False,0,m2,False
2017701683,listing,/12-27-boyle-street-balgowlah-nsw-2093-2017701683,1420000,is-sold,Sold at auction 23 Apr 2022,20220423,12/27 Boyle Street,BALGOWLAH,NSW,2093,-33.7950935,151.266678,2,1,2,Townhouse,Townhouse,False,150,m2,False
2017702695,listing,/1c-31-quirk-road-manly-vale-nsw-2093-2017702695,835000,is-sold,Sold by private treaty 28 Apr 2022,20220428,1C/31 Quirk Road,MANLY VALE,NSW,2093,-33.7845955,151.269775,2,1,1,ApartmentUnitFlat,Apartment / Unit / Flat,False,0,m2,False
2017719314,listing,/302-7-sylvan-avenue-balgowlah-nsw-2093-2017719314,1245000,is-sold,Sold at auction 04 May 2022,20220504,302/7 Sylvan Avenue,BALGOWLAH,NSW,2093,-33.79304,151.2632,1,1,1,ApartmentUnitFlat,Apartment / Unit / Flat,False,0,m2,False
2017720241,listing,/29-228-condamine-street-manly-vale-nsw-2093-2017720241,1095000,is-sold,Sold at auction 22 Apr 2022,20220422,29/228 Condamine Street,MANLY VALE,NSW,2093,-33.78579,151.267242,2,2,2,ApartmentUnitFlat,Apartment / Unit / Flat,False,0,m2,False
2017734980,listing,/78-cutler-road-clontarf-nsw-2093-2017734980,4100000,is-sold,Sold by private treaty 23 Apr 2022,20220423,78 Cutler Road,CLONTARF,NSW,2093,-33.8104477,151.25708,3,2,1,House,House,False,490,m2,False
2017750166,listing,/22-cutler-road-clontarf-nsw-2093-2017750166,4745000,is-sold,Sold prior to auction 28 Apr 2022,20220428,22 Cutler Road,CLONTARF,NSW,2093,-33.8106346,151.262863,5,4,2,House,House,False,708,m2,False
2017751051,listing,/15-52-54-gordon-street-manly-vale-nsw-2093-2017751051,900000,is-sold,Sold prior to auction 05 May 2022,20220505,15/52-54 Gordon Street,MANLY VALE,NSW,2093,-33.7815742,151.269135,1,1,1,ApartmentUnitFlat,Apartment / Unit / Flat,False,116,m2,False
2017772295,listing,/7-7-9-quirk-road-manly-vale-nsw-2093-2017772295,1360000,is-sold,Sold by private treaty 29 Apr 2022,20220429,7/7-9 Quirk Road,MANLY VALE,NSW,2093,-33.78645,151.269882,2,2,2,ApartmentUnitFlat,Apartment / Unit / Flat,False,0,m2,False
2017966999,listing,/11-lone-pine-place-north-balgowlah-nsw-2093-2017966999,4400000,is-sold,Sold by private treaty 22 Apr 2022,20220422,11 Lone Pine Place,NORTH BALGOWLAH,NSW,2093,-33.78398,151.244049,5,3,2,House,House,False,770,m2,False
2017551605,listing,/23-gertrude-street-balgowlah-heights-nsw-2093-2017551605,4700000,is-sold,Sold by private treaty 04 Apr 2022,20220404,23 Gertrude Street,BALGOWLAH HEIGHTS,NSW,2093,-33.8014336,151.258133,4,2,4,House,House,False,683,m2,False
2017621138,listing,/11-8-fairway-close-manly-vale-nsw-2093-2017621138,930000,is-sold,Sold by private treaty 09 Apr 2022,20220409,11/8 Fairway Close,MANLY VALE,NSW,2093,-33.7869072,151.273758,2,1,1,ApartmentUnitFlat,Apartment / Unit / Flat,False,0,m2,False
2017641222,listing,/1-pineview-avenue-manly-vale-nsw-2093-2017641222,2350000,is-sold,Sold at auction 09 Apr 2022,20220409,1 Pineview Avenue,MANLY VALE,NSW,2093,-33.783638,151.261948,4,2,2,House,House,False,0,m2,False
2017651744,listing,/8-10-boyle-street-balgowlah-nsw-2093-2017651744,1240000,is-sold,Sold prior to auction 08 Apr 2022,20220408,8/10 Boyle Street,BALGOWLAH,NSW,2093,-33.795826,151.267029,2,1,1,ApartmentUnitFlat,Apartment / Unit / Flat,False,0,m2,False
2017654595,listing,/14-new-street-east-balgowlah-nsw-2093-2017654595,4965000,is-sold,Sold prior to auction 29 Mar 2022,20220329,14 New Street East,BALGOWLAH,NSW,2093,-33.8012772,151.264145,4,3,2,House,House,False,652,m2,False
2017655823,listing,/30-jackson-street-balgowlah-nsw-2093-2017655823,4500000,is-sold,Sold prior to auction 31 Mar 2022,20220331,30 Jackson Street,BALGOWLAH,NSW,2093,-33.796093,151.263672,3,2,1,House,House,False,534,m2,False
2017665089,listing,/15-sandy-bay-road-clontarf-nsw-2093-2017665089,8700000,is-sold,Sold prior to auction 06 Apr 2022,20220406,15 Sandy Bay Road,CLONTARF,NSW,2093,-33.8020859,151.25267,4,3,2,House,House,False,0,m2,False
2017666164,listing,/1-225-condamine-street-balgowlah-nsw-2093-2017666164,1575000,is-sold,Sold by private treaty 29 Mar 2022,20220329,1/225 Condamine Street,BALGOWLAH,NSW,2093,-33.7912865,151.265213,2,1,-,ApartmentUnitFlat,Apartment / Unit / Flat,False,0,m2,False
2017668485,listing,/38-rickard-street-balgowlah-nsw-2093-2017668485,3800000,is-sold,Sold by private treaty 04 Apr 2022,20220404,38 Rickard Street,BALGOWLAH,NSW,2093,-33.7911224,151.260178,4,2,2,House,House,False,556,m2,False
2017670155,listing,/5-299-condamine-street-manly-vale-nsw-2093-2017670155,645000,is-sold,Sold by private treaty 09 Apr 2022,20220409,5/299 Condamine Street,MANLY VALE,NSW,2093,-33.7847137,151.266754,1,1,1,ApartmentUnitFlat,Apartment / Unit / Flat,False,0,m2,False
2017671835,listing,/1-117-condamine-street-balgowlah-nsw-2093-2017671835,2130000,is-sold,Sold at auction 09 Apr 2022,20220409,1/117 Condamine Street,BALGOWLAH,NSW,2093,-33.8005753,151.263275,3,1,1,SemiDetached,Semi-Detached,False,0,m2,False
2017674614,listing,/1-9-lovett-street-manly-vale-nsw-2093-2017674614,950000,is-sold,Sold prior to auction 29 Mar 2022,20220329,1/9 Lovett Street,MANLY VALE,NSW,2093,-33.78297,151.269043,2,1,1,ApartmentUnitFlat,Apartment / Unit / Flat,False,0,m2,False
2017675381,listing,/8-20-angle-street-balgowlah-nsw-2093-2017675381,1725000,is-sold,Sold by private treaty 30 Mar 2022,20220330,8/20 Angle Street,BALGOWLAH,NSW,2093,-33.7933426,151.261246,3,1,1,ApartmentUnitFlat,Apartment / Unit / Flat,False,0,m2,False
2017682657,listing,/6-12-fairway-close-manly-vale-nsw-2093-2017682657,978000,is-sold,Sold prior to auction 07 Apr 2022,20220407,6/12 Fairway Close,MANLY VALE,NSW,2093,-33.7860832,151.273987,2,1,1,ApartmentUnitFlat,Apartment / Unit / Flat,False,0,m2,False
2017683919,listing,/41-mons-road-north-balgowlah-nsw-2093-2017683919,3400000,is-sold,Sold by private treaty 05 Apr 2022,20220405,41 Mons Road,NORTH BALGOWLAH,NSW,2093,-33.78491,151.245056,4,2,2,House,House,False,600,m2,False
2017687065,listing,/93-wanganella-street-balgowlah-nsw-2093-2017687065,2140000,is-sold,Sold by private treaty 08 Apr 2022,20220408,93 Wanganella Street,BALGOWLAH,NSW,2093,-33.7927551,151.25798,4,2,2,House,House,False,0,m2,False
2017703830,listing,/36d-burchmore-road-manly-vale-nsw-2093-2017703830,2222222,is-sold,Sold prior to auction 10 Apr 2022,20220410,36D Burchmore Road,MANLY VALE,NSW,2093,-33.7855835,151.273376,3,2,1,Townhouse,Townhouse,False,0,m2,False
2017730214,listing,/105-398-sydney-road-balgowlah-nsw-2093-2017730214,Price Withheld,is-sold,Sold by private treaty 29 Mar 2022,20220329,105/398 Sydney Road,BALGOWLAH,NSW,2093,-33.794014,151.263321,2,2,1,ApartmentUnitFlat,Apartment / Unit / Flat,False,91,m2,False
2017953359,listing,/41-mons-road-north-balgowlah-nsw-2093-2017953359,3400000,is-sold,Sold by private treaty 05 Apr 2022,20220405,41 Mons Road,NORTH BALGOWLAH,NSW,2093,-33.78491,151.245056,4,2,2,House,House,False,600,m2,False
2017953363,listing,/38-rickard-street-balgowlah-nsw-2093-2017953363,3800000,is-sold,Sold by private treaty 04 Apr 2022,20220404,38 Rickard Street,BALGOWLAH,NSW,2093,-33.7911224,151.260178,4,2,2,House,House,False,556,m2,False
2017424760,listing,/3-warringah-street-north-balgowlah-nsw-2093-2017424760,3450000,is-sold,Sold by private treaty 15 Mar 2022,20220315,3 Warringah Street,NORTH BALGOWLAH,NSW,2093,-33.7839661,151.251251,4,2,2,House,House,False,0,m2,False
2017565163,listing,/11-8-campbell-parade-manly-vale-nsw-2093-2017565163,485000,is-sold,Sold by private treaty 22 Mar 2022,20220322,11/8 Campbell Parade,MANLY VALE,NSW,2093,-33.78066,151.26947,-,1,1,Studio,Studio,False,0,m2,False
2017583721,listing,/92-bangaroo-street-north-balgowlah-nsw-2093-2017583721,2800000,is-sold,Sold at auction 29 Mar 2022,20220329,92 Bangaroo Street,NORTH BALGOWLAH,NSW,2093,-33.7847023,151.25148,3,1,2,House,House,False,550,m2,False
2017592999,listing,/206-4-sylvan-avenue-balgowlah-nsw-2093-2017592999,3000000,is-sold,Sold at auction 19 Mar 2022,20220319,206/4 Sylvan Avenue,BALGOWLAH,NSW,2093,-33.79304,151.2632,3,2,2,ApartmentUnitFlat,Apartment / Unit / Flat,False,0,m2,False
2017596702,listing,/53-beatrice-street-balgowlah-heights-nsw-2093-2017596702,4740000,is-sold,Sold at auction 12 Mar 2022,20220312,53 Beatrice Street,BALGOWLAH HEIGHTS,NSW,2093,-33.8050842,151.256119,4,3,4,House,House,False,697,m2,False
2017599264,listing,/35-sunshine-street-manly-vale-nsw-2093-2017599264,2435000,is-sold,Sold at auction 29 Mar 2022,20220329,35 Sunshine Street,MANLY VALE,NSW,2093,-33.7837868,151.264282,3,1,2,House,House,False,512,m2,False
2017599670,listing,/59-wanganella-street-balgowlah-nsw-2093-2017599670,3410000,is-sold,Sold by private treaty 15 Mar 2022,20220315,59 Wanganella Street,BALGOWLAH,NSW,2093,-33.79552,151.257538,5,4,1,House,House,False,0,m2,False
2017614829,listing,/14-1-lovett-street-manly-vale-nsw-2093-2017614829,800000,is-sold,Sold at auction 09 Mar 2022,20220309,14/1 Lovett Street,MANLY VALE,NSW,2093,-33.78283,151.268326,2,1,1,ApartmentUnitFlat,Apartment / Unit / Flat,False,75,m2,False
2017617377,listing,/295-sydney-road-balgowlah-nsw-2093-2017617377,2900000,is-sold,Sold by private treaty 16 Mar 2022,20220316,295 Sydney Road,BALGOWLAH,NSW,2093,-33.79516,151.268234,3,2,1,SemiDetached,Semi-Detached,False,0,m2,False
2017619528,listing,/7-coramba-street-north-balgowlah-nsw-2093-2017619528,2620000,is-sold,Sold prior to auction 16 Mar 2022,20220316,7 Coramba Street,NORTH BALGOWLAH,NSW,2093,-33.7873764,151.247635,3,1,2,House,House,False,0,m2,False
2017620816,listing,/1-104-condamine-street-balgowlah-nsw-2093-2017620816,1200000,is-sold,Sold prior to auction 18 Mar 2022,20220318,1/104 Condamine Street,BALGOWLAH,NSW,2093,-33.7951355,151.265015,2,1,1,ApartmentUnitFlat,Apartment / Unit / Flat,False,0,m2,False
2017622919,listing,/1-81-wanganella-street-balgowlah-nsw-2093-2017622919,2100000,is-sold,Sold at auction 15 Mar 2022,20220315,1/81 Wanganella Street,BALGOWLAH,NSW,2093,-33.7931328,151.257874,3,2,1,Townhouse,Townhouse,False,0,m2,False
2017630820,listing,/20-gloucester-street-north-balgowlah-nsw-2093-2017630820,4850000,is-sold,Sold at auction 29 Mar 2022,20220329,20 Gloucester Street,NORTH BALGOWLAH,NSW,2093,-33.7840347,151.245453,4,3,2,House,House,False,600,m2,False
2017637281,listing,/4-56-gordon-street-manly-vale-nsw-2093-2017637281,1420000,is-sold,Sold prior to auction 14 Mar 2022,20220314,4/56 Gordon Street,MANLY VALE,NSW,2093,-33.78155,151.268875,2,2,1,ApartmentUnitFlat,Apartment / Unit / Flat,False,0,m2,False
2017637407,listing,/11-20-angle-street-balgowlah-nsw-2093-2017637407,1675000,is-sold,Sold prior to auction 15 Mar 2022,20220315,11/20 Angle Street,BALGOWLAH,NSW,2093,-33.7933426,151.261246,3,1,1,ApartmentUnitFlat,Apartment / Unit / Flat,False,0,m2,False
2017640576,listing,/9a-lewis-street-balgowlah-heights-nsw-2093-2017640576,4500000,is-sold,Sold by private treaty 11 Mar 2022,20220311,9a Lewis Street,BALGOWLAH HEIGHTS,NSW,2093,-33.8066635,151.257538,4,3,2,House,House,False,0,m2,False
2017654220,listing,/67-upper-beach-street-balgowlah-nsw-2093-2017654220,4530000,is-sold,Sold prior to auction 23 Mar 2022,20220323,67 Upper Beach Street,BALGOWLAH,NSW,2093,-33.7981224,151.255814,4,2,2,House,House,False,626,m2,False
2017925455,listing,/20-gloucester-street-north-balgowlah-nsw-2093-2017925455,4850000,is-sold,Sold at auction 29 Mar 2022,20220329,20 Gloucester Street,NORTH BALGOWLAH,NSW,2093,-33.7840347,151.245453,4,3,2,House,House,False,600,m2,False
2017929670,listing,/35-sunshine-street-manly-vale-nsw-2093-2017929670,2435000,is-sold,Sold at auction 29 Mar 2022,20220329,35 Sunshine Street,MANLY VALE,NSW,2093,-33.7838135,151.264236,3,1,2,House,House,False,512,m2,False
2017943776,listing,/92-bangaroo-street-north-balgowlah-nsw-2093-2017943776,2800000,is-sold,Sold at auction 29 Mar 2022,20220329,92 Bangaroo Street,NORTH BALGOWLAH,NSW,2093,-33.7847023,151.25148,3,1,2,House,House,False,550,m2,False
2017394225,listing,/6-436-sydney-road-balgowlah-nsw-2093-2017394225,750000,is-sold,Sold by private treaty 23 Feb 2022,20220223,6/436 Sydney Road,BALGOWLAH,NSW,2093,-33.7934341,151.25972,2,1,1,ApartmentUnitFlat,Apartment / Unit / Flat,False,0,m2,False
2017445369,listing,/32-tabalum-road-balgowlah-heights-nsw-2093-2017445369,5950000,is-sold,Sold at auction 26 Feb 2022,20220226,32 Tabalum Road,BALGOWLAH HEIGHTS,NSW,2093,-33.8100281,151.2641,4,3,2,House,House,False,613,m2,False
2017519717,listing,/6-hogan-street-balgowlah-heights-nsw-2093-2017519717,4812500,is-sold,Sold prior to auction 18 Feb 2022,20220218,6 Hogan Street,BALGOWLAH HEIGHTS,NSW,2093,-33.80328,151.2651,4,2,2,House,House,False,562,m2,False
2017522385,listing,/18-amiens-road-clontarf-nsw-2093-2017522385,8054000,is-sold,Sold at auction 19 Feb 2022,20220219,18 Amiens Road,CLONTARF,NSW,2093,-33.8074379,151.25499,6,4,3,House,House,False,0,m2,False
2017534800,listing,/27-41-roseberry-street-manly-vale-nsw-2093-2017534800,Price Withheld,is-sold,Sold by private treaty 25 Feb 2022,20220225,27/41 Roseberry Street,MANLY VALE,NSW,2093,-33.7863,151.267792,2,2,1,ApartmentUnitFlat,Apartment / Unit / Flat,False,90,m2,False
2017540286,listing,/67-campbell-parade-manly-vale-nsw-2093-2017540286,2835000,is-sold,Sold prior to auction 18 Feb 2022,20220218,67 Campbell Parade,MANLY VALE,NSW,2093,-33.78072,151.266556,8,5,2,House,House,False,0,m2,False
2017544409,listing,/177-woodland-street-balgowlah-nsw-2093-2017544409,3350000,is-sold,Sold prior to auction 18 Feb 2022,20220218,177 Woodland Street,BALGOWLAH,NSW,2093,-33.7950249,151.262161,3,1,2,House,House,False,443,m2,False
2017546372,listing,/59-boyle-street-balgowlah-nsw-2093-2017546372,3215000,is-sold,Sold at auction 19 Feb 2022,20220219,59 Boyle Street,BALGOWLAH,NSW,2093,-33.79287,151.267075,3,2,1,House,House,False,0,m2,False
2017548994,listing,/18-urunga-street-north-balgowlah-nsw-2093-2017548994,3000000,is-sold,Sold prior to auction 21 Feb 2022,20220221,18 Urunga Street,NORTH BALGOWLAH,NSW,2093,-33.7856255,151.2436,4,2,3,House,House,False,632,m2,False
2017550550,listing,/5-20-24-koorala-street-manly-vale-nsw-2093-2017550550,936500,is-sold,Sold at auction 19 Feb 2022,20220219,5/20-24 Koorala Street,MANLY VALE,NSW,2093,-33.78529,151.269623,2,1,1,ApartmentUnitFlat,Apartment / Unit / Flat,False,0,m2,False
2017565599,listing,/28a-upper-beach-street-balgowlah-nsw-2093-2017565599,2850000,is-sold,Sold prior to auction 21 Feb 2022,20220221,28A Upper Beach Street,BALGOWLAH,NSW,2093,-33.798008,151.257751,3,2,2,House,House,False,285,m2,False
2017570564,listing,/20-53-campbell-parade-manly-vale-nsw-2093-2017570564,858000,is-sold,Sold at auction 24 Feb 2022,20220224,20/53 Campbell Parade,MANLY VALE,NSW,2093,-33.7811432,151.268677,1,1,1,ApartmentUnitFlat,Apartment / Unit / Flat,False,74,m2,False
2017570887,listing,/2-145-griffiths-street-balgowlah-nsw-2093-2017570887,2400000,is-sold,Sold at auction 26 Feb 2022,20220226,2/145 Griffiths Street,BALGOWLAH,NSW,2093,-33.7917366,151.261551,3,2,1,SemiDetached,Semi-Detached,False,0,m2,False
2017579107,listing,/2-10-whittle-avenue-balgowlah-nsw-2093-2017579107,855000,is-sold,Sold by private treaty 23 Feb 2022,20220223,2/10 Whittle Avenue,BALGOWLAH,NSW,2093,-33.79645,151.253159,2,1,1,ApartmentUnitFlat,Apartment / Unit / Flat,False,0,m2,False
2017581028,listing,/15-7-fairway-close-manly-vale-nsw-2093-2017581028,1235000,is-sold,Sold at auction 22 Feb 2022,20220222,15/7 Fairway Close,MANLY VALE,NSW,2093,-33.78719,151.273682,2,1,1,House,House,False,0,m2,False
2017586482,listing,/3-31-dobroyd-road-balgowlah-heights-nsw-2093-2017586482,2250000,is-sold,Sold prior to auction 03 Mar 2022,20220303,3/31 Dobroyd Road,BALGOWLAH HEIGHTS,NSW,2093,-33.80695,151.26268,2,2,1,ApartmentUnitFlat,Apartment / Unit / Flat,False,143,m2,False
2017601984,listing,/1-82-wanganella-street-balgowlah-nsw-2093-2017601984,1510000,is-sold,Sold by private treaty 05 Mar 2022,20220305,1/82 Wanganella Street,BALGOWLAH,NSW,2093,-33.7930679,151.258591,2,1,1,ApartmentUnitFlat,Apartment / Unit / Flat,False,0,m2,False
2017611246,listing,/75-beatrice-street-balgowlah-heights-nsw-2093-2017611246,4750000,is-sold,Sold by private treaty 17 Feb 2022,20220217,75 Beatrice Street,BALGOWLAH HEIGHTS,NSW,2093,-33.8036728,151.256592,4,2,3,House,House,False,0,m2,False
2017619718,listing,/2-9-lovett-street-manly-vale-nsw-2093-2017619718,905000,is-sold,Sold by private treaty 08 Mar 2022,20220308,2/9 Lovett Street,MANLY VALE,NSW,2093,-33.78297,151.269043,2,1,-,ApartmentUnitFlat,Apartment / Unit / Flat,False,0,m2,False
2017628816,listing,/25-innes-road-manly-vale-nsw-2093-2017628816,3325000,is-sold,Sold by private treaty 28 Feb 2022,20220228,25 Innes Road,MANLY VALE,NSW,2093,-33.7838974,151.269928,4,4,2,House,House,False,615,m2,False
2017498697,listing,/102-clontarf-street-north-balgowlah-nsw-2093-2017498697,2800000,is-sold,Sold at auction 05 Feb 2022,20220205,102 Clontarf Street,NORTH BALGOWLAH,NSW,2093,-33.7847023,151.243256,4,2,2,House,House,False,834,m2,False
2017508153,listing,/13-tottenham-street-north-balgowlah-nsw-2093-2017508153,4555000,is-sold,Sold prior to auction 12 Feb 2022,20220212,13 Tottenham Street,NORTH BALGOWLAH,NSW,2093,-33.7864723,151.254349,5,3,2,House,House,False,0,m2,False
2017527986,listing,/2-north-harbour-street-balgowlah-nsw-2093-2017527986,5260000,is-sold,Sold prior to auction 28 Jan 2022,20220128,2 North Harbour Street,BALGOWLAH,NSW,2093,-33.7999763,151.2647,4,3,2,House,House,False,0,m2,False
2017530079,listing,/50-seaview-street-balgowlah-nsw-2093-2017530079,4015000,is-sold,Sold prior to auction 01 Feb 2022,20220201,50 Seaview Street,BALGOWLAH,NSW,2093,-33.7967033,151.2591,4,2,1,House,House,False,0,m2,False
2017534791,listing,/46-lodge-street-balgowlah-nsw-2093-2017534791,4500000,is-sold,Sold prior to auction 11 Feb 2022,20220211,46 Lodge Street,BALGOWLAH,NSW,2093,-33.79029,151.262314,5,3,3,House,House,False,689,m2,False
2017535580,listing,/87-new-street-west-clontarf-nsw-2093-2017535580,4600000,is-sold,Sold prior to auction 01 Feb 2022,20220201,87 New Street West,CLONTARF,NSW,2093,-33.80045,151.25528,5,4,2,House,House,False,558,m2,False
2017539049,listing,/4-woodland-street-balgowlah-heights-nsw-2093-2017539049,6300000,is-sold,Sold prior to auction 11 Feb 2022,20220211,4 Woodland Street,BALGOWLAH HEIGHTS,NSW,2093,-33.8091354,151.259628,4,3,2,House,House,False,696,m2,False
2017540741,listing,/2-6-fairway-close-manly-vale-nsw-2093-2017540741,921000,is-sold,Sold prior to auction 03 Feb 2022,20220203,2/6 Fairway Close,MANLY VALE,NSW,2093,-33.7872849,151.273987,2,1,1,ApartmentUnitFlat,Apartment / Unit / Flat,False,0,m2,False
2017546496,listing,/2-70-kenneth-road-manly-vale-nsw-2093-2017546496,1070000,is-sold,Sold prior to auction 17 Feb 2022,20220217,2/70 Kenneth Road,MANLY VALE,NSW,2093,-33.78639,151.268311,2,1,1,ApartmentUnitFlat,Apartment / Unit / Flat,False,0,m2,False
2017547125,listing,/53-boyle-street-balgowlah-nsw-2093-2017547125,4100000,is-sold,Sold by private treaty 08 Feb 2022,20220208,53 Boyle Street,BALGOWLAH,NSW,2093,-33.7932129,151.267059,4,3,3,House,House,False,0,m2,False
2017549672,listing,/1-lewis-street-balgowlah-heights-nsw-2093-2017549672,7000000,is-sold,Sold by private treaty 07 Feb 2022,20220207,1 Lewis Street,BALGOWLAH HEIGHTS,NSW,2093,-33.80725,151.257431,4,3,3,House,House,False,0,m2,False
2017552111,listing,/6-wanganella-street-balgowlah-nsw-2093-2017552111,4350000,is-sold,Sold prior to auction 09 Feb 2022,20220209,6 Wanganella Street,BALGOWLAH,NSW,2093,-33.7999763,151.2572,4,3,2,House,House,False,645,m2,False
2017562349,listing,/15-heathcliff-crescent-balgowlah-heights-nsw-2093-2017562349,3725000,is-sold,Sold prior to auction 05 Feb 2022,20220205,15 Heathcliff Crescent,BALGOWLAH HEIGHTS,NSW,2093,-33.8067131,151.266327,3,2,1,House,House,False,550,m2,False
2017565368,listing,/2-175-balgowlah-road-balgowlah-nsw-2093-2017565368,1100000,is-sold,Sold prior to auction 12 Feb 2022,20220212,2/175 Balgowlah Road,BALGOWLAH,NSW,2093,-33.7905,151.266144,2,1,1,SemiDetached,Semi-Detached,False,0,m2,False
2017585675,listing,/1-10-boyle-street-balgowlah-nsw-2093-2017585675,1250000,is-sold,Sold by private treaty 10 Feb 2022,20220210,1/10 Boyle Street,BALGOWLAH,NSW,2093,-33.795826,151.267029,2,1,1,ApartmentUnitFlat,Apartment / Unit / Flat,False,0,m2,False
2017585786,listing,/104-woodland-street-balgowlah-nsw-2093-2017585786,5500000,is-sold,Sold prior to auction 15 Feb 2022,20220215,104 Woodland Street,BALGOWLAH,NSW,2093,-33.79966,151.261871,5,3,2,House,House,False,0,m2,False
2017600292,listing,/12-horning-parade-manly-vale-nsw-2093-2017600292,3000010,is-sold,Sold by private treaty 16 Feb 2022,20220216,12 Horning Parade,MANLY VALE,NSW,2093,-33.78448,151.264191,3,2,1,House,House,False,0,m2,False
2017647050,listing,/202-398-sydney-road-balgowlah-nsw-2093-2017647050,Price Withheld,is-sold,Sold by private treaty 10 Feb 2022,20220210,202/398 Sydney Road,BALGOWLAH,NSW,2093,-33.794014,151.263321,2,2,2,ApartmentUnitFlat,Apartment / Unit / Flat,False,99,m2,False
2017714010,listing,/15-warringah-street-north-balgowlah-nsw-2093-2017714010,2600000,is-sold,Sold by private treaty 17 Feb 2022,20220217,15 Warringah Street,NORTH BALGOWLAH,NSW,2093,-33.78376,151.249374,2,1,1,House,House,False,464,m2,False
2017758609,listing,/99-8-koorala-street-manly-vale-nsw-2093-2017758609,1200000,is-sold,Sold by private treaty 14 Feb 2022,20220214,99/8 Koorala Street,MANLY VALE,NSW,2093,-33.78459,151.268219,2,2,1,ApartmentUnitFlat,Apartment / Unit / Flat,False,0,m2,False
2017302498,listing,/4-9-plant-street-balgowlah-nsw-2093-2017302498,1300000,is-sold,Sold by private treaty 25 Jan 2022,20220125,4/9 Plant Street,BALGOWLAH,NSW,2093,-33.79904,151.254471,2,1,1,ApartmentUnitFlat,Apartment / Unit / Flat,False,0,m2,False
2017404381,listing,/50a-seaview-street-balgowlah-nsw-2093-2017404381,3950000,is-sold,Sold by private treaty 20 Dec 2021,20211220,50A Seaview Street,BALGOWLAH,NSW,2093,-33.79664,151.259109,4,2,1,House,House,False,0,m2,False
2017406174,listing,/32-mildred-avenue-manly-vale-nsw-2093-2017406174,2490000,is-sold,Sold at auction 11 Dec 2021,20211211,32 Mildred Avenue,MANLY VALE,NSW,2093,-33.78481,151.263275,4,2,2,House,House,False,701,m2,False
2017407687,listing,/8-285-287-condamine-street-manly-vale-nsw-2093-2017407687,1295000,is-sold,Sold prior to auction 10 Dec 2021,20211210,8/285-287 Condamine Street,MANLY VALE,NSW,2093,-33.78546,151.266556,2,2,1,ApartmentUnitFlat,Apartment / Unit / Flat,False,190,m2,False
2017419092,listing,/27-west-street-balgowlah-nsw-2093-2017419092,6000000,is-sold,Sold by private treaty 19 Jan 2022,20220119,27 West Street,BALGOWLAH,NSW,2093,-33.7978172,151.259354,4,3,2,House,House,False,0,m2,False
2017422993,listing,/19-illalong-avenue-north-balgowlah-nsw-2093-2017422993,3052000,is-sold,Sold at auction 11 Dec 2021,20211211,19 Illalong Avenue,NORTH BALGOWLAH,NSW,2093,-33.7846947,151.250977,4,2,1,House,House,False,645,m2,False
2017426554,listing,/64-curban-street-balgowlah-heights-nsw-2093-2017426554,4900000,is-sold,Sold prior to auction 10 Dec 2021,20211210,64 Curban Street,BALGOWLAH HEIGHTS,NSW,2093,-33.8037643,151.266373,4,2,3,House,House,False,1315,m2,False
2017427721,listing,/27-dobroyd-road-balgowlah-heights-nsw-2093-2017427721,3500000,is-sold,Sold by private treaty 21 Jan 2022,20220121,27 Dobroyd Road,BALGOWLAH HEIGHTS,NSW,2093,-33.8069649,151.263229,5,3,1,House,House,False,0,m2,False
2017440989,listing,/6-10-boyle-street-balgowlah-nsw-2093-2017440989,1310000,is-sold,Sold at auction 15 Dec 2021,20211215,6/10 Boyle Street,BALGOWLAH,NSW,2093,-33.795826,151.267029,2,1,1,ApartmentUnitFlat,Apartment / Unit / Flat,False,87,m2,False
2017449862,listing,/46-beatty-street-balgowlah-heights-nsw-2093-2017449862,12150000,is-sold,Sold at auction 18 Dec 2021,20211218,46 Beatty Street,BALGOWLAH HEIGHTS,NSW,2093,-33.8024826,151.269379,4,3,2,House,House,False,689,m2,False
2017462996,listing,/7c-29-quirk-road-manly-vale-nsw-2093-2017462996,Price Withheld,is-sold,Sold by private treaty 18 Jan 2022,20220118,7C/29 Quirk Road,MANLY VALE,NSW,2093,-33.78485,151.269577,2,1,1,ApartmentUnitFlat,Apartment / Unit / Flat,False,0,m2,False
2017464160,listing,/13-70-kenneth-road-manly-vale-nsw-2093-2017464160,1065000,is-sold,Sold by private treaty 13 Dec 2021,20211213,13/70 Kenneth Road,MANLY VALE,NSW,2093,-33.78639,151.268311,2,1,1,ApartmentUnitFlat,Apartment / Unit / Flat,False,0,m2,False
2017482850,listing,/1-29-white-street-balgowlah-nsw-2093-2017482850,1925000,is-sold,Sold by private treaty 08 Dec 2021,20211208,1/29 White Street,BALGOWLAH,NSW,2093,-33.7968559,151.2636,2,1,1,ApartmentUnitFlat,Apartment / Unit / Flat,False,0,m2,False
2017516097,listing,/1-286-condamine-street-manly-vale-nsw-2093-2017516097,762000,is-sold,Sold prior to auction 18 Jan 2022,20220118,1/286 Condamine Street,MANLY VALE,NSW,2093,-33.78119,151.26825,1,1,1,ApartmentUnitFlat,Apartment / Unit / Flat,False,0,m2,False
2017520287,listing,/16a-innes-road-manly-vale-nsw-2093-2017520287,2350000,is-sold,Sold prior to auction 24 Jan 2022,20220124,16a Innes Road,MANLY VALE,NSW,2093,-33.7832031,151.269226,3,1,2,House,House,False,314,m2,False
2017522254,listing,/63-wanganella-street-balgowlah-nsw-2093-2017522254,3150000,is-sold,Sold by private treaty 19 Jan 2022,20220119,63 Wanganella Street,BALGOWLAH,NSW,2093,-33.7952538,151.257584,3,2,2,House,House,False,0,m2,False
2017539796,listing,/36-lodge-street-balgowlah-nsw-2093-2017539796,3000000,is-sold,Sold by private treaty 20 Jan 2022,20220120,36 Lodge Street,BALGOWLAH,NSW,2093,-33.790554,151.264145,4,1,2,House,House,False,0,m2,False
2017553821,listing,/10d-31-qurik-road-manly-vale-nsw-2093-2017553821,725000,is-sold,Sold by private treaty 27 Jan 2022,20220127,10D/31 Qurik Road,MANLY VALE,NSW,2093,-33.7845955,151.269775,1,1,1,ApartmentUnitFlat,Apartment / Unit / Flat,False,55,m2,False
2017559442,listing,/5-286-condamine-street-manly-vale-nsw-2093-2017559442,710000,is-sold,Sold by private treaty 28 Jan 2022,20220128,5/286 Condamine Street,MANLY VALE,NSW,2093,-33.78119,151.26825,1,1,1,ApartmentUnitFlat,Apartment / Unit / Flat,False,0,m2,False
2017579900,listing,/9-4-fairway-close-manly-vale-nsw-2093-2017579900,990000,is-sold,Sold by private treaty 24 Jan 2022,20220124,9/4 Fairway Close,MANLY VALE,NSW,2093,-33.7868,151.274445,2,1,1,ApartmentUnitFlat,Apartment / Unit / Flat,False,0,m2,False
2017358615,listing,/1-3-marjory-thomas-place-balgowlah-nsw-2093-2017358615,1200000,is-sold,Sold prior to auction 06 Dec 2021,20211206,1/3 Marjory Thomas Place,BALGOWLAH,NSW,2093,-33.79127,151.268555,2,1,1,ApartmentUnitFlat,Apartment / Unit / Flat,False,0,m2,False
2017362730,listing,/29-illalong-avenue-north-balgowlah-nsw-2093-2017362730,4000000,is-sold,Sold prior to auction 29 Nov 2021,20211129,29 Illalong Avenue,NORTH BALGOWLAH,NSW,2093,-33.7839355,151.250656,4,3,2,House,House,False,525,m2,False
2017392206,listing,/77-bangaroo-street-north-balgowlah-nsw-2093-2017392206,4150000,is-sold,Sold by private treaty 04 Dec 2021,20211204,77 Bangaroo Street,NORTH BALGOWLAH,NSW,2093,-33.7859268,151.252213,5,3,2,House,House,False,0,m2,False
2017403294,listing,/8c-31-quirk-road-manly-vale-nsw-2093-2017403294,716000,is-sold,Sold at auction 30 Nov 2021,20211130,8C/31 Quirk Road,MANLY VALE,NSW,2093,-33.7845955,151.269775,1,1,1,ApartmentUnitFlat,Apartment / Unit / Flat,False,0,m2,False
2017404111,listing,/20-ernest-street-balgowlah-heights-nsw-2093-2017404111,4700000,is-sold,Sold prior to auction 26 Nov 2021,20211126,20 Ernest Street,BALGOWLAH HEIGHTS,NSW,2093,-33.804882,151.263367,5,2,2,House,House,False,702,m2,False
2017404288,listing,/24-radio-avenue-balgowlah-heights-nsw-2093-2017404288,4788000,is-sold,Sold prior to auction 07 Dec 2021,20211207,24 Radio Avenue,BALGOWLAH HEIGHTS,NSW,2093,-33.805336,151.259628,5,3,2,House,House,False,0,m2,False
2017413640,listing,/5-4-campbell-parade-manly-vale-nsw-2093-2017413640,1340000,is-sold,Sold prior to auction 30 Nov 2021,20211130,5/4 Campbell Parade,MANLY VALE,NSW,2093,-33.78072,151.269943,2,2,2,ApartmentUnitFlat,Apartment / Unit / Flat,False,0,m2,False
2017419521,listing,/7-36-40-gordon-street-manly-vale-nsw-2093-2017419521,865000,is-sold,Sold prior to auction 26 Nov 2021,20211126,7/36-40 Gordon Street,MANLY VALE,NSW,2093,-33.78161,151.27034,1,1,1,ApartmentUnitFlat,Apartment / Unit / Flat,False,76,m2,False
2017421730,listing,/1-154-condamine-street-balgowlah-nsw-2093-2017421730,2000000,is-sold,Sold by private treaty 01 Dec 2021,20211201,1/154 Condamine Street,BALGOWLAH,NSW,2093,-33.7915421,151.265823,3,2,2,House,House,False,0,m2,False
2017424138,listing,/3-6-cross-street-balgowlah-nsw-2093-2017424138,950000,is-sold,Sold by private treaty 01 Dec 2021,20211201,3/6 Cross Street,BALGOWLAH,NSW,2093,-33.78952,151.264648,2,1,1,ApartmentUnitFlat,Apartment / Unit / Flat,False,0,m2,False
2017433700,listing,/47-woolgoolga-street-north-balgowlah-nsw-2093-2017433700,3750000,is-sold,Sold prior to auction 01 Dec 2021,20211201,47 Woolgoolga Street,NORTH BALGOWLAH,NSW,2093,-33.7854271,151.245651,4,2,2,House,House,False,613,m2,False
2017438469,listing,/2a-allenby-street-clontarf-nsw-2093-2017438469,5500000,is-sold,Sold by private treaty 02 Dec 2021,20211202,2a Allenby Street,CLONTARF,NSW,2093,-33.8083763,151.254654,5,3,2,House,House,False,613,m2,False
2017445605,listing,/2-237-woodland-street-balgowlah-nsw-2093-2017445605,3000000,is-sold,Sold prior to auction 30 Nov 2021,20211130,2/237 Woodland Street,BALGOWLAH,NSW,2093,-33.7903862,151.263123,4,2,2,House,House,False,434,m2,False
2017446487,listing,/1-ogilvy-road-clontarf-nsw-2093-2017446487,4800000,is-sold,Sold prior to auction 03 Dec 2021,20211203,1 Ogilvy Road,CLONTARF,NSW,2093,-33.8114929,151.260727,4,3,2,House,House,False,473,m2,False
2017447940,listing,/5-25-king-street-manly-vale-nsw-2093-2017447940,1000000,is-sold,Sold by private treaty 04 Dec 2021,20211204,5/25 King Street,MANLY VALE,NSW,2093,-33.78301,151.2654,2,1,2,ApartmentUnitFlat,Apartment / Unit / Flat,False,0,m2,False
2017448343,listing,/802-7-sylvan-avenue-balgowlah-nsw-2093-2017448343,3400000,is-sold,Sold prior to auction 03 Dec 2021,20211203,802/7 Sylvan Avenue,BALGOWLAH,NSW,2093,-33.79304,151.2632,3,2,2,ApartmentUnitFlat,Apartment / Unit / Flat,False,0,m2,False
2017459065,listing,/1-27-parkes-street-manly-vale-nsw-2093-2017459065,760000,is-sold,Sold by private treaty 08 Dec 2021,20211208,1/27 Parkes Street,MANLY VALE,NSW,2093,-33.785347,151.272766,1,1,1,ApartmentUnitFlat,Apartment / Unit / Flat,False,66,m2,False
2017459808,listing,/8-radio-avenue-balgowlah-heights-nsw-2093-2017459808,4600000,is-sold,Sold by private treaty 01 Dec 2021,20211201,8 Radio Avenue,BALGOWLAH HEIGHTS,NSW,2093,-33.80642,151.259491,5,3,2,House,House,False,0,m2,False
2017485073,listing,/1-21-23-koorala-street-manly-vale-nsw-2093-2017485073,765000,is-sold,Sold by private treaty 06 Dec 2021,20211206,1/21-23 Koorala Street,MANLY VALE,NSW,2093,-33.7860222,151.269592,1,1,1,ApartmentUnitFlat,Apartment / Unit / Flat,False,82,m2,False
2017512917,listing,/6-1-rickard-street-balgowlah-nsw-2093-2017512917,990000,is-sold,Sold by private treaty 30 Nov 2021,20211130,6/1 Rickard Street,BALGOWLAH,NSW,2093,-33.7938232,151.259048,2,1,1,ApartmentUnitFlat,Apartment / Unit / Flat,False,0,m2,False
2017236986,listing,/72-curban-street-balgowlah-heights-nsw-2093-2017236986,4325000,is-sold,Sold by private treaty 18 Nov 2021,20211118,72 Curban Street,BALGOWLAH HEIGHTS,NSW,2093,-33.803257,151.266678,5,4,1,House,House,False,621,m2,False
2017288658,listing,/47-new-street-west-balgowlah-heights-nsw-2093-2017288658,3950000,is-sold,Sold by private treaty 19 Nov 2021,20211119,47 New Street West,BALGOWLAH HEIGHTS,NSW,2093,-33.8010254,151.259048,4,2,2,House,House,False,695,m2,False
2017309745,listing,/15-brighton-street-balgowlah-nsw-2093-2017309745,Price Withheld,is-sold,Sold at auction 18 Nov 2021,20211118,15 Brighton Street,BALGOWLAH,NSW,2093,-33.79203,151.257492,4,2,2,House,House,False,0,m2,False
2017344881,listing,/2-woodland-street-balgowlah-heights-nsw-2093-2017344881,Price Withheld,is-sold,Sold by private treaty 18 Nov 2021,20211118,2 Woodland Street,BALGOWLAH HEIGHTS,NSW,2093,-33.8094559,151.259567,5,4,2,House,House,False,645,m2,False
2017361652,listing,/2-4-boyle-street-balgowlah-nsw-2093-2017361652,2280000,is-sold,Sold prior to auction 18 Nov 2021,20211118,2/4 Boyle Street,BALGOWLAH,NSW,2093,-33.7962151,151.266937,3,1,1,SemiDetached,Semi-Detached,False,0,m2,False
2017369882,listing,/2-1-marjory-thomas-place-balgowlah-nsw-2093-2017369882,1100000,is-sold,Sold prior to auction 18 Nov 2021,20211118,2/1 Marjory Thomas Place,BALGOWLAH,NSW,2093,-33.79126,151.268738,2,1,1,ApartmentUnitFlat,Apartment / Unit / Flat,False,0,m2,False
2017377002,listing,/25-228-232-condamine-street-manly-vale-nsw-2093-2017377002,730000,is-sold,Sold prior to auction 19 Nov 2021,20211119,25/228-232 Condamine Street,MANLY VALE,NSW,2093,-33.7857933,151.267242,1,1,1,ApartmentUnitFlat,Apartment / Unit / Flat,False,0,m2,False
2017382183,listing,/207-4-sylvan-avenue-balgowlah-nsw-2093-2017382183,1150000,is-sold,Sold prior to auction 25 Nov 2021,20211125,207/4 Sylvan Avenue,BALGOWLAH,NSW,2093,-33.79304,151.2632,1,1,1,ApartmentUnitFlat,Apartment / Unit / Flat,False,0,m2,False
2017386512,listing,/5-westlake-place-balgowlah-nsw-2093-2017386512,3775000,is-sold,Sold prior to auction 25 Nov 2021,20211125,5 Westlake Place,BALGOWLAH,NSW,2093,-33.79272,151.257538,4,3,2,House,House,False,550,m2,False
2017394373,listing,/3-8-campbell-parade-manly-vale-nsw-2093-2017394373,495000,is-sold,Sold by private treaty 18 Nov 2021,20211118,3/8 Campbell Parade,MANLY VALE,NSW,2093,-33.78066,151.26947,-,1,1,Studio,Studio,False,0,m2,False
2017399396,listing,/3-217-condamine-street-balgowlah-nsw-2093-2017399396,1140000,is-sold,Sold by private treaty 18 Nov 2021,20211118,3/217 Condamine Street,BALGOWLAH,NSW,2093,-33.7918472,151.265152,2,1,-,ApartmentUnitFlat,Apartment / Unit / Flat,False,0,m2,False
2017402474,listing,/16-228-232-condamine-street-manly-vale-nsw-2093-2017402474,765000,is-sold,Sold by private treaty 17 Nov 2021,20211117,16/228-232 Condamine Street,MANLY VALE,NSW,2093,-33.7857933,151.267242,1,1,1,ApartmentUnitFlat,Apartment / Unit / Flat,False,0,m2,False
2017402848,listing,/3-8-rickard-street-balgowlah-nsw-2093-2017402848,1775000,is-sold,Sold at auction 20 Nov 2021,20211120,3/8 Rickard Street,BALGOWLAH,NSW,2093,-33.7931824,151.25975,3,2,2,ApartmentUnitFlat,Apartment / Unit / Flat,False,0,m2,False
2017404340,listing,/147-balgowlah-road-balgowlah-nsw-2093-2017404340,2750000,is-sold,Sold prior to auction 25 Nov 2021,20211125,147 Balgowlah Road,BALGOWLAH,NSW,2093,-33.79098,151.268936,3,1,1,House,House,False,245,m2,False
