id,listingType,url,price,tagClassName,tagText,date,street,suburb,state,postcode,lat,lng,beds,baths,parking,propertyType,propertyTypeFormatted,isRural,landSize,landUnit,isRetirement
2018303696,listing,/418-2-thallon-street-carlingford-nsw-2118-2018303696,625000,is-sold,Sold by private treaty 28 Feb 2023,20230228,418/2 Thallon Street,CARLINGFORD,NSW,2118,-33.78166,151.046173,2,2,2,ApartmentUnitFlat,Apartment / Unit / Flat,False,0,m2,False
2018316984,listing,/86-murray-farm-road-carlingford-nsw-2118-2018316984,1832000,is-sold,Sold at auction 28 Feb 2023,20230228,86 Murray Farm Road,CARLINGFORD,NSW,2118,-33.7648468,151.035919,4,4,4,House,House,False,954,m2,False
2015997656,listing,/5-12-12a-post-office-street-carlingford-nsw-2118-2015997656,,is-sold,Sold by private treaty 09 Feb 2023,20230209,5/12-12A Post Office Street,CARLINGFORD,NSW,2118,-33.7791634,151.050339,2,2,2,ApartmentUnitFlat,Apartment / Unit / Flat,False,0,m2,False
2018116227,listing,/5-2-shirley-street-carlingford-nsw-2118-2018116227,850000,is-sold,Sold by private treaty 23 Feb 2023,20230223,5/2 Shirley Street,CARLINGFORD,NSW,2118,-33.78121,151.049728,3,3,3,ApartmentUnitFlat,Apartment / Unit / Flat,False,0,m2,False
2018277176,listing,/728a-pennant-hills-road-carlingford-nsw-2118-2018277176,1560000,is-sold,Sold by private treaty 11 Feb 2023,20230211,728A Pennant Hills Road,CARLINGFORD,NSW,2118,-33.7668533,151.047256,5,5,5,House,House,False,695,m2,False
2018279449,listing,/6-buckland-avenue-carlingford-nsw-2118-2018279449,1865000,is-sold,Sold at auction 07 Feb 2023,20230207,6 Buckland Avenue,CARLINGFORD,NSW,2118,-33.77636,151.046249,4,4,4,House,House,False,790,m2,False
2018280919,listing,/6-parklea-place-carlingford-nsw-2118-2018280919,2300000,is-sold,Sold by private treaty 08 Feb 2023,20230208,6 Parklea Place,CARLINGFORD,NSW,2118,-33.7783127,151.046387,4,4,4,House,House,False,929,m2,False
2018281870,listing,/29-30-34-keeler-street-carlingford-nsw-2118-2018281870,700000,is-sold,Sold by private treaty 08 Feb 2023,20230208,29/30-34 Keeler Street,CARLINGFORD,NSW,2118,-33.777462,151.056274,2,2,2,ApartmentUnitFlat,Apartment / Unit / Flat,False,0,m2,False
2018288416,listing,/1-86-88-baker-street-carlingford-nsw-2118-2018288416,1250000,is-sold,Sold at auction 07 Feb 2023,20230207,1/86-88 Baker Street,CARLINGFORD,NSW,2118,-33.7766724,151.042831,3,3,3,Villa,Villa,False,0,m2,False
2018288993,listing,/8-camelot-court-carlingford-nsw-2118-2018288993,1910000,is-sold,Sold at auction 13 Feb 2023,20230213,8 Camelot Court,CARLINGFORD,NSW,2118,-33.7827339,151.025558,5,5,5,House,House,False,746,m2,False
2018298926,listing,/383c-north-rocks-road-carlingford-nsw-2118-2018298926,1588000,is-sold,Sold at auction 11 Feb 2023,20230211,383C North Rocks Road,CARLINGFORD,NSW,2118,-33.7694168,151.0366,4,4,4,House,House,False,709,m2,False
2018300697,listing,/302-19-post-office-street-carlingford-nsw-2118-2018300697,,is-sold,Sold by private treaty 16 Feb 2023,20230216,302/19 Post Office Street,CARLINGFORD,NSW,2118,-33.77887,151.048569,2,2,2,ApartmentUnitFlat,Apartment / Unit / Flat,False,0,m2,False
2018311630,listing,/10-24-honiton-avenue-carlingford-nsw-2118-2018311630,1156000,is-sold,Sold prior to auction 23 Feb 2023,20230223,10/24 Honiton Avenue,CARLINGFORD,NSW,2118,-33.7846947,151.049545,3,3,3,Townhouse,Townhouse,False,0,m2,False
2018316309,listing,/12-buckland-avenue-carlingford-nsw-2118-2018316309,2235000,is-sold,Sold at auction 18 Feb 2023,20230218,12 Buckland Avenue,CARLINGFORD,NSW,2118,-33.7757759,151.046158,4,4,4,House,House,False,788,m2,False
2018318494,listing,/6-2-charles-street-carlingford-nsw-2118-2018318494,1065000,is-sold,Sold by private treaty 14 Feb 2023,20230214,6/2 Charles Street,CARLINGFORD,NSW,2118,-33.7854042,151.042633,3,3,3,Townhouse,Townhouse,False,223,m2,False
2018320236,listing,/12-54-56-keeler-street-carlingford-nsw-2118-2018320236,673800,is-sold,Sold by private treaty 17 Feb 2023,20230217,12/54-56 Keeler Street,CARLINGFORD,NSW,2118,-33.77794,151.054932,2,2,2,ApartmentUnitFlat,Apartment / Unit / Flat,False,0,m2,False
2018325081,listing,/22-torquil-avenue-carlingford-nsw-2118-2018325081,,is-sold,Sold prior to auction 16 Feb 2023,20230216,22 Torquil Avenue,CARLINGFORD,NSW,2118,-33.7717361,151.052643,4,4,4,House,House,False,734,m2,False
2018326802,listing,/15-bardia-road-carlingford-nsw-2118-2018326802,1950000,is-sold,Sold at auction 25 Feb 2023,20230225,15 Bardia Road,CARLINGFORD,NSW,2118,-33.7670441,151.052032,3,3,3,House,House,False,740,m2,False
2018338991,listing,/45-tomah-street-carlingford-nsw-2118-2018338991,2500000,is-sold,Sold by private treaty 07 Feb 2023,20230207,45 Tomah Street,CARLINGFORD,NSW,2118,-33.78148,151.0583,4,4,4,House,House,False,930,m2,False
2018341237,listing,/7-torquil-avenue-carlingford-nsw-2118-2018341237,1930000,is-sold,Sold at auction 24 Feb 2023,20230224,7 Torquil Avenue,CARLINGFORD,NSW,2118,-33.770256,151.0527,3,3,3,House,House,False,842,m2,False
2017994874,listing,/43-3-5-post-office-street-carlingford-nsw-2118-2017994874,951000,is-sold,Sold by private treaty 23 Dec 2022,20221223,43/3-5 Post Office Street,CARLINGFORD,NSW,2118,-33.7783661,151.051361,3,3,3,Townhouse,Townhouse,False,0,m2,False
2018019566,listing,/106-245-carlingford-road-carlingford-nsw-2118-2018019566,682000,is-sold,Sold by private treaty 09 Jan 2023,20230109,106/245 Carlingford Road,CARLINGFORD,NSW,2118,-33.777916,151.052734,2,2,2,ApartmentUnitFlat,Apartment / Unit / Flat,False,157,m2,False
2018076577,listing,/39-17-19-jenkins-road-carlingford-nsw-2118-2018076577,470000,is-sold,Sold by private treaty 30 Jan 2023,20230130,39/17-19 Jenkins Road,CARLINGFORD,NSW,2118,-33.78076,151.045731,1,1,1,ApartmentUnitFlat,Apartment / Unit / Flat,False,0,m2,False
2018124330,listing,/21-70-72-keeler-st-carlingford-nsw-2118-2018124330,650000,is-sold,Sold by private treaty 20 Dec 2022,20221220,21/70-72 Keeler St,CARLINGFORD,NSW,2118,-33.7782974,151.053528,2,2,2,ApartmentUnitFlat,Apartment / Unit / Flat,False,0,m2,False
2018128642,listing,/3-70-72-keeler-street-carlingford-nsw-2118-2018128642,540000,is-sold,Sold by private treaty 24 Dec 2022,20221224,3/70-72 Keeler Street,CARLINGFORD,NSW,2118,-33.7782974,151.053528,2,2,2,ApartmentUnitFlat,Apartment / Unit / Flat,False,0,m2,False
2018161128,listing,/48-1-3-boundary-rd-carlingford-nsw-2118-2018161128,695000,is-sold,Sold by private treaty 19 Dec 2022,20221219,48/1-3 Boundary Rd,CARLINGFORD,NSW,2118,-33.7796021,151.047318,2,2,2,ApartmentUnitFlat,Apartment / Unit / Flat,False,0,m2,False
2018191987,listing,/37-294-pennant-hills-road-carlingford-nsw-2118-2018191987,590000,is-sold,Sold by private treaty 11 Jan 2023,20230111,37/294 Pennant Hills Road,CARLINGFORD,NSW,2118,-33.78424,151.044373,2,2,2,ApartmentUnitFlat,Apartment / Unit / Flat,False,0,m2,False
2018193188,listing,/17-16-post-office-street-carlingford-nsw-2118-2018193188,883000,is-sold,Sold by private treaty 20 Dec 2022,20221220,17/16 Post Office Street,CARLINGFORD,NSW,2118,-33.7791328,151.04985,2,2,2,ApartmentUnitFlat,Apartment / Unit / Flat,False,274,m2,False
2018206791,listing,/258-marsden-road-carlingford-nsw-2118-2018206791,,is-sold,Sold by private treaty 20 Jan 2023,20230120,258 Marsden Road,CARLINGFORD,NSW,2118,-33.7888031,151.0623,5,5,5,House,House,False,796,m2,False
2018208360,listing,/22-bardia-road-carlingford-nsw-2118-2018208360,,is-sold,Sold at auction 17 Dec 2022,20221217,22 Bardia Road,CARLINGFORD,NSW,2118,-33.76792,151.051712,3,3,3,House,House,False,739,m2,False
2018213510,listing,/7-homelands-avenue-carlingford-nsw-2118-2018213510,1850000,is-sold,Sold by private treaty 16 Dec 2022,20221216,7 Homelands Avenue,CARLINGFORD,NSW,2118,-33.7875977,151.04129,5,5,5,House,House,False,790,m2,False
2018215421,listing,/16-3-coleman-avenue-carlingford-nsw-2118-2018215421,520000,is-sold,Sold by private treaty 03 Feb 2023,20230203,16/3 Coleman Avenue,CARLINGFORD,NSW,2118,-33.7836037,151.047379,2,2,2,ApartmentUnitFlat,Apartment / Unit / Flat,False,0,m2,False
2018218304,listing,/25-norfolk-place-carlingford-nsw-2118-2018218304,1750000,is-sold,Sold prior to auction 17 Dec 2022,20221217,25 Norfolk Place,CARLINGFORD,NSW,2118,-33.7792664,151.031052,4,4,4,House,House,False,841,m2,False
2018227085,listing,/17-12-post-office-street-carlingford-nsw-2118-2018227085,610000,is-sold,Sold by private treaty 15 Dec 2022,20221215,17/12 Post Office Street,CARLINGFORD,NSW,2118,-33.7791634,151.050339,2,2,2,ApartmentUnitFlat,Apartment / Unit / Flat,False,0,m2,False
2018236340,listing,/23-kay-street-carlingford-nsw-2118-2018236340,2688000,is-sold,Sold at auction 21 Jan 2023,20230121,23 Kay Street,CARLINGFORD,NSW,2118,-33.7806625,151.06012,4,4,4,House,House,False,929,m2,False
2018238527,listing,/12-alkira-road-carlingford-nsw-2118-2018238527,,is-sold,Sold at auction 17 Dec 2022,20221217,12 Alkira Road,CARLINGFORD,NSW,2118,-33.7677727,151.038925,3,3,3,House,House,False,929,m2,False
2018244426,listing,/5-anthony-street-carlingford-nsw-2118-2018244426,1810000,is-sold,Sold at auction 20 Dec 2022,20221220,5 Anthony Street,CARLINGFORD,NSW,2118,-33.7733574,151.055618,3,3,3,House,House,False,0,m2,False
2018281888,listing,/3-4-6-freeman-place-carlingford-nsw-2118-2018281888,,is-sold,Sold by private treaty 22 Dec 2022,20221222,3/4-6 Freeman Place,CARLINGFORD,NSW,2118,-33.7833481,151.064041,2,2,2,ApartmentUnitFlat,Apartment / Unit / Flat,False,0,m2,False
2018285732,listing,/34-114-116-adderton-road-carlingford-nsw-2118-2018285732,838000,is-sold,Sold by private treaty 04 Feb 2023,20230204,34/114-116 Adderton Road,CARLINGFORD,NSW,2118,-33.7851372,151.044083,3,3,3,ApartmentUnitFlat,Apartment / Unit / Flat,False,0,m2,False
2018287037,listing,/1-page-court-carlingford-nsw-2118-2018287037,,is-sold,Sold at auction 04 Feb 2023,20230204,1 Page Court,CARLINGFORD,NSW,2118,-33.770256,151.0427,4,4,4,House,House,False,695,m2,False
2017873010,listing,/11-broulee-place-carlingford-nsw-2118-2017873010,2100000,is-sold,Sold by private treaty 09 Dec 2022,20221209,11 Broulee Place,CARLINGFORD,NSW,2118,-33.7842865,151.057648,5,5,5,House,House,False,463,m2,False
2018065429,listing,/58-8-12-freeman-place-carlingford-nsw-2118-2018065429,950000,is-sold,Sold by private treaty 30 Nov 2022,20221130,58/8-12 Freeman Place,CARLINGFORD,NSW,2118,-33.78279,151.063324,3,3,3,Townhouse,Townhouse,False,0,m2,False
2018118043,listing,/11-moorilla-avenue-carlingford-nsw-2118-2018118043,,is-sold,Sold at auction 30 Nov 2022,20221130,11 Moorilla Avenue,CARLINGFORD,NSW,2118,-33.7615662,151.0426,5,5,5,House,House,False,1018,m2,False
2018174113,listing,/36-kay-street-carlingford-nsw-2118-2018174113,1755000,is-sold,Sold prior to auction 14 Dec 2022,20221214,36 Kay Street,CARLINGFORD,NSW,2118,-33.7805,151.060577,3,3,3,House,House,False,904,m2,False
2018174513,listing,/92-bradley-drive-carlingford-nsw-2118-2018174513,1650000,is-sold,Sold by private treaty 01 Dec 2022,20221201,92 Bradley Drive,CARLINGFORD,NSW,2118,-33.77282,151.04538,4,4,4,House,House,False,790,m2,False
2018176229,listing,/2-50-felton-rd-carlingford-nsw-2118-2018176229,1255000,is-sold,Sold at auction 03 Dec 2022,20221203,2/50 Felton Rd,CARLINGFORD,NSW,2118,-33.78258,151.039017,3,3,3,Townhouse,Townhouse,False,0,m2,False
2018178895,listing,/1-tracey-avenue-carlingford-nsw-2118-2018178895,1950000,is-sold,Sold prior to auction 01 Dec 2022,20221201,1 Tracey Avenue,CARLINGFORD,NSW,2118,-33.76445,151.038162,3,3,3,House,House,False,935,m2,False
2018188447,listing,/41-snowdon-avenue-carlingford-nsw-2118-2018188447,2495000,is-sold,Sold at auction 05 Dec 2022,20221205,41 Snowdon Avenue,CARLINGFORD,NSW,2118,-33.78311,151.031876,5,5,5,House,House,False,720,m2,False
2018189710,listing,/11-bardia-road-carlingford-nsw-2118-2018189710,1920000,is-sold,Sold at auction 10 Dec 2022,20221210,11 Bardia Road,CARLINGFORD,NSW,2118,-33.76691,151.051987,3,3,3,House,House,False,739,m2,False
2018191212,listing,/5-67-baker-street-carlingford-nsw-2118-2018191212,970000,is-sold,Sold at auction 28 Nov 2022,20221128,5/67 Baker Street,CARLINGFORD,NSW,2118,-33.7786942,151.042877,3,3,3,Townhouse,Townhouse,False,0,m2,False
2018198229,listing,/26-15-young-road-carlingford-nsw-2118-2018198229,785000,is-sold,Sold at auction 12 Dec 2022,20221212,26/15 Young Road,CARLINGFORD,NSW,2118,-33.7766953,151.050461,3,3,3,ApartmentUnitFlat,Apartment / Unit / Flat,False,222,m2,False
2018201055,listing,/5-kay-street-carlingford-nsw-2118-2018201055,2150000,is-sold,Sold prior to auction 30 Nov 2022,20221130,5 Kay Street,CARLINGFORD,NSW,2118,-33.7823,151.059174,4,4,4,House,House,False,465,m2,False
2018203436,listing,/122-10-thallon-street-carlingford-nsw-2118-2018203436,900000,is-sold,Sold by private treaty 09 Dec 2022,20221209,122/10 Thallon Street,CARLINGFORD,NSW,2118,-33.78074,151.046341,3,3,3,ApartmentUnitFlat,Apartment / Unit / Flat,False,176,m2,False
2018204716,listing,/142-balaka-drive-carlingford-nsw-2118-2018204716,1690000,is-sold,Sold at auction 06 Dec 2022,20221206,142 Balaka Drive,CARLINGFORD,NSW,2118,-33.7721367,151.033646,3,3,3,House,House,False,695,m2,False
2018204967,listing,/6a-honiton-avenue-carlingford-nsw-2118-2018204967,1600000,is-sold,Sold at auction 10 Dec 2022,20221210,6A Honiton Avenue,CARLINGFORD,NSW,2118,-33.786293,151.050247,4,4,4,SemiDetached,Semi-Detached,False,0,m2,False
2018206321,listing,/2-2-tripoli-avenue-carlingford-nsw-2118-2018206321,1300000,is-sold,Sold prior to auction 06 Dec 2022,20221206,2/2 Tripoli Avenue,CARLINGFORD,NSW,2118,-33.7668648,151.050064,3,3,3,House,House,False,0,m2,False
2018207644,listing,/1-tomah-street-carlingford-nsw-2118-2018207644,1645000,is-sold,Sold at auction 10 Dec 2022,20221210,1 Tomah Street,CARLINGFORD,NSW,2118,-33.7785454,151.06044,4,4,4,House,House,False,0,m2,False
2018219784,listing,/147-adderton-road-carlingford-nsw-2118-2018219784,,is-sold,Sold prior to auction 02 Dec 2022,20221202,147 Adderton Road,CARLINGFORD,NSW,2118,-33.78753,151.043839,3,3,3,House,House,False,942,m2,False
2018221106,listing,/14-209-211-carlingford-road-carlingford-nsw-2118-2018221106,750000,is-sold,Sold prior to auction 13 Dec 2022,20221213,14/209-211 Carlingford Road,CARLINGFORD,NSW,2118,-33.7771263,151.055984,3,3,3,ApartmentUnitFlat,Apartment / Unit / Flat,False,0,m2,False
2018222037,listing,/3-tripoli-avenue-carlingford-nsw-2118-2018222037,1850000,is-sold,Sold at auction 10 Dec 2022,20221210,3 Tripoli Avenue,CARLINGFORD,NSW,2118,-33.76735,151.049927,4,4,4,House,House,False,796,m2,False
2017769374,listing,/41-murray-farm-road-carlingford-nsw-2118-2017769374,1700000,is-sold,Sold by private treaty 25 Nov 2022,20221125,41 Murray Farm Road,CARLINGFORD,NSW,2118,-33.76317,151.041824,6,6,6,House,House,False,0,m2,False
2018034027,listing,/12-12-12a-post-office-street-carlingford-nsw-2118-2018034027,,is-sold,Sold by private treaty 24 Nov 2022,20221124,12/12-12A Post Office Street,CARLINGFORD,NSW,2118,-33.7791634,151.050339,2,2,2,ApartmentUnitFlat,Apartment / Unit / Flat,False,0,m2,False
2018041885,listing,/58-118-adderton-road-carlingford-nsw-2118-2018041885,605000,is-sold,Sold by private treaty 25 Nov 2022,20221125,58/118 Adderton Road,CARLINGFORD,NSW,2118,-33.7848625,151.044266,2,2,2,ApartmentUnitFlat,Apartment / Unit / Flat,False,0,m2,False
2018049860,listing,/6-pepperina-place-carlingford-nsw-2118-2018049860,2000000,is-sold,Sold by private treaty 11 Nov 2022,20221111,6 Pepperina Place,CARLINGFORD,NSW,2118,-33.7611465,151.043655,4,4,4,House,House,False,936,m2,False
2018055810,listing,/23-70-72-keeler-street-carlingford-nsw-2118-2018055810,750000,is-sold,Sold by private treaty 10 Nov 2022,20221110,23/70-72 Keeler Street,CARLINGFORD,NSW,2118,-33.7782974,151.053528,3,3,3,ApartmentUnitFlat,Apartment / Unit / Flat,False,0,m2,False
2018068412,listing,/30-rickard-street-carlingford-nsw-2118-2018068412,,is-sold,Sold by private treaty 18 Nov 2022,20221118,30 Rickard Street,CARLINGFORD,NSW,2118,-33.7787743,151.056168,4,4,4,House,House,False,949,m2,False
2018109745,listing,/193-marsden-road-carlingford-nsw-2118-2018109745,1500000,is-sold,Sold by private treaty 14 Nov 2022,20221114,193 Marsden Road,CARLINGFORD,NSW,2118,-33.78824,151.0624,4,4,4,House,House,False,1012,m2,False
2018110852,listing,/10-2-charles-street-carlingford-nsw-2118-2018110852,955000,is-sold,Sold by private treaty 19 Nov 2022,20221119,10/2 Charles Street,CARLINGFORD,NSW,2118,-33.7854042,151.042633,3,3,3,Townhouse,Townhouse,False,222,m2,False
2018128232,listing,/14-lindisfarne-crescent-carlingford-nsw-2118-2018128232,1850000,is-sold,Sold by private treaty 25 Nov 2022,20221125,14 Lindisfarne Crescent,CARLINGFORD,NSW,2118,-33.774826,151.0423,4,4,4,House,House,False,695,m2,False
2018130558,listing,/23-lyndelle-place-carlingford-nsw-2118-2018130558,1970000,is-sold,Sold at auction 12 Nov 2022,20221112,23 Lyndelle Place,CARLINGFORD,NSW,2118,-33.76771,151.061279,4,4,4,House,House,False,815,m2,False
2018134529,listing,/22-barellan-avenue-carlingford-nsw-2118-2018134529,2220000,is-sold,Sold prior to auction 10 Nov 2022,20221110,22 Barellan Avenue,CARLINGFORD,NSW,2118,-33.7779579,151.059387,3,3,3,House,House,False,961,m2,False
2018142197,listing,/4-coral-tree-drive-carlingford-nsw-2118-2018142197,1885000,is-sold,Sold at auction 12 Nov 2022,20221112,4 Coral Tree Drive,CARLINGFORD,NSW,2118,-33.7603073,151.042557,6,6,6,House,House,False,923,m2,False
2018142598,listing,/28-morshead-avenue-carlingford-nsw-2118-2018142598,2135000,is-sold,Sold at auction 12 Nov 2022,20221112,28 Morshead Avenue,CARLINGFORD,NSW,2118,-33.7679634,151.055161,4,4,4,House,House,False,539,m2,False
2018144251,listing,/46-brand-street-carlingford-nsw-2118-2018144251,1300000,is-sold,Sold by private treaty 19 Nov 2022,20221119,46 Brand Street,CARLINGFORD,NSW,2118,-33.786087,151.046158,2,2,2,House,House,False,626,m2,False
2018146383,listing,/8-54-baker-st-carlingford-nsw-2118-2018146383,800000,is-sold,Sold by private treaty 23 Nov 2022,20221123,8/54 Baker St,CARLINGFORD,NSW,2118,-33.77889,151.040909,2,2,2,Townhouse,Townhouse,False,227,m2,False
2018153204,listing,/7-montgomery-road-carlingford-nsw-2118-2018153204,2035000,is-sold,Sold at auction 23 Nov 2022,20221123,7 Montgomery Road,CARLINGFORD,NSW,2118,-33.7705345,151.054886,3,3,3,House,House,False,740,m2,False
2018157383,listing,/17-dunrossil-avenue-carlingford-nsw-2118-2018157383,1910000,is-sold,Sold at auction 19 Nov 2022,20221119,17 Dunrossil Avenue,CARLINGFORD,NSW,2118,-33.7711639,151.054459,5,5,5,House,House,False,695,m2,False
2018160691,listing,/20-lyndelle-place-carlingford-nsw-2118-2018160691,2330000,is-sold,Sold at auction 19 Nov 2022,20221119,20 Lyndelle Place,CARLINGFORD,NSW,2118,-33.7679749,151.060989,4,4,4,House,House,False,796,m2,False
2018172625,listing,/12-citrus-grove-carlingford-nsw-2118-2018172625,1795000,is-sold,Sold at auction 26 Nov 2022,20221126,12 Citrus Grove,CARLINGFORD,NSW,2118,-33.77685,151.03981,4,4,4,House,House,False,695,m2,False
2018193366,listing,/16-karingal-avenue-carlingford-nsw-2118-2018193366,1600000,is-sold,Sold prior to auction 25 Nov 2022,20221125,16 Karingal Avenue,CARLINGFORD,NSW,2118,-33.7807846,151.039337,3,3,3,House,House,False,0,m2,False
2017977103,listing,/26-40-42a-keeler-street-carlingford-nsw-2118-2017977103,650000,is-sold,Sold by private treaty 02 Nov 2022,20221102,26/40-42A Keeler Street,CARLINGFORD,NSW,2118,-33.7776833,151.056122,2,2,2,ApartmentUnitFlat,Apartment / Unit / Flat,False,0,m2,False
2017983218,listing,/65-9-15-lloyds-avenue-carlingford-nsw-2118-2017983218,685000,is-sold,Sold by private treaty 25 Oct 2022,20221025,65/9-15 Lloyds Avenue,CARLINGFORD,NSW,2118,-33.7820778,151.048126,3,3,3,ApartmentUnitFlat,Apartment / Unit / Flat,False,0,m2,False
2018003046,listing,/19-buckland-avenue-carlingford-nsw-2118-2018003046,2210000,is-sold,Sold by private treaty 09 Nov 2022,20221109,19 Buckland Avenue,CARLINGFORD,NSW,2118,-33.77432,151.046249,4,4,4,House,House,False,797,m2,False
2018040850,listing,/681-7-jenkins-road-carlingford-nsw-2118-2018040850,690000,is-sold,Sold by private treaty 26 Oct 2022,20221026,681/7 Jenkins Road,CARLINGFORD,NSW,2118,-33.78162,151.045563,2,2,2,ApartmentUnitFlat,Apartment / Unit / Flat,False,0,m2,False
2018063946,listing,/746a-pennant-hills-rd-carlingford-nsw-2118-2018063946,1450000,is-sold,Sold by private treaty 28 Oct 2022,20221028,746A Pennant Hills Rd,CARLINGFORD,NSW,2118,-33.7693748,151.049057,4,4,4,House,House,False,0,m2,False
2018067506,listing,/138-jenkins-road-carlingford-nsw-2118-2018067506,1750000,is-sold,Sold by private treaty 28 Oct 2022,20221028,138 Jenkins Road,CARLINGFORD,NSW,2118,-33.76902,151.043335,3,3,3,House,House,False,734,m2,False
2018070299,listing,/2-cedarwood-place-carlingford-nsw-2118-2018070299,1680000,is-sold,Sold by private treaty 26 Oct 2022,20221026,2 Cedarwood Place,CARLINGFORD,NSW,2118,-33.77132,151.034058,4,4,4,House,House,False,0,m2,False
2018089763,listing,/42-dryden-avenue-carlingford-nsw-2118-2018089763,1610000,is-sold,Sold by private treaty 03 Nov 2022,20221103,42 Dryden Avenue,CARLINGFORD,NSW,2118,-33.7663841,151.041092,4,4,4,House,House,False,1092,m2,False
2018090099,listing,/2-camelot-court-carlingford-nsw-2118-2018090099,1688000,is-sold,Sold by private treaty 08 Nov 2022,20221108,2 Camelot Court,CARLINGFORD,NSW,2118,-33.7824554,151.026184,4,4,4,House,House,False,740,m2,False
2018095648,listing,/9-anthony-street-carlingford-nsw-2118-2018095648,1910000,is-sold,Sold at auction 26 Oct 2022,20221026,9 Anthony Street,CARLINGFORD,NSW,2118,-33.77326,151.056168,3,3,3,House,House,False,758,m2,False
2018097728,listing,/4-baker-street-carlingford-nsw-2118-2018097728,2300000,is-sold,Sold prior to auction 24 Oct 2022,20221024,4 Baker Street,CARLINGFORD,NSW,2118,-33.7846146,151.040176,5,5,5,House,House,False,999,m2,False
2018107600,listing,/37-alamein-avenue-carlingford-nsw-2118-2018107600,1750000,is-sold,Sold at auction 01 Nov 2022,20221101,37 Alamein Avenue,CARLINGFORD,NSW,2118,-33.76892,151.054214,3,3,3,House,House,False,701,m2,False
2018114220,listing,/46-bradley-drive-carlingford-nsw-2118-2018114220,1625000,is-sold,Sold prior to auction 28 Oct 2022,20221028,46 Bradley Drive,CARLINGFORD,NSW,2118,-33.77228,151.050156,4,4,4,House,House,False,708,m2,False
2018118090,listing,/28-lochinvar-parade-carlingford-nsw-2118-2018118090,2250000,is-sold,Sold at auction 05 Nov 2022,20221105,28 Lochinvar Parade,CARLINGFORD,NSW,2118,-33.76719,151.046722,5,5,5,House,House,False,739,m2,False
2018120148,listing,/136-balaka-drive-carlingford-nsw-2118-2018120148,1600000,is-sold,Sold prior to auction 27 Oct 2022,20221027,136 Balaka Drive,CARLINGFORD,NSW,2118,-33.7722244,151.033051,3,3,3,House,House,False,752,m2,False
2018125456,listing,/60-294-302-pennant-hills-road-carlingford-nsw-2118-2018125456,600000,is-sold,Sold by private treaty 05 Nov 2022,20221105,60/294-302 Pennant Hills Road,CARLINGFORD,NSW,2118,-33.78438,151.0442,2,2,2,ApartmentUnitFlat,Apartment / Unit / Flat,False,0,m2,False
2018128099,listing,/20-ainslie-parade-carlingford-nsw-2118-2018128099,2020000,is-sold,Sold by private treaty 26 Oct 2022,20221026,20 Ainslie Parade,CARLINGFORD,NSW,2118,-33.76949,151.046112,6,6,6,House,House,False,0,m2,False
2018128540,listing,/6-honiton-avenue-carlingford-nsw-2118-2018128540,1456200,is-sold,Sold at auction 05 Nov 2022,20221105,6 Honiton Avenue,CARLINGFORD,NSW,2118,-33.786377,151.05011,3,3,3,House,House,False,0,m2,False
2018128787,listing,/80-coral-tree-drive-carlingford-nsw-2118-2018128787,1940000,is-sold,Sold at auction 09 Nov 2022,20221109,80 Coral Tree Drive,CARLINGFORD,NSW,2118,-33.7619,151.047,4,4,4,House,House,False,999,m2,False
2018129195,listing,/404-245-carlingford-road-carlingford-nsw-2118-2018129195,722000,is-sold,Sold by private treaty 28 Oct 2022,20221028,404/245 Carlingford Road,CARLINGFORD,NSW,2118,-33.777916,151.052734,2,2,2,ApartmentUnitFlat,Apartment / Unit / Flat,False,0,m2,False
2017849263,listing,/228-10-thallon-street-carlingford-nsw-2118-2017849263,725000,is-sold,Sold by private treaty 05 Oct 2022,20221005,228/10 Thallon Street,CARLINGFORD,NSW,2118,-33.78074,151.046341,2,2,2,ApartmentUnitFlat,Apartment / Unit / Flat,False,0,m2,False
2017924499,listing,/68-294-302-pennant-hills-road-carlingford-nsw-2118-2017924499,605000,is-sold,Sold by private treaty 27 Sep 2022,20220927,68/294-302 Pennant Hills Road,CARLINGFORD,NSW,2118,-33.78438,151.0442,2,2,2,ApartmentUnitFlat,Apartment / Unit / Flat,False,0,m2,False
2017951416,listing,/24-294-pennant-hills-road-carlingford-nsw-2118-2017951416,630000,is-sold,Sold by private treaty 05 Oct 2022,20221005,24/294 Pennant Hills Road,CARLINGFORD,NSW,2118,-33.78424,151.044373,2,2,2,ApartmentUnitFlat,Apartment / Unit / Flat,False,0,m2,False
2017961981,listing,/199-marsden-road-carlingford-nsw-2118-2017961981,2025000,is-sold,Sold by private treaty 12 Oct 2022,20221012,199 Marsden Road,CARLINGFORD,NSW,2118,-33.7877274,151.062119,5,5,5,House,House,False,911,m2,False
2017965810,listing,/g05-239-243-carlingford-road-carlingford-nsw-2118-2017965810,697500,is-sold,Sold by private treaty 12 Oct 2022,20221012,G05/239-243 Carlingford Road,CARLINGFORD,NSW,2118,-33.7776527,151.053345,2,2,2,ApartmentUnitFlat,Apartment / Unit / Flat,False,169,m2,False
2017981876,listing,/24-15-young-road-carlingford-nsw-2118-2017981876,695000,is-sold,Sold by private treaty 07 Oct 2022,20221007,24/15 Young Road,CARLINGFORD,NSW,2118,-33.7766953,151.050461,2,2,2,ApartmentUnitFlat,Apartment / Unit / Flat,False,0,m2,False
2018005701,listing,/688-7-jenkins-road-carlingford-nsw-2118-2018005701,666000,is-sold,Sold by private treaty 21 Oct 2022,20221021,688/7 Jenkins Road,CARLINGFORD,NSW,2118,-33.78162,151.045563,2,2,2,ApartmentUnitFlat,Apartment / Unit / Flat,False,0,m2,False
2018041692,listing,/466-north-rocks-road-carlingford-nsw-2118-2018041692,1905000,is-sold,Sold by private treaty 26 Sep 2022,20220926,466 North Rocks Road,CARLINGFORD,NSW,2118,-33.76544,151.055618,3,3,3,House,House,False,724,m2,False
2018046173,listing,/785-pennant-hills-road-carlingford-nsw-2118-2018046173,1323000,is-sold,Sold at auction 01 Oct 2022,20221001,785 Pennant Hills Road,CARLINGFORD,NSW,2118,-33.77431,151.051529,4,4,4,House,House,False,667,m2,False
2018046647,listing,/7-tanderra-avenue-carlingford-nsw-2118-2018046647,1580000,is-sold,Sold at auction 04 Oct 2022,20221004,7 Tanderra Avenue,CARLINGFORD,NSW,2118,-33.77731,151.047165,3,3,3,House,House,False,0,m2,False
2018046805,listing,/151-pennant-hills-road-carlingford-nsw-2118-2018046805,1788000,is-sold,Sold by private treaty 01 Oct 2022,20221001,151 Pennant Hills Road,CARLINGFORD,NSW,2118,-33.7861,151.031052,4,4,4,House,House,False,0,m2,False
2018051452,listing,/69-brand-street-carlingford-nsw-2118-2018051452,1650000,is-sold,Sold at auction 09 Oct 2022,20221009,69 Brand Street,CARLINGFORD,NSW,2118,-33.78644,151.045837,4,4,4,House,House,False,613,m2,False
2018053875,listing,/21-kenny-place-carlingford-nsw-2118-2018053875,1360000,is-sold,Sold at auction 08 Oct 2022,20221008,21 Kenny Place,CARLINGFORD,NSW,2118,-33.7845268,151.046158,3,3,3,House,House,False,576,m2,False
2018054501,listing,/15-213-215-carlingford-road-carlingford-nsw-2118-2018054501,850000,is-sold,Sold prior to auction 27 Sep 2022,20220927,15/213-215 Carlingford Road,CARLINGFORD,NSW,2118,-33.7772751,151.055557,3,3,3,ApartmentUnitFlat,Apartment / Unit / Flat,False,0,m2,False
2018054509,listing,/14-kay-street-carlingford-nsw-2118-2018054509,2300000,is-sold,Sold prior to auction 01 Oct 2022,20221001,14 Kay Street,CARLINGFORD,NSW,2118,-33.78255,151.058762,5,5,5,House,House,False,932,m2,False
2018059861,listing,/44-murray-farm-road-carlingford-nsw-2118-2018059861,1600000,is-sold,Sold prior to auction 01 Oct 2022,20221001,44 Murray Farm Road,CARLINGFORD,NSW,2118,-33.7638474,151.042023,5,5,5,House,House,False,923,m2,False
2018096433,listing,/11-plympton-road-carlingford-nsw-2118-2018096433,1970000,is-sold,Sold at auction 22 Oct 2022,20221022,11 Plympton Road,CARLINGFORD,NSW,2118,-33.7637863,151.060715,4,4,4,House,House,False,961,m2,False
2018108158,listing,/21-1-7-young-road-carlingford-nsw-2118-2018108158,780000,is-sold,Sold by private treaty 14 Oct 2022,20221014,21/1-7 Young Road,CARLINGFORD,NSW,2118,-33.77843,151.05069,2,2,2,ApartmentUnitFlat,Apartment / Unit / Flat,False,0,m2,False
2018108556,listing,/71-brand-street-carlingford-nsw-2118-2018108556,1170000,is-sold,Sold by private treaty 19 Oct 2022,20221019,71 Brand Street,CARLINGFORD,NSW,2118,-33.7857666,151.04538,3,3,3,House,House,False,556,m2,False
2018150448,listing,/1-6-coleman-avenue-carlingford-nsw-2118-2018150448,855000,is-sold,Sold prior to auction 24 Oct 2022,20221024,1/6 Coleman Avenue,CARLINGFORD,NSW,2118,-33.7837029,151.048569,3,3,3,Townhouse,Townhouse,False,199,m2,False
2017743015,listing,/3-3-coleman-avenue-carlingford-nsw-2118-2017743015,550000,is-sold,Sold by private treaty 09 Sep 2022,20220909,3/3 Coleman Avenue,CARLINGFORD,NSW,2118,-33.78364,151.047363,2,2,2,ApartmentUnitFlat,Apartment / Unit / Flat,False,0,m2,False
2017831597,listing,/14-craiglea-gardens-carlingford-nsw-2118-2017831597,2033960,is-sold,Sold by private treaty 23 Sep 2022,20220923,14 Craiglea Gardens,CARLINGFORD,NSW,2118,-33.76531,151.060638,5,5,5,House,House,False,758,m2,False
2017887319,listing,/50a-brand-street-carlingford-nsw-2118-2017887319,,is-sold,Sold by private treaty 23 Sep 2022,20220923,50a Brand Street,CARLINGFORD,NSW,2118,-33.7853737,151.045563,4,4,4,SemiDetached,Semi-Detached,False,0,m2,False
2017903396,listing,/16-edinburgh-avenue-carlingford-nsw-2118-2017903396,1700000,is-sold,Sold by private treaty 14 Sep 2022,20220914,16 Edinburgh Avenue,CARLINGFORD,NSW,2118,-33.7812271,151.033875,4,4,4,House,House,False,695,m2,False
2017947715,listing,/15-manildra-avenue-carlingford-nsw-2118-2017947715,1820000,is-sold,Sold by private treaty 20 Sep 2022,20220920,15 Manildra Avenue,CARLINGFORD,NSW,2118,-33.7765427,151.033691,4,4,4,House,House,False,697,m2,False
2017983522,listing,/7-page-ct-carlingford-nsw-2118-2017983522,1780000,is-sold,Sold by private treaty 19 Sep 2022,20220919,7 Page Ct,CARLINGFORD,NSW,2118,-33.7704544,151.043472,3,3,3,House,House,False,695,m2,False
2017986512,listing,/15-lanceley-avenue-carlingford-nsw-2118-2017986512,1740000,is-sold,Sold at auction 06 Sep 2022,20220906,15 Lanceley Avenue,CARLINGFORD,NSW,2118,-33.7706146,151.04129,4,4,4,House,House,False,0,m2,False
2017995214,listing,/4-239-marsden-road-carlingford-nsw-2118-2017995214,938000,is-sold,Sold by private treaty 08 Sep 2022,20220908,4/239 Marsden Road,CARLINGFORD,NSW,2118,-33.7829857,151.058258,3,3,3,Villa,Villa,False,0,m2,False
2017995682,listing,/257-marsden-road-carlingford-nsw-2118-2017995682,1570000,is-sold,Sold by private treaty 23 Sep 2022,20220923,257 Marsden Road,CARLINGFORD,NSW,2118,-33.7818565,151.05603,3,3,3,House,House,False,942,m2,False
2017996934,listing,/16-alamein-avenue-carlingford-nsw-2118-2017996934,1920000,is-sold,Sold at auction 10 Sep 2022,20220910,16 Alamein Avenue,CARLINGFORD,NSW,2118,-33.7680321,151.056274,4,4,4,House,House,False,708,m2,False
2017997611,listing,/15-118-adderton-road-carlingford-nsw-2118-2017997611,640000,is-sold,Sold by private treaty 22 Sep 2022,20220922,15/118 Adderton Road,CARLINGFORD,NSW,2118,-33.7848625,151.044266,2,2,2,ApartmentUnitFlat,Apartment / Unit / Flat,False,0,m2,False
2018007956,listing,/9-robin-street-carlingford-nsw-2118-2018007956,1700000,is-sold,Sold by private treaty 16 Sep 2022,20220916,9 Robin Street,CARLINGFORD,NSW,2118,-33.7692261,151.057434,4,4,4,House,House,False,872,m2,False
2018020554,listing,/1-385c-north-rocks-road-carlingford-nsw-2118-2018020554,1145000,is-sold,Sold at auction 17 Sep 2022,20220917,1/385C North Rocks Road,CARLINGFORD,NSW,2118,-33.7695351,151.037247,3,3,3,House,House,False,457,m2,False
2018023384,listing,/46-felton-road-carlingford-nsw-2118-2018023384,2170000,is-sold,Sold at auction 24 Sep 2022,20220924,46 Felton Road,CARLINGFORD,NSW,2118,-33.7826958,151.039474,5,5,5,House,House,False,0,m2,False
2018023862,listing,/34-pennant-parade-carlingford-nsw-2118-2018023862,1900000,is-sold,Sold prior to auction 17 Sep 2022,20220917,34 Pennant Parade,CARLINGFORD,NSW,2118,-33.7673645,151.057739,3,3,3,House,House,False,720,m2,False
2018026968,listing,/2-9b-tintern-avenue-carlingford-nsw-2118-2018026968,1270000,is-sold,Sold at auction 17 Sep 2022,20220917,2/9B Tintern Avenue,CARLINGFORD,NSW,2118,-33.7876663,151.037659,3,3,3,House,House,False,259,m2,False
2018038386,listing,/5a-bellevue-drive-carlingford-nsw-2118-2018038386,2800000,is-sold,Sold at auction 24 Sep 2022,20220924,5A Bellevue Drive,CARLINGFORD,NSW,2118,-33.76926,151.034744,5,5,5,House,House,False,938,m2,False
2018038554,listing,/32-norfolk-place-carlingford-nsw-2118-2018038554,1915000,is-sold,Sold prior to auction 16 Sep 2022,20220916,32 Norfolk Place,CARLINGFORD,NSW,2118,-33.7787247,151.031067,6,6,6,House,House,False,765,m2,False
2018041693,listing,/54-raimonde-road-carlingford-nsw-2118-2018041693,2057000,is-sold,Sold at auction 24 Sep 2022,20220924,54 Raimonde Road,CARLINGFORD,NSW,2118,-33.7874641,151.063828,4,4,4,House,House,False,929,m2,False
2018069788,listing,/59-15-young-road-carlingford-nsw-2118-2018069788,540000,is-sold,Sold by private treaty 21 Sep 2022,20220921,59/15 Young Road,CARLINGFORD,NSW,2118,-33.7766953,151.050461,1,1,1,ApartmentUnitFlat,Apartment / Unit / Flat,False,0,m2,False
2017847355,listing,/27-17-jenkins-road-carlingford-nsw-2118-2017847355,610000,is-sold,Sold by private treaty 18 Aug 2022,20220818,27/17 Jenkins Road,CARLINGFORD,NSW,2118,-33.78076,151.045731,2,2,2,ApartmentUnitFlat,Apartment / Unit / Flat,False,0,m2,False
2017847732,listing,/3-9-15-lloyds-avenue-carlingford-nsw-2118-2017847732,665000,is-sold,Sold by private treaty 14 Aug 2022,20220814,3/9-15 Lloyds Avenue,CARLINGFORD,NSW,2118,-33.7820778,151.048126,2,2,2,ApartmentUnitFlat,Apartment / Unit / Flat,False,141,m2,False
2017898689,listing,/30-homelands-avenue-carlingford-nsw-2118-2017898689,1521600,is-sold,Sold prior to auction 16 Aug 2022,20220816,30 Homelands Avenue,CARLINGFORD,NSW,2118,-33.7880363,151.040649,4,4,4,House,House,False,0,m2,False
2017902967,listing,/10-230-234-pennant-hills-road-carlingford-nsw-2118-2017902967,1060000,is-sold,Sold by private treaty 16 Aug 2022,20220816,10/230-234 Pennant Hills Road,CARLINGFORD,NSW,2118,-33.7867928,151.036209,3,3,3,Villa,Villa,False,263,m2,False
2017906212,listing,/89-15-young-rd-carlingford-nsw-2118-2017906212,660000,is-sold,Sold by private treaty 26 Aug 2022,20220826,89/15 Young Rd,CARLINGFORD,NSW,2118,-33.7766953,151.050461,2,2,2,ApartmentUnitFlat,Apartment / Unit / Flat,False,0,m2,False
2017934473,listing,/6-66-honiton-avenue-carlingford-nsw-2118-2017934473,1125000,is-sold,Sold by private treaty 02 Sep 2022,20220902,6/66 Honiton Avenue,CARLINGFORD,NSW,2118,-33.78753,151.0483,3,3,3,Villa,Villa,False,299,m2,False
2017940335,listing,/22-30-34-keeler-street-carlingford-nsw-2118-2017940335,715000,is-sold,Sold by private treaty 16 Aug 2022,20220816,22/30-34 Keeler Street,CARLINGFORD,NSW,2118,-33.7775269,151.056656,2,2,2,ApartmentUnitFlat,Apartment / Unit / Flat,False,0,m2,False
2017946830,listing,/4-craiglea-gardens-carlingford-nsw-2118-2017946830,1970000,is-sold,Sold at auction 20 Aug 2022,20220820,4 Craiglea Gardens,CARLINGFORD,NSW,2118,-33.766098,151.060211,5,5,5,House,House,False,746,m2,False
2017947713,listing,/7-pennant-parade-carlingford-nsw-2118-2017947713,2140000,is-sold,Sold at auction 13 Aug 2022,20220813,7 Pennant Parade,CARLINGFORD,NSW,2118,-33.7658577,151.0581,4,4,4,House,House,False,1012,m2,False
2017948935,listing,/6-blenheim-road-carlingford-nsw-2118-2017948935,2488000,is-sold,Sold at auction 20 Aug 2022,20220820,6 Blenheim Road,CARLINGFORD,NSW,2118,-33.7837677,151.039749,5,5,5,House,House,False,771,m2,False
2017950984,listing,/52a-honiton-west-avenue-carlingford-nsw-2118-2017950984,1280000,is-sold,Sold at auction 13 Aug 2022,20220813,52A Honiton West Avenue,CARLINGFORD,NSW,2118,-33.7861862,151.047791,4,4,4,SemiDetached,Semi-Detached,False,334,m2,False
2017956906,listing,/10-12-12a-post-office-street-carlingford-nsw-2118-2017956906,,is-sold,Sold by private treaty 22 Aug 2022,20220822,10/12-12A Post Office Street,CARLINGFORD,NSW,2118,-33.7791634,151.050339,2,2,2,ApartmentUnitFlat,Apartment / Unit / Flat,False,0,m2,False
2017957752,listing,/89-marshall-road-carlingford-nsw-2118-2017957752,935000,is-sold,Sold by private treaty 31 Aug 2022,20220831,89 Marshall Road,CARLINGFORD,NSW,2118,-33.78778,151.045288,2,2,2,SemiDetached,Semi-Detached,False,411,m2,False
2017960112,listing,/86-carmen-drive-carlingford-nsw-2118-2017960112,1901000,is-sold,Sold at auction 23 Aug 2022,20220823,86 Carmen Drive,CARLINGFORD,NSW,2118,-33.7617722,151.039383,4,4,4,House,House,False,923,m2,False
2017962926,listing,/2-11-maismonde-place-carlingford-nsw-2118-2017962926,1300000,is-sold,Sold at auction 20 Aug 2022,20220820,2/11 Maismonde Place,CARLINGFORD,NSW,2118,-33.7879181,151.063171,3,3,3,Villa,Villa,False,0,m2,False
2017975530,listing,/101-murray-farm-road-carlingford-nsw-2118-2017975530,1750000,is-sold,Sold prior to auction 27 Aug 2022,20220827,101 Murray Farm Road,CARLINGFORD,NSW,2118,-33.763298,151.035645,4,4,4,House,House,False,1037,m2,False
2017982681,listing,/25-54-56-keeler-street-carlingford-nsw-2118-2017982681,676500,is-sold,Sold by private treaty 17 Aug 2022,20220817,25/54-56 Keeler Street,CARLINGFORD,NSW,2118,-33.77794,151.054932,2,2,2,ApartmentUnitFlat,Apartment / Unit / Flat,False,0,m2,False
2017993551,listing,/19-54-56-keeler-street-carlingford-nsw-2118-2017993551,670000,is-sold,Sold by private treaty 05 Sep 2022,20220905,19/54-56 Keeler Street,CARLINGFORD,NSW,2118,-33.77794,151.054932,2,2,2,ApartmentUnitFlat,Apartment / Unit / Flat,False,0,m2,False
2017997404,listing,/111-felton-road-carlingford-nsw-2118-2017997404,1660000,is-sold,Sold at auction 03 Sep 2022,20220903,111 Felton Road,CARLINGFORD,NSW,2118,-33.78361,151.031,3,3,3,House,House,False,727,m2,False
2018023186,listing,/111a-marshall-road-carlingford-nsw-2118-2018023186,,is-sold,Sold by private treaty 18 Aug 2022,20220818,111A Marshall Road,CARLINGFORD,NSW,2118,-33.78611,151.045151,5,5,5,SemiDetached,Semi-Detached,False,0,m2,False
2016987628,listing,/101-21-23-post-office-street-carlingford-nsw-2118-2016987628,,is-sold,Sold by private treaty 10 Aug 2022,20220810,101/21-23 Post Office Street,CARLINGFORD,NSW,2118,-33.7788925,151.04834,2,2,2,ApartmentUnitFlat,Apartment / Unit / Flat,False,0,m2,False
2017449612,listing,/1-3-charles-street-carlingford-nsw-2118-2017449612,580000,is-sold,Sold by private treaty 02 Aug 2022,20220802,1/3 Charles Street,CARLINGFORD,NSW,2118,-33.78581,151.042114,2,2,2,ApartmentUnitFlat,Apartment / Unit / Flat,False,0,m2,False
2017751540,listing,/129-10-thallon-street-carlingford-nsw-2118-2017751540,655000,is-sold,Sold by private treaty 19 Jul 2022,20220719,129/10 Thallon Street,CARLINGFORD,NSW,2118,-33.78074,151.046341,2,2,2,ApartmentUnitFlat,Apartment / Unit / Flat,False,0,m2,False
2017756794,listing,/9a-mulyan-avenue-carlingford-nsw-2118-2017756794,2400000,is-sold,Sold prior to auction 12 Jul 2022,20220712,9A Mulyan Avenue,CARLINGFORD,NSW,2118,-33.7857742,151.060577,5,5,5,House,House,False,489,m2,False
2017793275,listing,/25-lasburn-crescent-carlingford-nsw-2118-2017793275,1728000,is-sold,Sold at auction 08 Aug 2022,20220808,25 Lasburn Crescent,CARLINGFORD,NSW,2118,-33.7765541,151.042084,6,6,6,House,House,False,1182,m2,False
2017812907,listing,/39-9-15-lloyds-avenue-carlingford-nsw-2118-2017812907,640000,is-sold,Sold by private treaty 12 Jul 2022,20220712,39/9-15 Lloyds Avenue,CARLINGFORD,NSW,2118,-33.7820778,151.048126,2,2,2,ApartmentUnitFlat,Apartment / Unit / Flat,False,0,m2,False
2017836580,listing,/63-2-8-james-street-carlingford-nsw-2118-2017836580,650000,is-sold,Sold by private treaty 08 Aug 2022,20220808,63/2-8 James Street,CARLINGFORD,NSW,2118,-33.7819939,151.045471,2,2,2,ApartmentUnitFlat,Apartment / Unit / Flat,False,0,m2,False
2017837450,listing,/4-330-pennant-hills-road-carlingford-nsw-2118-2017837450,560000,is-sold,Sold by private treaty 09 Aug 2022,20220809,4/330 Pennant Hills Road,CARLINGFORD,NSW,2118,-33.78307,151.048431,2,2,2,ApartmentUnitFlat,Apartment / Unit / Flat,False,0,m2,False
2017871724,listing,/43-294-302-pennant-hills-road-carlingford-nsw-2118-2017871724,630000,is-sold,Sold by private treaty 24 Jul 2022,20220724,43/294-302 Pennant Hills Road,CARLINGFORD,NSW,2118,-33.78438,151.0442,2,2,2,ApartmentUnitFlat,Apartment / Unit / Flat,False,0,m2,False
2017876200,listing,/25a-honiton-avenue-carlingford-nsw-2118-2017876200,1450000,is-sold,Sold at auction 12 Jul 2022,20220712,25a Honiton Avenue,CARLINGFORD,NSW,2118,-33.7854042,151.048309,4,4,4,Duplex,Duplex,False,0,m2,False
2017877610,listing,/81b-raimonde-road-carlingford-nsw-2118-2017877610,1600000,is-sold,Sold at auction 16 Jul 2022,20220716,81B Raimonde Road,CARLINGFORD,NSW,2118,-33.78854,151.063583,4,4,4,SemiDetached,Semi-Detached,False,0,m2,False
2017877679,listing,/20-4-6-freeman-place-carlingford-nsw-2118-2017877679,650000,is-sold,Sold by private treaty 26 Jul 2022,20220726,20/4-6 Freeman Place,CARLINGFORD,NSW,2118,-33.7833481,151.064041,2,2,2,ApartmentUnitFlat,Apartment / Unit / Flat,False,0,m2,False
2017884136,listing,/34-paterson-street-carlingford-nsw-2118-2017884136,1702000,is-sold,Sold by private treaty 04 Aug 2022,20220804,34 Paterson Street,CARLINGFORD,NSW,2118,-33.7721062,151.054169,4,4,4,House,House,False,740,m2,False
2017890174,listing,/1-keats-street-carlingford-nsw-2118-2017890174,2230000,is-sold,Sold prior to auction 13 Jul 2022,20220713,1 Keats Street,CARLINGFORD,NSW,2118,-33.7746925,151.054443,4,4,4,House,House,False,784,m2,False
2017891859,listing,/60-118-adderton-rd-carlingford-nsw-2118-2017891859,640000,is-sold,Sold by private treaty 10 Aug 2022,20220810,60/118 Adderton Rd,CARLINGFORD,NSW,2118,-33.7848625,151.044266,2,2,2,ApartmentUnitFlat,Apartment / Unit / Flat,False,0,m2,False
2017895869,listing,/14-christel-avenue-carlingford-nsw-2118-2017895869,1800000,is-sold,Sold at auction 05 Aug 2022,20220805,14 Christel Avenue,CARLINGFORD,NSW,2118,-33.76597,151.035782,4,4,4,House,House,False,920,m2,False
2017910154,listing,/unit-38-16-post-office-street-carlingford-nsw-2118-2017910154,996000,is-sold,Sold 20 Jul 2022,20220720,UNIT 38/16 POST OFFICE STREET,CARLINGFORD,NSW,2118,-33.7795219,151.050049,3,3,3,ApartmentUnitFlat,Apartment / Unit / Flat,False,0,m2,False
2017925043,listing,/24-torquil-avenue-carlingford-nsw-2118-2017925043,1850000,is-sold,Sold at auction 08 Aug 2022,20220808,24 Torquil Avenue,CARLINGFORD,NSW,2118,-33.7719345,151.0527,4,4,4,House,House,False,735,m2,False
2017925169,listing,/90a-baker-street-carlingford-nsw-2118-2017925169,1660000,is-sold,Sold at auction 06 Aug 2022,20220806,90A Baker Street,CARLINGFORD,NSW,2118,-33.7762032,151.042831,4,4,4,House,House,False,708,m2,False
2018192130,listing,/5-294-302-pennant-hills-road-carlingford-nsw-2118-2018192130,630000,is-sold,Sold by private treaty 05 Aug 2022,20220805,5/294-302 Pennant Hills Road,CARLINGFORD,NSW,2118,-33.78438,151.0442,2,2,2,ApartmentUnitFlat,Apartment / Unit / Flat,False,0,m2,False
2017660506,listing,/37-15-young-road-carlingford-nsw-2118-2017660506,690000,is-sold,Sold by private treaty 25 Jun 2022,20220625,37/15 Young Road,CARLINGFORD,NSW,2118,-33.7766953,151.050461,2,2,2,ApartmentUnitFlat,Apartment / Unit / Flat,False,0,m2,False
2017661545,listing,/2-54-keeler-street-carlingford-nsw-2118-2017661545,718000,is-sold,Sold by private treaty 20 Jun 2022,20220620,2/54 Keeler Street,CARLINGFORD,NSW,2118,-33.77794,151.054932,2,2,2,ApartmentUnitFlat,Apartment / Unit / Flat,False,153,m2,False
2017681667,listing,/147-1-7-thallon-street-carlingford-nsw-2118-2017681667,,is-sold,Sold by private treaty 08 Jul 2022,20220708,147/1-7 Thallon Street,CARLINGFORD,NSW,2118,-33.78135,151.047073,2,2,2,ApartmentUnitFlat,Apartment / Unit / Flat,False,0,m2,False
2017725128,listing,/unit-6-2b-coleman-ave-carlingford-nsw-2118-2017725128,641000,is-sold,Sold by private treaty 20 Jun 2022,20220620,Unit 6/2B Coleman Ave,CARLINGFORD,NSW,2118,-33.7835045,151.04837,2,2,2,ApartmentUnitFlat,Apartment / Unit / Flat,False,0,m2,False
2017795850,listing,/4-muruba-avenue-carlingford-nsw-2118-2017795850,2050000,is-sold,Sold by private treaty 11 Jul 2022,20220711,4 Muruba Avenue,CARLINGFORD,NSW,2118,-33.7799,151.038055,5,5,5,House,House,False,708,m2,False
2017809631,listing,/9-360-marsden-road-carlingford-nsw-2118-2017809631,602000,is-sold,Sold by private treaty 05 Jul 2022,20220705,9/360 Marsden Road,CARLINGFORD,NSW,2118,-33.7805328,151.052887,2,2,2,ApartmentUnitFlat,Apartment / Unit / Flat,False,110,m2,False
2017812782,listing,/3-12-12a-post-office-street-carlingford-nsw-2118-2017812782,450000,is-sold,Sold by private treaty 20 Jun 2022,20220620,3/12-12A Post Office Street,CARLINGFORD,NSW,2118,-33.7791634,151.050339,1,1,1,ApartmentUnitFlat,Apartment / Unit / Flat,False,0,m2,False
2017812903,listing,/23-217-219-carlingford-road-carlingford-nsw-2118-2017812903,580000,is-sold,Sold by private treaty 23 Jun 2022,20220623,23/217-219 Carlingford Road,CARLINGFORD,NSW,2118,-33.7775421,151.055252,2,2,2,ApartmentUnitFlat,Apartment / Unit / Flat,False,0,m2,False
2017812917,listing,/57-carmen-drive-carlingford-nsw-2118-2017812917,1800000,is-sold,Sold by private treaty 29 Jun 2022,20220629,57 Carmen Drive,CARLINGFORD,NSW,2118,-33.7624,151.038559,4,4,4,House,House,False,942,m2,False
2017813454,listing,/19-14-16-freeman-place-carlingford-nsw-2118-2017813454,958000,is-sold,Sold by private treaty 08 Jul 2022,20220708,19/14-16 Freeman Place,CARLINGFORD,NSW,2118,-33.7822952,151.061737,3,3,3,Townhouse,Townhouse,False,0,m2,False
2017840163,listing,/8-236-238-pennant-hills-road-carlingford-nsw-2118-2017840163,1060000,is-sold,Sold at auction 25 Jun 2022,20220625,8/236-238 Pennant Hills Road,CARLINGFORD,NSW,2118,-33.7866554,151.0369,3,3,3,Townhouse,Townhouse,False,237,m2,False
2017845340,listing,/18-2-charles-street-carlingford-nsw-2118-2017845340,1050000,is-sold,Sold by private treaty 04 Jul 2022,20220704,18/2 Charles Street,CARLINGFORD,NSW,2118,-33.7854042,151.042633,3,3,3,Townhouse,Townhouse,False,221,m2,False
2017846754,listing,/77-felton-road-carlingford-nsw-2118-2017846754,2330000,is-sold,Sold at auction 26 Jun 2022,20220626,77 Felton Road,CARLINGFORD,NSW,2118,-33.7826271,151.0356,5,5,5,House,House,False,0,m2,False
2017847517,listing,/39-tomah-street-carlingford-nsw-2118-2017847517,2750000,is-sold,Sold at auction 02 Jul 2022,20220702,39 Tomah Street,CARLINGFORD,NSW,2118,-33.7809563,151.058365,5,5,5,House,House,False,0,m2,False
2017852399,listing,/50-16-post-office-street-carlingford-nsw-2118-2017852399,780000,is-sold,Sold by private treaty 20 Jun 2022,20220620,50/16 Post Office Street,CARLINGFORD,NSW,2118,-33.7795219,151.050049,2,2,2,ApartmentUnitFlat,Apartment / Unit / Flat,False,0,m2,False
2017854671,listing,/10-azile-court-carlingford-nsw-2118-2017854671,1600000,is-sold,Sold at auction 02 Jul 2022,20220702,10 Azile Court,CARLINGFORD,NSW,2118,-33.7870941,151.039474,4,4,4,House,House,False,0,m2,False
2017871603,listing,/53-farnell-avenue-carlingford-nsw-2118-2017871603,1580000,is-sold,Sold by private treaty 07 Jul 2022,20220707,53 Farnell Avenue,CARLINGFORD,NSW,2118,-33.77536,151.037964,4,4,4,House,House,False,695,m2,False
2017875223,listing,/24-hibiscus-avenue-carlingford-nsw-2118-2017875223,1912000,is-sold,Sold at auction 04 Jul 2022,20220704,24 Hibiscus Avenue,CARLINGFORD,NSW,2118,-33.77309,151.033463,4,4,4,House,House,False,697,m2,False
2017892954,listing,/28-georgian-avenue-carlingford-nsw-2118-2017892954,1950000,is-sold,Sold prior to auction 07 Jul 2022,20220707,28 Georgian Avenue,CARLINGFORD,NSW,2118,-33.76907,151.0423,4,4,4,House,House,False,0,m2,False
2017896400,listing,/97-marshall-road-carlingford-nsw-2118-2017896400,1365000,is-sold,Sold by private treaty 07 Jul 2022,20220707,97 Marshall Road,CARLINGFORD,NSW,2118,-33.7872467,151.045059,3,3,3,House,House,False,582,m2,False
2017572371,listing,/level-1-7-30-34-keeler-street-carlingford-nsw-2118-2017572371,710000,is-sold,Sold by private treaty 10 Jun 2022,20220610,"Level 1, 7/30-34 Keeler Street",CARLINGFORD,NSW,2118,-33.7775269,151.056656,2,2,2,ApartmentUnitFlat,Apartment / Unit / Flat,False,0,m2,False
2017677382,listing,/82-carmen-drive-carlingford-nsw-2118-2017677382,1660000,is-sold,Sold by private treaty 06 Jun 2022,20220606,82 Carmen Drive,CARLINGFORD,NSW,2118,-33.76185,151.038742,4,4,4,House,House,False,942,m2,False
2017701502,listing,/1-223-227-carlingford-road-carlingford-nsw-2118-2017701502,635000,is-sold,Sold by private treaty 07 Jun 2022,20220607,1/223-227 Carlingford Road,CARLINGFORD,NSW,2118,-33.7774773,151.054581,2,2,2,ApartmentUnitFlat,Apartment / Unit / Flat,False,126,m2,False
2017733894,listing,/4b-honiton-avenue-carlingford-nsw-2118-2017733894,1440000,is-sold,Sold by private treaty 02 Jun 2022,20220602,4B Honiton Avenue,CARLINGFORD,NSW,2118,-33.78639,151.050354,3,3,3,House,House,False,429,m2,False
2017746964,listing,/2-114-116-adderton-road-carlingford-nsw-2118-2017746964,660000,is-sold,Sold by private treaty 04 Jun 2022,20220604,2/114-116 Adderton Road,CARLINGFORD,NSW,2118,-33.78521,151.044067,2,2,2,ApartmentUnitFlat,Apartment / Unit / Flat,False,0,m2,False
2017772813,listing,/50-brand-street-carlingford-nsw-2118-2017772813,1660000,is-sold,Sold by private treaty 15 Jun 2022,20220615,50 Brand Street,CARLINGFORD,NSW,2118,-33.7853737,151.045563,4,4,4,SemiDetached,Semi-Detached,False,341,m2,False
2017773841,listing,/19-norfolk-place-carlingford-nsw-2118-2017773841,2300000,is-sold,Sold at auction 02 Jun 2022,20220602,19 Norfolk Place,CARLINGFORD,NSW,2118,-33.77917,151.03038,5,5,5,House,House,False,0,m2,False
2017777553,listing,/11-woodstock-rd-carlingford-nsw-2118-2017777553,2150000,is-sold,Sold at auction 28 May 2022,20220528,11 Woodstock Rd,CARLINGFORD,NSW,2118,-33.7696457,151.047272,5,5,5,House,House,False,708,m2,False
2017779920,listing,/6-4-charles-street-carlingford-nsw-2118-2017779920,1050000,is-sold,Sold by private treaty 04 Jun 2022,20220604,6/4 Charles Street,CARLINGFORD,NSW,2118,-33.78585,151.0431,3,3,3,Townhouse,Townhouse,False,258,m2,False
2017797292,listing,/3-balmoral-place-carlingford-nsw-2118-2017797292,1920000,is-sold,Sold by private treaty 17 Jun 2022,20220617,3 Balmoral Place,CARLINGFORD,NSW,2118,-33.78462,151.030426,4,4,4,House,House,False,0,m2,False
2017800197,listing,/749-pennant-hills-road-carlingford-nsw-2118-2017800197,1710000,is-sold,Sold at auction 04 Jun 2022,20220604,749 Pennant Hills Road,CARLINGFORD,NSW,2118,-33.77112,151.051392,3,3,3,House,House,False,1024,m2,False
2017806457,listing,/4-6-freeman-place-carlingford-nsw-2118-2017806457,680000,is-sold,Sold by private treaty 30 May 2022,20220530,4/6 Freeman Place,CARLINGFORD,NSW,2118,-33.7833481,151.064041,2,2,2,ApartmentUnitFlat,Apartment / Unit / Flat,False,120,m2,False
2017809839,listing,/18-darwin-street-carlingford-nsw-2118-2017809839,2265000,is-sold,Sold at auction 18 Jun 2022,20220618,18 Darwin Street,CARLINGFORD,NSW,2118,-33.7762337,151.054977,4,4,4,House,House,False,739,m2,False
2017814901,listing,/24-alamein-avenue-carlingford-nsw-2118-2017814901,2200000,is-sold,Sold at auction 09 Jun 2022,20220609,24 Alamein Avenue,CARLINGFORD,NSW,2118,-33.7682228,151.055389,4,4,4,House,House,False,708,m2,False
2017816198,listing,/40-223-227-carlingford-road-carlingford-nsw-2118-2017816198,720000,is-sold,Sold by private treaty 09 Jun 2022,20220609,40/223-227 Carlingford Road,CARLINGFORD,NSW,2118,-33.7774773,151.054581,2,2,2,ApartmentUnitFlat,Apartment / Unit / Flat,False,0,m2,False
2017832035,listing,/53-bradley-drive-carlingford-nsw-2118-2017832035,2313000,is-sold,Sold at auction 18 Jun 2022,20220618,53 Bradley Drive,CARLINGFORD,NSW,2118,-33.77268,151.046,4,4,4,House,House,False,0,m2,False
2017832933,listing,/4-timbertop-ave-carlingford-nsw-2118-2017832933,2100000,is-sold,Sold prior to auction 14 Jun 2022,20220614,4 Timbertop Ave,CARLINGFORD,NSW,2118,-33.76259,151.045,5,5,5,House,House,False,942,m2,False
2017853575,listing,/5-41-jenkins-rd-carlingford-nsw-2118-2017853575,900000,is-sold,Sold by private treaty 15 Jun 2022,20220615,5/41 Jenkins Rd,CARLINGFORD,NSW,2118,-33.77829,151.045914,2,2,2,Townhouse,Townhouse,False,0,m2,False
2017874767,listing,/50-brand-street-carlingford-nsw-2118-2017874767,1660000,is-sold,Sold by private treaty 06 Jun 2022,20220606,50 Brand Street,CARLINGFORD,NSW,2118,-33.7853737,151.045563,4,4,4,SemiDetached,Semi-Detached,False,341,m2,False
2017880425,listing,/20-12-post-office-street-carlingford-nsw-2118-2017880425,450000,is-sold,Sold by private treaty 20 Jun 2022,20220620,20/12 Post Office Street,CARLINGFORD,NSW,2118,-33.7791634,151.050339,1,1,1,ApartmentUnitFlat,Apartment / Unit / Flat,False,0,m2,False
2017605858,listing,/414-2-thallon-street-carlingford-nsw-2118-2017605858,615000,is-sold,Sold by private treaty 17 May 2022,20220517,414/2 Thallon Street,CARLINGFORD,NSW,2118,-33.78166,151.046173,2,2,2,ApartmentUnitFlat,Apartment / Unit / Flat,False,0,m2,False
2017626356,listing,/4-15-young-road-carlingford-nsw-2118-2017626356,815000,is-sold,Sold by private treaty 12 May 2022,20220512,4/15 young road,CARLINGFORD,NSW,2118,-33.7766953,151.050461,3,3,3,ApartmentUnitFlat,Apartment / Unit / Flat,False,149,m2,False
2017646991,listing,/26-114-116-adderton-road-carlingford-nsw-2118-2017646991,630000,is-sold,Sold by private treaty 25 May 2022,20220525,26/114-116 Adderton Road,CARLINGFORD,NSW,2118,-33.78521,151.044067,2,2,2,ApartmentUnitFlat,Apartment / Unit / Flat,False,140,m2,False
2017648955,listing,/18-1-tiptrees-avenue-carlingford-nsw-2118-2017648955,603000,is-sold,Sold by private treaty 17 May 2022,20220517,18/1 Tiptrees Avenue,CARLINGFORD,NSW,2118,-33.783638,151.046432,2,2,2,ApartmentUnitFlat,Apartment / Unit / Flat,False,0,m2,False
2017678525,listing,/10-330-pennant-hills-road-carlingford-nsw-2118-2017678525,604000,is-sold,Sold by private treaty 09 May 2022,20220509,10/330 Pennant Hills Road,CARLINGFORD,NSW,2118,-33.78307,151.048431,2,2,2,ApartmentUnitFlat,Apartment / Unit / Flat,False,0,m2,False
2017685478,listing,/57-14-16-freeman-place-carlingford-nsw-2118-2017685478,951000,is-sold,Sold by private treaty 15 May 2022,20220515,57/14-16 Freeman Place,CARLINGFORD,NSW,2118,-33.7823257,151.061966,3,3,3,Townhouse,Townhouse,False,0,m2,False
2017686503,listing,/68-1-donald-street-carlingford-nsw-2118-2017686503,706000,is-sold,Sold by private treaty 12 May 2022,20220512,68/1 Donald Street,CARLINGFORD,NSW,2118,-33.7784653,151.049591,2,2,2,ApartmentUnitFlat,Apartment / Unit / Flat,False,0,m2,False
2017698973,listing,/105-239-243-carlingford-road-carlingford-nsw-2118-2017698973,680000,is-sold,Sold by private treaty 27 May 2022,20220527,105/239-243 Carlingford Road,CARLINGFORD,NSW,2118,-33.7776527,151.053345,2,2,2,ApartmentUnitFlat,Apartment / Unit / Flat,False,0,m2,False
2017699848,listing,/9-110-112-adderton-road-carlingford-nsw-2118-2017699848,675000,is-sold,Sold by private treaty 05 May 2022,20220505,9/110-112 Adderton Road,CARLINGFORD,NSW,2118,-33.7855721,151.044159,2,2,2,ApartmentUnitFlat,Apartment / Unit / Flat,False,0,m2,False
2017733823,listing,/48-30-34-keeler-street-carlingford-nsw-2118-2017733823,1288888,is-sold,Sold by private treaty 05 May 2022,20220505,48/30-34 Keeler Street,CARLINGFORD,NSW,2118,-33.7775269,151.056656,4,4,4,ApartmentUnitFlat,Apartment / Unit / Flat,False,0,m2,False
2017736144,listing,/26-snowdon-ave-carlingford-nsw-2118-2017736144,2120000,is-sold,Sold at auction 07 May 2022,20220507,26 Snowdon Ave,CARLINGFORD,NSW,2118,-33.7813721,151.031,4,4,4,House,House,False,695,m2,False
2017744531,listing,/80-ebony-avenue-carlingford-nsw-2118-2017744531,1765000,is-sold,Sold prior to auction 25 May 2022,20220525,80 Ebony Avenue,CARLINGFORD,NSW,2118,-33.7712555,151.0366,4,4,4,House,House,False,833,m2,False
2017745827,listing,/12-2-freeman-place-carlingford-nsw-2118-2017745827,1210000,is-sold,Sold by private treaty 26 May 2022,20220526,12/2 Freeman Place,CARLINGFORD,NSW,2118,-33.784565,151.06427,3,3,3,Townhouse,Townhouse,False,254,m2,False
2017747646,listing,/5-way-close-carlingford-nsw-2118-2017747646,2010000,is-sold,Sold at auction 14 May 2022,20220514,5 Way Close,CARLINGFORD,NSW,2118,-33.76624,151.0564,3,3,3,House,House,False,796,m2,False
2017752547,listing,/32-lasburn-crescent-carlingford-nsw-2118-2017752547,1750000,is-sold,Sold prior to auction 18 May 2022,20220518,32 Lasburn Crescent,CARLINGFORD,NSW,2118,-33.77594,151.042435,4,4,4,House,House,False,708,m2,False
2017767342,listing,/75-14-16-freeman-place-carlingford-nsw-2118-2017767342,997000,is-sold,Sold prior to auction 06 May 2022,20220506,75/14-16 Freeman Place,CARLINGFORD,NSW,2118,-33.7822952,151.061737,3,3,3,Townhouse,Townhouse,False,0,m2,False
2017768496,listing,/107-15-young-road-carlingford-nsw-2118-2017768496,720000,is-sold,Sold by private treaty 05 May 2022,20220505,107/15 Young Road,CARLINGFORD,NSW,2118,-33.7766953,151.050461,2,2,2,ApartmentUnitFlat,Apartment / Unit / Flat,False,0,m2,False
2017776014,listing,/3-1-boundary-road-carlingford-nsw-2118-2017776014,895000,is-sold,Sold prior to auction 19 May 2022,20220519,3/1 Boundary Road,CARLINGFORD,NSW,2118,-33.77962,151.0473,2,2,2,ApartmentUnitFlat,Apartment / Unit / Flat,False,0,m2,False
2017778320,listing,/50-2-8-james-street-carlingford-nsw-2118-2017778320,485000,is-sold,Sold by private treaty 27 May 2022,20220527,50/2-8 James Street,CARLINGFORD,NSW,2118,-33.7819939,151.045471,1,1,1,ApartmentUnitFlat,Apartment / Unit / Flat,False,0,m2,False
2017782465,listing,/31-13-17-thallon-street-carlingford-nsw-2118-2017782465,820000,is-sold,Sold by private treaty 24 May 2022,20220524,31/13-17 Thallon Street,CARLINGFORD,NSW,2118,-33.78008,151.047333,3,3,3,ApartmentUnitFlat,Apartment / Unit / Flat,False,0,m2,False
2017586392,listing,/352-2-thallon-street-carlingford-nsw-2118-2017586392,675000,is-sold,Sold by private treaty 12 Apr 2022,20220412,352/2 Thallon Street,CARLINGFORD,NSW,2118,-33.78166,151.046173,2,2,2,ApartmentUnitFlat,Apartment / Unit / Flat,False,0,m2,False
2017597366,listing,/3-1-dunmore-avenue-carlingford-nsw-2118-2017597366,1500000,is-sold,Sold by private treaty 29 Apr 2022,20220429,3/1 Dunmore Avenue,CARLINGFORD,NSW,2118,-33.78422,151.0398,3,3,3,House,House,False,266,m2,False
2017619066,listing,/42-8-12-freeman-place-carlingford-nsw-2118-2017619066,938000,is-sold,Sold by private treaty 29 Apr 2022,20220429,42/8-12 Freeman Place,CARLINGFORD,NSW,2118,-33.78279,151.063324,3,3,3,Townhouse,Townhouse,False,0,m2,False
2017630219,listing,/4-1-3-tiptrees-ave-carlingford-nsw-2118-2017630219,630000,is-sold,Sold by private treaty 19 Apr 2022,20220419,4 /1-3 Tiptrees Ave,CARLINGFORD,NSW,2118,-33.78367,151.046249,3,3,3,House,House,False,0,m2,False
2017634007,listing,/191-carlingford-road-carlingford-nsw-2118-2017634007,1650000,is-sold,Sold prior to auction 24 Apr 2022,20220424,191 Carlingford Road,CARLINGFORD,NSW,2118,-33.77676,151.057663,3,3,3,House,House,False,784,m2,False
2017660575,listing,/10-broulee-place-carlingford-nsw-2118-2017660575,2600000,is-sold,Sold at auction 09 Apr 2022,20220409,10 Broulee Place,CARLINGFORD,NSW,2118,-33.784523,151.057709,4,4,4,House,House,False,923,m2,False
2017673319,listing,/14-yalding-avenue-carlingford-nsw-2118-2017673319,1740000,is-sold,Sold by private treaty 10 Apr 2022,20220410,14 Yalding Avenue,CARLINGFORD,NSW,2118,-33.7717857,151.034149,3,3,3,House,House,False,0,m2,False
2017675286,listing,/83-294-302-pennant-hills-road-carlingford-nsw-2118-2017675286,860000,is-sold,Sold by private treaty 19 Apr 2022,20220419,83/294-302 Pennant Hills Road,CARLINGFORD,NSW,2118,-33.78438,151.0442,3,3,3,ApartmentUnitFlat,Apartment / Unit / Flat,False,0,m2,False
2017678536,listing,/10-linley-close-carlingford-nsw-2118-2017678536,2510000,is-sold,Sold at auction 09 Apr 2022,20220409,10 Linley Close,CARLINGFORD,NSW,2118,-33.7811775,151.027283,4,4,4,House,House,False,974,m2,False
2017685841,listing,/4-30-34-keeler-street-carlingford-nsw-2118-2017685841,668000,is-sold,Sold by private treaty 28 Apr 2022,20220428,4/30-34 Keeler Street,CARLINGFORD,NSW,2118,-33.7775269,151.056656,2,2,2,ApartmentUnitFlat,Apartment / Unit / Flat,False,0,m2,False
2017688623,listing,/7-364-pennant-hills-road-carlingford-nsw-2118-2017688623,465000,is-sold,Sold by private treaty 13 Apr 2022,20220413,7/364 Pennant Hills Road,CARLINGFORD,NSW,2118,-33.7809067,151.052551,1,1,1,ApartmentUnitFlat,Apartment / Unit / Flat,False,0,m2,False
2017701498,listing,/112a-balaka-drive-carlingford-nsw-2118-2017701498,1910000,is-sold,Sold at auction 23 Apr 2022,20220423,112a Balaka Drive,CARLINGFORD,NSW,2118,-33.7724075,151.030518,4,4,4,House,House,False,867,m2,False
2017701690,listing,/12-181-pennant-hills-road-carlingford-nsw-2118-2017701690,1250000,is-sold,Sold prior to auction 21 Apr 2022,20220421,12/181 Pennant Hills Road,CARLINGFORD,NSW,2118,-33.78593,151.037445,3,3,3,SemiDetached,Semi-Detached,False,274,m2,False
2017714712,listing,/32-12-12a-post-office-street-carlingford-nsw-2118-2017714712,450000,is-sold,Sold by private treaty 30 Apr 2022,20220430,32/12-12A Post Office Street,CARLINGFORD,NSW,2118,-33.7791634,151.050339,1,1,1,ApartmentUnitFlat,Apartment / Unit / Flat,False,0,m2,False
2017714964,listing,/6-50-felton-road-carlingford-nsw-2118-2017714964,1498000,is-sold,Sold at auction 30 Apr 2022,20220430,6/50 Felton Road,CARLINGFORD,NSW,2118,-33.78262,151.039017,4,4,4,Townhouse,Townhouse,False,0,m2,False
2017716485,listing,/10-231-233-carlingford-road-carlingford-nsw-2118-2017716485,880000,is-sold,Sold by private treaty 12 Apr 2022,20220412,10/231-233 Carlingford Road,CARLINGFORD,NSW,2118,-33.7775574,151.054077,3,3,3,ApartmentUnitFlat,Apartment / Unit / Flat,False,164,m2,False
2017767343,listing,/66-14-16-freeman-place-carlingford-nsw-2118-2017767343,970000,is-sold,Sold prior to auction 05 May 2022,20220505,66/14-16 Freeman Place,CARLINGFORD,NSW,2118,-33.7822952,151.061737,3,3,3,Townhouse,Townhouse,False,0,m2,False
2017786817,listing,/51-brand-street-carlingford-nsw-2118-2017786817,1680000,is-sold,Sold by private treaty 03 May 2022,20220503,51 Brand Street,CARLINGFORD,NSW,2118,-33.7876358,151.046326,,,,House,House,False,0,m2,False
2017808598,listing,/43a-brand-street-carlingford-nsw-2118-2017808598,1685000,is-sold,Sold by private treaty 11 Apr 2022,20220411,43A Brand Street,CARLINGFORD,NSW,2118,-33.7880173,151.046524,4,4,4,SemiDetached,Semi-Detached,False,302,m2,False
2017861715,listing,/9-114-adderton-road-carlingford-nsw-2118-2017861715,,is-sold,Sold by private treaty 21 Apr 2022,20220421,9/114 Adderton Road,CARLINGFORD,NSW,2118,-33.7851944,151.044083,3,3,3,ApartmentUnitFlat,Apartment / Unit / Flat,False,0,m2,False
2016799856,listing,/22-bankshill-crescent-carlingford-nsw-2118-2016799856,1550000,is-sold,Sold by private treaty 08 Apr 2022,20220408,22 Bankshill Crescent,CARLINGFORD,NSW,2118,-33.7851067,151.057022,3,3,3,House,House,False,942,m2,False
2017318210,listing,/56-2-james-street-carlingford-nsw-2118-2017318210,475000,is-sold,Sold by private treaty 06 Apr 2022,20220406,56/2 James Street,CARLINGFORD,NSW,2118,-33.7819939,151.045471,1,1,1,ApartmentUnitFlat,Apartment / Unit / Flat,False,0,m2,False
2017533772,listing,/12-294-302-pennant-hills-rd-carlingford-nsw-2118-2017533772,603000,is-sold,Sold by private treaty 31 Mar 2022,20220331,12/294-302 Pennant Hills Rd,CARLINGFORD,NSW,2118,-33.78438,151.0442,2,2,2,ApartmentUnitFlat,Apartment / Unit / Flat,False,0,m2,False
2017539114,listing,/l3-229-carlingford-rd-carlingford-nsw-2118-2017539114,825000,is-sold,Sold by private treaty 06 Apr 2022,20220406,L3/229 Carlingford Rd,CARLINGFORD,NSW,2118,-33.77751,151.054214,3,3,3,ApartmentUnitFlat,Apartment / Unit / Flat,False,0,m2,False
2017578766,listing,/69-marshall-road-carlingford-nsw-2118-2017578766,1525000,is-sold,Sold by private treaty 26 Mar 2022,20220326,69 Marshall Road,CARLINGFORD,NSW,2118,-33.7890739,151.045853,4,4,4,SemiDetached,Semi-Detached,False,314,m2,False
2017582808,listing,/27-217-221-carlingford-road-carlingford-nsw-2118-2017582808,660000,is-sold,Sold by private treaty 29 Mar 2022,20220329,27/217-221 Carlingford Road,CARLINGFORD,NSW,2118,-33.7775421,151.055252,2,2,2,ApartmentUnitFlat,Apartment / Unit / Flat,False,0,m2,False
2017600835,listing,/12-16-post-office-street-carlingford-nsw-2118-2017600835,900000,is-sold,Sold by private treaty 04 Apr 2022,20220404,12/16 Post Office Street,CARLINGFORD,NSW,2118,-33.7795219,151.050049,2,2,2,ApartmentUnitFlat,Apartment / Unit / Flat,False,182,m2,False
2017611209,listing,/40-9-15-lloyds-avenue-carlingford-nsw-2118-2017611209,720000,is-sold,Sold by private treaty 30 Mar 2022,20220330,40/9-15 Lloyds Avenue,CARLINGFORD,NSW,2118,-33.7820778,151.048126,2,2,2,ApartmentUnitFlat,Apartment / Unit / Flat,False,0,m2,False
2017619394,listing,/39-pennant-parade-carlingford-nsw-2118-2017619394,1880000,is-sold,Sold prior to auction 26 Mar 2022,20220326,39 Pennant Parade,CARLINGFORD,NSW,2118,-33.7682877,151.058624,5,5,5,House,House,False,714,m2,False
2017633399,listing,/1-67-baker-street-carlingford-nsw-2118-2017633399,1030000,is-sold,Sold by private treaty 29 Mar 2022,20220329,1/67 Baker Street,CARLINGFORD,NSW,2118,-33.7786942,151.042953,3,3,3,Townhouse,Townhouse,False,0,m2,False
2017635999,listing,/2-paterson-street-carlingford-nsw-2118-2017635999,3620000,is-sold,Sold at auction 31 Mar 2022,20220331,2 Paterson Street,CARLINGFORD,NSW,2118,-33.772995,151.056076,5,5,5,House,House,False,740,m2,False
2017637739,listing,/401-245-247-carlingford-road-carlingford-nsw-2118-2017637739,895000,is-sold,Sold at auction 26 Mar 2022,20220326,401/245-247 Carlingford Road,CARLINGFORD,NSW,2118,-33.777916,151.052734,3,3,3,ApartmentUnitFlat,Apartment / Unit / Flat,False,0,m2,False
2017650798,listing,/7-darwin-street-carlingford-nsw-2118-2017650798,2380000,is-sold,Sold at auction 02 Apr 2022,20220402,7 Darwin Street,CARLINGFORD,NSW,2118,-33.77599,151.054031,4,4,4,House,House,False,739,m2,False
2017651374,listing,/4-wondabah-place-carlingford-nsw-2118-2017651374,2530000,is-sold,Sold at auction 31 Mar 2022,20220331,4 Wondabah Place,CARLINGFORD,NSW,2118,-33.7659454,151.0457,5,5,5,House,House,False,700,m2,False
2017651813,listing,/8-madison-avenue-carlingford-nsw-2118-2017651813,1680000,is-sold,Sold at auction 31 Mar 2022,20220331,8 Madison Avenue,CARLINGFORD,NSW,2118,-33.78459,151.060165,4,4,4,House,House,False,330,m2,False
2017654236,listing,/19-bevan-place-carlingford-nsw-2118-2017654236,2560000,is-sold,Sold prior to auction 28 Mar 2022,20220328,19 Bevan Place,CARLINGFORD,NSW,2118,-33.7737656,151.0497,5,5,5,House,House,False,795,m2,False
2017662272,listing,/11-2-freeman-place-carlingford-nsw-2118-2017662272,1275000,is-sold,Sold by private treaty 29 Mar 2022,20220329,11/2 Freeman Place,CARLINGFORD,NSW,2118,-33.784565,151.06427,3,3,3,Townhouse,Townhouse,False,0,m2,False
2017667606,listing,/105-2-8-james-street-carlingford-nsw-2118-2017667606,712000,is-sold,Sold by private treaty 04 Apr 2022,20220404,105/2-8 James Street,CARLINGFORD,NSW,2118,-33.7819939,151.045471,2,2,2,ApartmentUnitFlat,Apartment / Unit / Flat,False,0,m2,False
2017676813,listing,/37-brand-st-carlingford-nsw-2118-2017676813,1450000,is-sold,Sold by private treaty 29 Mar 2022,20220329,37 Brand St,CARLINGFORD,NSW,2118,-33.78841,151.046661,4,4,4,Duplex,Duplex,False,309,m2,False
2017682643,listing,/20-2-coleman-avenue-carlingford-nsw-2118-2017682643,985000,is-sold,Sold by private treaty 07 Apr 2022,20220407,20/2 Coleman Avenue,CARLINGFORD,NSW,2118,-33.7835045,151.04837,3,3,3,Townhouse,Townhouse,False,0,m2,False
2016078221,listing,/28-12-12a-post-office-street-carlingford-nsw-2118-2016078221,630000,is-sold,Sold by private treaty 14 Mar 2022,20220314,28/12-12A Post Office Street,CARLINGFORD,NSW,2118,-33.7791634,151.050339,2,2,2,ApartmentUnitFlat,Apartment / Unit / Flat,False,0,m2,False
2017289418,listing,/303-245-carlingford-road-carlingford-nsw-2118-2017289418,693000,is-sold,Sold by private treaty 22 Mar 2022,20220322,303/245 Carlingford Road,CARLINGFORD,NSW,2118,-33.777916,151.052734,2,2,2,ApartmentUnitFlat,Apartment / Unit / Flat,False,0,m2,False
2017342301,listing,/74a-adderton-road-carlingford-nsw-2118-2017342301,1858000,is-sold,Sold by private treaty 18 Mar 2022,20220318,74A Adderton Road,CARLINGFORD,NSW,2118,-33.7886734,151.044571,5,5,5,House,House,False,424,m2,False
2017523681,listing,/105-235-237-carlingford-road-carlingford-nsw-2118-2017523681,648500,is-sold,Sold by private treaty 22 Mar 2022,20220322,105/235-237 Carlingford Road,CARLINGFORD,NSW,2118,-33.777626,151.053711,2,2,2,ApartmentUnitFlat,Apartment / Unit / Flat,False,0,m2,False
2017561117,listing,/16-66-68-keeler-street-carlingford-nsw-2118-2017561117,535000,is-sold,Sold by private treaty 14 Mar 2022,20220314,16/66-68 Keeler Street,CARLINGFORD,NSW,2118,-33.77815,151.053879,1,1,1,ApartmentUnitFlat,Apartment / Unit / Flat,False,0,m2,False
2017567646,listing,/8-16-post-office-street-carlingford-nsw-2118-2017567646,920000,is-sold,Sold prior to auction 14 Mar 2022,20220314,8/16 Post Office Street,CARLINGFORD,NSW,2118,-33.7795219,151.050049,3,3,3,ApartmentUnitFlat,Apartment / Unit / Flat,False,0,m2,False
2017573772,listing,/24-tripoli-avenue-carlingford-nsw-2118-2017573772,1755000,is-sold,Sold by private treaty 25 Mar 2022,20220325,24 Tripoli Avenue,CARLINGFORD,NSW,2118,-33.76788,151.048569,4,4,4,House,House,False,711,m2,False
2017574616,listing,/7-camelot-court-carlingford-nsw-2118-2017574616,1908000,is-sold,Sold by private treaty 17 Mar 2022,20220317,7 Camelot Court,CARLINGFORD,NSW,2118,-33.78232,151.025192,5,5,5,House,House,False,828,m2,False
2017578764,listing,/15-346-pennant-hills-road-carlingford-nsw-2118-2017578764,580000,is-sold,Sold by private treaty 12 Mar 2022,20220312,15/346 Pennant Hills Road,CARLINGFORD,NSW,2118,-33.7813568,151.051025,2,2,2,ApartmentUnitFlat,Apartment / Unit / Flat,False,130,m2,False
2017603420,listing,/1-2-homelands-avenue-carlingford-nsw-2118-2017603420,1260000,is-sold,Sold at auction 17 Mar 2022,20220317,1/2 Homelands Avenue,CARLINGFORD,NSW,2118,-33.7884026,151.043655,3,3,3,Townhouse,Townhouse,False,261,m2,False
2017605573,listing,/78-8-10-boundary-road-carlingford-nsw-2118-2017605573,741000,is-sold,Sold by private treaty 22 Mar 2022,20220322,78/8-10 Boundary Road,CARLINGFORD,NSW,2118,-33.7797661,151.048737,2,2,2,ApartmentUnitFlat,Apartment / Unit / Flat,False,0,m2,False
2017605629,listing,/7-78-82-jenkins-road-carlingford-nsw-2118-2017605629,980000,is-sold,Sold by private treaty 22 Mar 2022,20220322,7/78-82 Jenkins Road,CARLINGFORD,NSW,2118,-33.7746773,151.044556,3,3,3,Townhouse,Townhouse,False,0,m2,False
2017607864,listing,/11-blenheim-road-carlingford-nsw-2118-2017607864,2266000,is-sold,Sold at auction 17 Mar 2022,20220317,11 Blenheim Road,CARLINGFORD,NSW,2118,-33.78342,151.039276,4,4,4,House,House,False,898,m2,False
2017613034,listing,/4b-farnell-avenue-carlingford-nsw-2118-2017613034,1525000,is-sold,Sold prior to auction 14 Mar 2022,20220314,4B Farnell Avenue,CARLINGFORD,NSW,2118,-33.77141,151.0377,,,,VacantLand,Vacant land,False,1042,m2,False
2017617520,listing,/4-coral-tree-drive-carlingford-nsw-2118-2017617520,2100000,is-sold,Sold at auction 19 Mar 2022,20220319,4 Coral tree Drive,CARLINGFORD,NSW,2118,-33.7603073,151.042557,5,5,5,House,House,False,923,m2,False
2017637811,listing,/57-8-10-boundary-road-carlingford-nsw-2118-2017637811,720000,is-sold,Sold at auction 25 Mar 2022,20220325,57/8-10 Boundary Road,CARLINGFORD,NSW,2118,-33.7797661,151.048737,2,2,2,ApartmentUnitFlat,Apartment / Unit / Flat,False,145,m2,False
2017646523,listing,/25-1-11-donald-street-carlingford-nsw-2118-2017646523,1150000,is-sold,Sold by private treaty 24 Mar 2022,20220324,25/1-11 Donald Street,CARLINGFORD,NSW,2118,-33.7784958,151.0496,3,3,3,ApartmentUnitFlat,Apartment / Unit / Flat,False,211,m2,False
2017659515,listing,/8-17-thallon-st-carlingford-nsw-2118-2017659515,785000,is-sold,Sold by private treaty 25 Mar 2022,20220325,8/17 Thallon st,CARLINGFORD,NSW,2118,-33.78008,151.047333,2,2,2,ApartmentUnitFlat,Apartment / Unit / Flat,False,0,m2,False
2017698611,listing,/25-213-215-carlingford-rd-carlingford-nsw-2118-2017698611,740000,is-sold,Sold by private treaty 25 Mar 2022,20220325,25/213-215 Carlingford Rd,CARLINGFORD,NSW,2118,-33.7772751,151.055557,2,2,2,ApartmentUnitFlat,Apartment / Unit / Flat,False,0,m2,False
2017737960,listing,/105-1-post-office-street-carlingford-nsw-2118-2017737960,530000,is-sold,Sold by private treaty 16 Mar 2022,20220316,105/1 Post Office Street,CARLINGFORD,NSW,2118,-33.7784157,151.051712,1,1,1,ApartmentUnitFlat,Apartment / Unit / Flat,False,0,m2,False
2017322021,listing,/167-pennant-hills-road-carlingford-nsw-2118-2017322021,2428000,is-sold,Sold by private treaty 27 Feb 2022,20220227,167 Pennant Hills Road,CARLINGFORD,NSW,2118,-33.7854958,151.034225,5,5,5,House,House,False,0,m2,False
2017438597,listing,/15-2-charles-street-carlingford-nsw-2118-2017438597,1070000,is-sold,Sold at auction 07 Mar 2022,20220307,15/2 Charles Street,CARLINGFORD,NSW,2118,-33.78537,151.042816,3,3,3,Townhouse,Townhouse,False,0,m2,False
2017505930,listing,/28-lesley-avenue-carlingford-nsw-2118-2017505930,2125000,is-sold,Sold by private treaty 21 Feb 2022,20220221,28 Lesley Avenue,CARLINGFORD,NSW,2118,-33.7766151,151.038269,4,4,4,House,House,False,0,m2,False
2017532932,listing,/84-15-young-road-carlingford-nsw-2118-2017532932,780000,is-sold,Sold by private treaty 11 Mar 2022,20220311,84/15 Young Road,CARLINGFORD,NSW,2118,-33.7766953,151.050461,3,3,3,ApartmentUnitFlat,Apartment / Unit / Flat,False,0,m2,False
2017550541,listing,/5-96a-baker-street-carlingford-nsw-2118-2017550541,1200000,is-sold,Sold at auction 17 Feb 2022,20220217,5/96A Baker Street,CARLINGFORD,NSW,2118,-33.7750778,151.043869,3,3,3,Townhouse,Townhouse,False,207,m2,False
2017559871,listing,/9-niangla-place-carlingford-nsw-2118-2017559871,1745000,is-sold,Sold by private treaty 26 Feb 2022,20220226,9 Niangla Place,CARLINGFORD,NSW,2118,-33.78181,151.040375,4,4,4,House,House,False,720,m2,False
2017570056,listing,/42-14-16-freeman-place-carlingford-nsw-2118-2017570056,975000,is-sold,Sold at auction 26 Feb 2022,20220226,42/14-16 Freeman Place,CARLINGFORD,NSW,2118,-33.7823257,151.061966,3,3,3,Townhouse,Townhouse,False,105,m2,False
2017572982,listing,/6-mulyan-avenue-carlingford-nsw-2118-2017572982,1800000,is-sold,Sold at auction 17 Feb 2022,20220217,6 Mulyan Avenue,CARLINGFORD,NSW,2118,-33.7855721,151.0615,3,3,3,House,House,False,620,m2,False
2017575288,listing,/6-60-adderton-road-carlingford-nsw-2118-2017575288,1200000,is-sold,Sold by private treaty 21 Feb 2022,20220221,6/60 Adderton Road,CARLINGFORD,NSW,2118,-33.7893562,151.044571,3,3,3,Villa,Villa,False,0,m2,False
2017576720,listing,/354c-north-rocks-road-carlingford-nsw-2118-2017576720,1460000,is-sold,Sold prior to auction 24 Feb 2022,20220224,354C North Rocks Road,CARLINGFORD,NSW,2118,-33.769886,151.035461,3,3,3,House,House,False,0,m2,False
2017581267,listing,/40-tripoli-avenue-carlingford-nsw-2118-2017581267,1890000,is-sold,Sold at auction 02 Mar 2022,20220302,40 Tripoli Avenue,CARLINGFORD,NSW,2118,-33.76826,151.049438,4,4,4,House,House,False,761,m2,False
2017581558,listing,/7-60-adderton-road-carlingford-nsw-2118-2017581558,1100000,is-sold,Sold prior to auction 28 Feb 2022,20220228,7/60 Adderton Road,CARLINGFORD,NSW,2118,-33.7893562,151.044571,3,3,3,Villa,Villa,False,274,m2,False
2017582198,listing,/20-olinda-crescent-carlingford-nsw-2118-2017582198,1750000,is-sold,Sold at auction 04 Mar 2022,20220304,20 Olinda Crescent,CARLINGFORD,NSW,2118,-33.7739067,151.033691,3,3,3,House,House,False,725,m2,False
2017583491,listing,/23-kay-street-carlingford-nsw-2118-2017583491,2420000,is-sold,Sold at auction 05 Mar 2022,20220305,23 Kay Street,CARLINGFORD,NSW,2118,-33.7807159,151.060165,4,4,4,House,House,False,929,m2,False
2017584254,listing,/11-340-marsden-road-carlingford-nsw-2118-2017584254,1288000,is-sold,Sold at auction 05 Mar 2022,20220305,11/340 Marsden Road,CARLINGFORD,NSW,2118,-33.78226,151.055389,4,4,4,Townhouse,Townhouse,False,345,m2,False
2017599464,listing,/202-11-13-boundary-road-carlingford-nsw-2118-2017599464,670000,is-sold,Sold by private treaty 11 Mar 2022,20220311,202/11-13 Boundary Road,CARLINGFORD,NSW,2118,-33.7806,151.047836,2,2,2,ApartmentUnitFlat,Apartment / Unit / Flat,False,0,m2,False
2017600584,listing,/18-14-16-freeman-place-carlingford-nsw-2118-2017600584,968000,is-sold,Sold at auction 06 Mar 2022,20220306,18/14-16 Freeman Place,CARLINGFORD,NSW,2118,-33.7823257,151.061966,3,3,3,Townhouse,Townhouse,False,0,m2,False
2017604713,listing,/6-342-marsden-road-carlingford-nsw-2118-2017604713,1220000,is-sold,Sold by private treaty 26 Feb 2022,20220226,6/342 Marsden Road,CARLINGFORD,NSW,2118,-33.782,151.055344,4,4,4,Townhouse,Townhouse,False,0,m2,False
2017621763,listing,/8-2-charles-street-carlingford-nsw-2118-2017621763,1100000,is-sold,Sold by private treaty 07 Mar 2022,20220307,8/2 Charles Street,CARLINGFORD,NSW,2118,-33.78537,151.042816,3,3,3,Townhouse,Townhouse,False,0,m2,False
2017737993,listing,/205-1-post-office-street-carlingford-nsw-2118-2017737993,530000,is-sold,Sold by private treaty 24 Feb 2022,20220224,205/1 Post Office Street,CARLINGFORD,NSW,2118,-33.7784157,151.051712,1,1,1,ApartmentUnitFlat,Apartment / Unit / Flat,False,0,m2,False
2014478615,listing,/24-344-pennant-hills-road-carlingford-nsw-2118-2014478615,675000,is-sold,Sold by private treaty 15 Feb 2022,20220215,24/344 Pennant Hills Road,CARLINGFORD,NSW,2118,-33.7814522,151.052185,2,2,2,ApartmentUnitFlat,Apartment / Unit / Flat,False,0,m2,False
2016965199,listing,/278-1-7-thallon-street-carlingford-nsw-2118-2016965199,,is-sold,Sold by private treaty 14 Feb 2022,20220214,278/1-7 Thallon Street,CARLINGFORD,NSW,2118,-33.7816124,151.04718,2,2,2,ApartmentUnitFlat,Apartment / Unit / Flat,False,0,m2,False
2017095397,listing,/126-10-thallon-street-carlingford-nsw-2118-2017095397,865000,is-sold,Sold by private treaty 14 Feb 2022,20220214,126/10 Thallon Street,CARLINGFORD,NSW,2118,-33.78074,151.046341,3,3,3,ApartmentUnitFlat,Apartment / Unit / Flat,False,0,m2,False
2017290854,listing,/22-295-302-pennant-hill-road-carlingford-nsw-2118-2017290854,575000,is-sold,Sold by private treaty 04 Feb 2022,20220204,22/295-302 Pennant Hill Road,CARLINGFORD,NSW,2118,-33.77903,151.051453,2,2,2,ApartmentUnitFlat,Apartment / Unit / Flat,False,0,m2,False
2017356458,listing,/g01-239-243-carlingford-road-carlingford-nsw-2118-2017356458,582500,is-sold,Sold by private treaty 17 Feb 2022,20220217,G01/239-243 Carlingford Road,CARLINGFORD,NSW,2118,-33.7776527,151.053345,1,1,1,ApartmentUnitFlat,Apartment / Unit / Flat,False,0,m2,False
2017420162,listing,/193-10-thallon-street-carlingford-nsw-2118-2017420162,690000,is-sold,Sold by private treaty 04 Feb 2022,20220204,193/10 Thallon Street,CARLINGFORD,NSW,2118,-33.78074,151.046341,2,2,2,ApartmentUnitFlat,Apartment / Unit / Flat,False,123,m2,False
2017455001,listing,/530-1-james-street-carlingford-nsw-2118-2017455001,635000,is-sold,Sold prior to auction 16 Feb 2022,20220216,530/1 James Street,CARLINGFORD,NSW,2118,-33.7817574,151.045609,2,2,2,ApartmentUnitFlat,Apartment / Unit / Flat,False,102,m2,False
2017506891,listing,/354b-north-rocks-road-carlingford-nsw-2118-2017506891,1422500,is-sold,Sold at auction 03 Feb 2022,20220203,354b North Rocks Road,CARLINGFORD,NSW,2118,-33.76989,151.035263,3,3,3,House,House,False,0,m2,False
2017515516,listing,/18-georgian-avenue-carlingford-nsw-2118-2017515516,1900000,is-sold,Sold at auction 07 Feb 2022,20220207,18 Georgian Avenue,CARLINGFORD,NSW,2118,-33.76998,151.042221,5,5,5,House,House,False,695,m2,False
2017519922,listing,/23a-lemongrove-avenue-carlingford-nsw-2118-2017519922,2055000,is-sold,Sold at auction 05 Feb 2022,20220205,23A Lemongrove Avenue,CARLINGFORD,NSW,2118,-33.7742653,151.040283,4,4,4,House,House,False,1018,m2,False
2017527354,listing,/28-lemongrove-avenue-carlingford-nsw-2118-2017527354,1830000,is-sold,Sold at auction 12 Feb 2022,20220212,28 Lemongrove Avenue,CARLINGFORD,NSW,2118,-33.7743454,151.041656,4,4,4,House,House,False,878,m2,False
2017527501,listing,/11-mulyan-avenue-carlingford-nsw-2118-2017527501,2500000,is-sold,Sold prior to auction 05 Feb 2022,20220205,11 Mulyan Avenue,CARLINGFORD,NSW,2118,-33.7856445,151.060471,5,5,5,House,House,False,488,m2,False
2017532760,listing,/4-2-freeman-place-carlingford-nsw-2118-2017532760,1173500,is-sold,Sold at auction 12 Feb 2022,20220212,4/2 Freeman Place,CARLINGFORD,NSW,2118,-33.784565,151.06427,3,3,3,Townhouse,Townhouse,False,0,m2,False
2017533344,listing,/42-lochinvar-parade-carlingford-nsw-2118-2017533344,2110000,is-sold,Sold prior to auction 03 Feb 2022,20220203,42 Lochinvar Parade,CARLINGFORD,NSW,2118,-33.7683067,151.047745,6,6,6,House,House,False,765,m2,False
2017535068,listing,/3-torquil-avenue-carlingford-nsw-2118-2017535068,1900000,is-sold,Sold at auction 12 Feb 2022,20220212,3 Torquil Avenue,CARLINGFORD,NSW,2118,-33.76995,151.052612,3,3,3,House,House,False,866,m2,False
2017535822,listing,/7-lemongrove-avenue-carlingford-nsw-2118-2017535822,1800000,is-sold,Sold prior to auction 16 Feb 2022,20220216,7 Lemongrove Avenue,CARLINGFORD,NSW,2118,-33.77348,151.038742,4,4,4,House,House,False,980,m2,False
2017536060,listing,/14-loch-awe-cr-carlingford-nsw-2118-2017536060,1910000,is-sold,Sold at auction 12 Feb 2022,20220212,14 Loch Awe Cr,CARLINGFORD,NSW,2118,-33.7719,151.0518,3,3,3,House,House,False,733,m2,False
2017544489,listing,/30-294-302-pennant-hills-road-carlingford-nsw-2118-2017544489,635000,is-sold,Sold by private treaty 03 Feb 2022,20220203,30/294-302 Pennant Hills Road,CARLINGFORD,NSW,2118,-33.7838936,151.044617,2,2,2,ApartmentUnitFlat,Apartment / Unit / Flat,False,0,m2,False
2017554684,listing,/103-10-thallon-street-carlingford-nsw-2118-2017554684,940000,is-sold,Sold by private treaty 15 Feb 2022,20220215,103/10 Thallon Street,CARLINGFORD,NSW,2118,-33.78074,151.046341,3,3,3,ApartmentUnitFlat,Apartment / Unit / Flat,False,258,m2,False
2017965998,listing,/2b-coleman-ave-carlingford-nsw-2118-2017965998,638000,is-sold,Sold by private treaty 11 Feb 2022,20220211,2B Coleman Ave,CARLINGFORD,NSW,2118,-33.7832031,151.047958,2,2,2,ApartmentUnitFlat,Apartment / Unit / Flat,False,0,m2,False
2017214634,listing,/3-173-adderton-road-carlingford-nsw-2118-2017214634,610000,is-sold,Sold by private treaty 09 Jan 2022,20220109,3/173 Adderton Road,CARLINGFORD,NSW,2118,-33.7857132,151.04361,2,2,2,ApartmentUnitFlat,Apartment / Unit / Flat,False,0,m2,False
2017233065,listing,/4-5-coleman-avenue-carlingford-nsw-2118-2017233065,631000,is-sold,Sold by private treaty 25 Jan 2022,20220125,4/5 Coleman Avenue,CARLINGFORD,NSW,2118,-33.7838135,151.047363,2,2,2,ApartmentUnitFlat,Apartment / Unit / Flat,False,0,m2,False
2017345426,listing,/7-2-tintern-avenue-carlingford-nsw-2118-2017345426,1650000,is-sold,Sold by private treaty 02 Feb 2022,20220202,7/2 Tintern Avenue,CARLINGFORD,NSW,2118,-33.7865753,151.0387,4,4,4,SemiDetached,Semi-Detached,False,370,m2,False
2017366063,listing,/15-9-15-lloyds-avenue-carlingford-nsw-2118-2017366063,725000,is-sold,Sold by private treaty 07 Jan 2022,20220107,15/9-15 Lloyds Avenue,CARLINGFORD,NSW,2118,-33.7820778,151.048126,2,2,2,ApartmentUnitFlat,Apartment / Unit / Flat,False,146,m2,False
2017366733,listing,/73-brand-street-carlingford-nsw-2118-2017366733,1850000,is-sold,Sold at auction 29 Dec 2021,20211229,73 Brand Street,CARLINGFORD,NSW,2118,-33.78563,151.045151,5,5,5,SemiDetached,Semi-Detached,False,445,m2,False
2017403673,listing,/31-16-post-office-st-carlingford-nsw-2118-2017403673,820000,is-sold,Sold by private treaty 11 Jan 2022,20220111,31/16 Post Office St,CARLINGFORD,NSW,2118,-33.7795219,151.050049,2,2,2,ApartmentUnitFlat,Apartment / Unit / Flat,False,0,m2,False
2017411650,listing,/4-athol-place-carlingford-nsw-2118-2017411650,2450000,is-sold,Sold by private treaty 21 Jan 2022,20220121,4 Athol Place,CARLINGFORD,NSW,2118,-33.78038,151.032288,4,4,4,House,House,False,692,m2,False
2017414019,listing,/27-wondabah-place-carlingford-nsw-2118-2017414019,2310000,is-sold,Sold by private treaty 16 Jan 2022,20220116,27 Wondabah Place,CARLINGFORD,NSW,2118,-33.7663765,151.046936,5,5,5,House,House,False,863,m2,False
2017423342,listing,/13-gossell-grove-carlingford-nsw-2118-2017423342,1580000,is-sold,Sold by private treaty 05 Jan 2022,20220105,13 Gossell Grove,CARLINGFORD,NSW,2118,-33.765377,151.031281,4,4,4,House,House,False,908,m2,False
2017432293,listing,/13-metcalf-avenue-carlingford-nsw-2118-2017432293,1800000,is-sold,Sold at auction 01 Feb 2022,20220201,13 Metcalf Avenue,CARLINGFORD,NSW,2118,-33.7722778,151.042786,3,3,3,House,House,False,708,m2,False
2017439074,listing,/21-2-freeman-place-carlingford-nsw-2118-2017439074,1260000,is-sold,Sold by private treaty 06 Jan 2022,20220106,21/2 Freeman Place,CARLINGFORD,NSW,2118,-33.784565,151.06427,3,3,3,Villa,Villa,False,316,m2,False
2017442444,listing,/2-cressfield-avenue-carlingford-nsw-2118-2017442444,2055000,is-sold,Sold by private treaty 30 Dec 2021,20211230,2 Cressfield Avenue,CARLINGFORD,NSW,2118,-33.78062,151.0398,5,5,5,House,House,False,689,m2,False
2017445238,listing,/4c-honiton-avenue-carlingford-nsw-2118-2017445238,1680000,is-sold,Sold by private treaty 29 Jan 2022,20220129,4C Honiton Avenue,CARLINGFORD,NSW,2118,-33.7863426,151.0507,3,3,3,SemiDetached,Semi-Detached,False,353,m2,False
2017446698,listing,/8a-dunmore-avenue-carlingford-nsw-2118-2017446698,1370000,is-sold,Sold by private treaty 26 Jan 2022,20220126,8A Dunmore Avenue,CARLINGFORD,NSW,2118,-33.784977,151.039368,3,3,3,House,House,False,374,m2,False
2017450057,listing,/28-yalding-avenue-carlingford-nsw-2118-2017450057,2120000,is-sold,Sold by private treaty 10 Jan 2022,20220110,28 Yalding Avenue,CARLINGFORD,NSW,2118,-33.77193,151.0327,5,5,5,House,House,False,701,m2,False
2017505788,listing,/26-lesley-avenue-carlingford-nsw-2118-2017505788,1815000,is-sold,Sold by private treaty 14 Jan 2022,20220114,26 Lesley Avenue,CARLINGFORD,NSW,2118,-33.77649,151.038086,3,3,3,House,House,False,695,m2,False
2017505812,listing,/4-dandarbong-ave-carlingford-nsw-2118-2017505812,1625000,is-sold,Sold by private treaty 28 Jan 2022,20220128,4 Dandarbong Ave,CARLINGFORD,NSW,2118,-33.79094,151.059982,3,3,3,House,House,False,700,m2,False
2017507281,listing,/103-11-boundary-road-carlingford-nsw-2118-2017507281,550000,is-sold,Sold by private treaty 11 Jan 2022,20220111,103/11 Boundary Road,CARLINGFORD,NSW,2118,-33.7806,151.047836,1,1,1,ApartmentUnitFlat,Apartment / Unit / Flat,False,0,m2,False
2017509565,listing,/9-buyuma-street-carlingford-nsw-2118-2017509565,2000000,is-sold,Sold prior to auction 29 Jan 2022,20220129,9 Buyuma Street,CARLINGFORD,NSW,2118,-33.79002,151.060043,6,6,6,House,House,False,714,m2,False
2017511452,listing,/22-9-boundary-road-carlingford-nsw-2118-2017511452,1015000,is-sold,Sold by private treaty 18 Jan 2022,20220118,22/9 Boundary Road,CARLINGFORD,NSW,2118,-33.78042,151.047745,3,3,3,ApartmentUnitFlat,Apartment / Unit / Flat,False,0,m2,False
2017193236,listing,/9-346-362-pennant-hills-road-carlingford-nsw-2118-2017193236,,is-sold,Sold by private treaty 18 Dec 2021,20211218,9/346-362 Pennant Hills Road,CARLINGFORD,NSW,2118,-33.78169,151.05098,2,2,2,ApartmentUnitFlat,Apartment / Unit / Flat,False,0,m2,False
2017324017,listing,/6-239-marsden-road-carlingford-nsw-2118-2017324017,1180100,is-sold,Sold by private treaty 21 Dec 2021,20211221,6/239 Marsden Road,CARLINGFORD,NSW,2118,-33.7829666,151.058319,3,3,3,Villa,Villa,False,0,m2,False
2017359596,listing,/100-balaka-drive-carlingford-nsw-2118-2017359596,1865000,is-sold,Sold by private treaty 15 Dec 2021,20211215,100 Balaka Drive,CARLINGFORD,NSW,2118,-33.77363,151.030731,4,4,4,House,House,False,695,m2,False
2017383308,listing,/4-farnell-avenue-carlingford-nsw-2118-2017383308,,is-sold,Sold at auction 20 Dec 2021,20211220,4 Farnell Avenue,CARLINGFORD,NSW,2118,-33.77141,151.0377,,,,VacantLand,Vacant land,False,1068,m2,False
2017397758,listing,/19-364-pennant-hills-road-carlingford-nsw-2118-2017397758,555000,is-sold,Sold by private treaty 23 Dec 2021,20211223,19/364 Pennant Hills Road,CARLINGFORD,NSW,2118,-33.7809067,151.052551,2,2,2,ApartmentUnitFlat,Apartment / Unit / Flat,False,0,m2,False
2017403127,listing,/29-post-office-street-carlingford-nsw-2118-2017403127,1900000,is-sold,Sold by private treaty 23 Dec 2021,20211223,29 Post Office Street,CARLINGFORD,NSW,2118,-33.77901,151.047256,3,3,3,House,House,False,853,m2,False
2017411570,listing,/234-carlingford-road-carlingford-nsw-2118-2017411570,1880000,is-sold,Sold at auction 20 Dec 2021,20211220,234 Carlingford Road,CARLINGFORD,NSW,2118,-33.77685,151.054443,3,3,3,House,House,False,777,m2,False
2017413077,listing,/31-haines-avenue-carlingford-nsw-2118-2017413077,2210000,is-sold,Sold by private treaty 22 Dec 2021,20211222,31 Haines Avenue,CARLINGFORD,NSW,2118,-33.767807,151.031876,4,4,4,House,House,False,1005,m2,False
2017421434,listing,/28-346-pennant-hills-road-carlingford-nsw-2118-2017421434,675000,is-sold,Sold by private treaty 16 Dec 2021,20211216,28/346 Pennant Hills Road,CARLINGFORD,NSW,2118,-33.7813568,151.051025,3,3,3,ApartmentUnitFlat,Apartment / Unit / Flat,False,0,m2,False
2017428748,listing,/g01-780-786-pennant-hills-road-carlingford-nsw-2118-2017428748,,is-sold,Sold by private treaty 23 Dec 2021,20211223,G01/780-786 Pennant Hills Road,CARLINGFORD,NSW,2118,-33.7775459,151.051331,3,3,3,NewApartments,New Apartments / Off the Plan,False,0,m2,False
2017431709,listing,/151a-bettington-road-carlingford-nsw-2118-2017431709,1925000,is-sold,Sold at auction 18 Dec 2021,20211218,151a Bettington Road,CARLINGFORD,NSW,2118,-33.7870331,151.027847,4,4,4,House,House,False,929,m2,False
2017436632,listing,/9-3-coleman-avenue-carlingford-nsw-2118-2017436632,600000,is-sold,Sold by private treaty 21 Dec 2021,20211221,9/3 Coleman Avenue,CARLINGFORD,NSW,2118,-33.78364,151.047363,2,2,2,ApartmentUnitFlat,Apartment / Unit / Flat,False,0,m2,False
2017438518,listing,/6a-mulyan-avenue-carlingford-nsw-2118-2017438518,1785000,is-sold,Sold prior to auction 16 Dec 2021,20211216,6A Mulyan Avenue,CARLINGFORD,NSW,2118,-33.7855644,151.0615,3,3,3,House,House,False,0,m2,False
2017441328,listing,/14-lyndelle-place-carlingford-nsw-2118-2017441328,2541000,is-sold,Sold at auction 18 Dec 2021,20211218,14 Lyndelle Place,CARLINGFORD,NSW,2118,-33.7676926,151.060349,4,4,4,House,House,False,753,m2,False
2017442448,listing,/2a-freeman-place-carlingford-nsw-2118-2017442448,2059000,is-sold,Sold at auction 21 Dec 2021,20211221,2A Freeman Place,CARLINGFORD,NSW,2118,-33.78482,151.064621,5,5,5,House,House,False,402,m2,False
2017447509,listing,/10-arcadian-cct-carlingford-nsw-2118-2017447509,2060000,is-sold,Sold at auction 18 Dec 2021,20211218,10 Arcadian Cct,CARLINGFORD,NSW,2118,-33.7847633,151.030823,4,4,4,House,House,False,936,m2,False
2017461938,listing,/93-jenkins-road-carlingford-nsw-2118-2017461938,2080000,is-sold,Sold at auction 18 Dec 2021,20211218,93 Jenkins Road,CARLINGFORD,NSW,2118,-33.77348,151.045151,4,4,4,House,House,False,859,m2,False
2017484820,listing,/3-3-charles-street-carlingford-nsw-2118-2017484820,620000,is-sold,Sold by private treaty 23 Dec 2021,20211223,3/3 Charles Street,CARLINGFORD,NSW,2118,-33.78581,151.042114,2,2,2,ApartmentUnitFlat,Apartment / Unit / Flat,False,0,m2,False
2017485595,listing,/31-post-office-street-carlingford-nsw-2118-2017485595,2050000,is-sold,Sold by private treaty 16 Dec 2021,20211216,31 Post Office Street,CARLINGFORD,NSW,2118,-33.7790337,151.047028,3,3,3,House,House,False,916,m2,False
2017488967,listing,/96-bradley-drive-carlingford-nsw-2118-2017488967,1900000,is-sold,Sold by private treaty 21 Dec 2021,20211221,96 Bradley Drive,CARLINGFORD,NSW,2118,-33.7725449,151.045563,3,3,3,House,House,False,695,m2,False
2017142895,listing,/39-223-227-carlingford-road-carlingford-nsw-2118-2017142895,716000,is-sold,Sold by private treaty 30 Nov 2021,20211130,39/223-227 Carlingford Road,CARLINGFORD,NSW,2118,-33.7774773,151.054581,2,2,2,ApartmentUnitFlat,Apartment / Unit / Flat,False,0,m2,False
2017270651,listing,/4-mulyan-avenue-carlingford-nsw-2118-2017270651,1780000,is-sold,Sold prior to auction 30 Nov 2021,20211130,4 Mulyan Avenue,CARLINGFORD,NSW,2118,-33.7856674,151.061691,4,4,4,Duplex,Duplex,False,314,m2,False
2017271216,listing,/5-metcalf-avenue-carlingford-nsw-2118-2017271216,1700000,is-sold,Sold by private treaty 02 Dec 2021,20211202,5 Metcalf Avenue,CARLINGFORD,NSW,2118,-33.77251,151.0419,5,5,5,House,House,False,999,m2,False
2017311893,listing,/6-norfolk-place-carlingford-nsw-2118-2017311893,1305000,is-sold,Sold by private treaty 15 Dec 2021,20211215,6 Norfolk Place,CARLINGFORD,NSW,2118,-33.77948,151.028717,4,4,4,House,House,False,0,m2,False
2017355915,listing,/10-3-charles-street-carlingford-nsw-2118-2017355915,601500,is-sold,Sold by private treaty 02 Dec 2021,20211202,10/3 Charles Street,CARLINGFORD,NSW,2118,-33.78581,151.042114,1,1,1,ApartmentUnitFlat,Apartment / Unit / Flat,False,0,m2,False
2017375362,listing,/19-344-pennant-hills-road-carlingford-nsw-2118-2017375362,599000,is-sold,Sold by private treaty 15 Dec 2021,20211215,19/344 Pennant Hills Road,CARLINGFORD,NSW,2118,-33.78176,151.051651,2,2,2,ApartmentUnitFlat,Apartment / Unit / Flat,False,0,m2,False
2017385940,listing,/57-bradley-drive-carlingford-nsw-2118-2017385940,,is-sold,Sold by private treaty 03 Dec 2021,20211203,57 Bradley Drive,CARLINGFORD,NSW,2118,-33.772274,151.046066,3,3,3,House,House,False,701,m2,False
2017390446,listing,/40-lochinvar-parade-carlingford-nsw-2118-2017390446,1910000,is-sold,Sold prior to auction 06 Dec 2021,20211206,40 Lochinvar Parade,CARLINGFORD,NSW,2118,-33.7680855,151.047653,4,4,4,House,House,False,695,m2,False
2017397055,listing,/152-balaka-drive-carlingford-nsw-2118-2017397055,1821000,is-sold,Sold at auction 06 Dec 2021,20211206,152 Balaka Drive,CARLINGFORD,NSW,2118,-33.7720451,151.0347,4,4,4,House,House,False,695,m2,False
2017402645,listing,/35-honiton-avenue-west-carlingford-nsw-2118-2017402645,1712000,is-sold,Sold at auction 04 Dec 2021,20211204,35 Honiton Avenue West,CARLINGFORD,NSW,2118,-33.7861748,151.048386,4,4,4,House,House,False,323,m2,False
2017403862,listing,/783-pennant-hills-road-carlingford-nsw-2118-2017403862,1433000,is-sold,Sold at auction 11 Dec 2021,20211211,783 Pennant Hills Road,CARLINGFORD,NSW,2118,-33.7742,151.051575,3,3,3,House,House,False,664,m2,False
2017405885,listing,/8-philip-place-carlingford-nsw-2118-2017405885,2280000,is-sold,Sold at auction 07 Dec 2021,20211207,8 Philip Place,CARLINGFORD,NSW,2118,-33.7645378,151.039886,5,5,5,House,House,False,929,m2,False
2017414222,listing,/21-3-5-post-office-street-carlingford-nsw-2118-2017414222,621000,is-sold,Sold at auction 11 Dec 2021,20211211,21/3-5 Post Office Street,CARLINGFORD,NSW,2118,-33.778286,151.051361,2,2,2,ApartmentUnitFlat,Apartment / Unit / Flat,False,128,m2,False
2017416126,listing,/14-8-12-freeman-place-carlingford-nsw-2118-2017416126,722500,is-sold,Sold at auction 11 Dec 2021,20211211,14/8-12 Freeman Place,CARLINGFORD,NSW,2118,-33.7828331,151.063736,3,3,3,ApartmentUnitFlat,Apartment / Unit / Flat,False,0,m2,False
2017426096,listing,/2-parklea-place-carlingford-nsw-2118-2017426096,1950000,is-sold,Sold by private treaty 04 Dec 2021,20211204,2 Parklea Place,CARLINGFORD,NSW,2118,-33.77861,151.046936,4,4,4,House,House,False,695,m2,False
2017441976,listing,/39-mobbs-lane-carlingford-nsw-2118-2017441976,2300000,is-sold,Sold prior to auction 08 Dec 2021,20211208,39 Mobbs Lane,CARLINGFORD,NSW,2118,-33.7847443,151.0653,4,4,4,House,House,False,930,m2,False
2017442120,listing,/12-darwin-street-carlingford-nsw-2118-2017442120,2130000,is-sold,Sold at auction 15 Dec 2021,20211215,12 Darwin Street,CARLINGFORD,NSW,2118,-33.77629,151.054443,3,3,3,House,House,False,740,m2,False
2017466911,listing,/2-227-231-pennant-hills-road-carlingford-nsw-2118-2017466911,1095000,is-sold,Sold by private treaty 14 Dec 2021,20211214,2/227-231 Pennant Hills Road,CARLINGFORD,NSW,2118,-33.7844849,151.042831,4,4,4,Townhouse,Townhouse,False,241,m2,False
2017472418,listing,/3-8-coleman-avenue-carlingford-nsw-2118-2017472418,985000,is-sold,Sold by private treaty 15 Dec 2021,20211215,3/8 Coleman Avenue,CARLINGFORD,NSW,2118,-33.78393,151.048523,3,3,3,Townhouse,Townhouse,False,0,m2,False
2017271737,listing,/12-dunrossil-avenue-carlingford-nsw-2118-2017271737,2100000,is-sold,Sold at auction 27 Nov 2021,20211127,12 Dunrossil Avenue,CARLINGFORD,NSW,2118,-33.77253,151.053162,4,4,4,House,House,False,784,m2,False
2017272906,listing,/28-1-7-young-rd-carlingford-nsw-2118-2017272906,740000,is-sold,Sold by private treaty 22 Nov 2021,20211122,28/1-7 Young Rd,CARLINGFORD,NSW,2118,-33.77843,151.05069,2,2,2,ApartmentUnitFlat,Apartment / Unit / Flat,False,0,m2,False
2017294382,listing,/10-rickard-street-carlingford-nsw-2118-2017294382,1895000,is-sold,Sold by private treaty 18 Nov 2021,20211118,10 Rickard Street,CARLINGFORD,NSW,2118,-33.78074,151.056,4,4,4,House,House,False,534,m2,False
2017347909,listing,/2-344-pennant-hills-road-carlingford-nsw-2118-2017347909,750000,is-sold,Sold by private treaty 24 Nov 2021,20211124,2/344 Pennant Hills Road,CARLINGFORD,NSW,2118,-33.78176,151.051758,3,3,3,ApartmentUnitFlat,Apartment / Unit / Flat,False,0,m2,False
2017348830,listing,/16-bellevue-drive-carlingford-nsw-2118-2017348830,1800000,is-sold,Sold by private treaty 16 Nov 2021,20211116,16 Bellevue Drive,CARLINGFORD,NSW,2118,-33.7688255,151.0346,3,3,3,House,House,False,695,m2,False
2017350901,listing,/102-239-243-carlingford-road-carlingford-nsw-2118-2017350901,691000,is-sold,Sold by private treaty 22 Nov 2021,20211122,102/239-243 Carlingford Road,CARLINGFORD,NSW,2118,-33.7776527,151.053345,2,2,2,ApartmentUnitFlat,Apartment / Unit / Flat,False,0,m2,False
2017364467,listing,/303-235-237-carlingford-road-carlingford-nsw-2118-2017364467,650000,is-sold,Sold by private treaty 23 Nov 2021,20211123,303/235-237 Carlingford Road,CARLINGFORD,NSW,2118,-33.777626,151.053711,2,2,2,ApartmentUnitFlat,Apartment / Unit / Flat,False,72,m2,False
2017365537,listing,/4-milton-st-carlingford-nsw-2118-2017365537,2257500,is-sold,Sold at auction 18 Nov 2021,20211118,4 Milton St,CARLINGFORD,NSW,2118,-33.77554,151.053528,4,4,4,House,House,False,740,m2,False
2017366583,listing,/2-24-26-post-office-street-carlingford-nsw-2118-2017366583,765000,is-sold,Sold at auction 20 Nov 2021,20211120,2/24-26 Post Office Street,CARLINGFORD,NSW,2118,-33.7795143,151.048813,2,2,2,ApartmentUnitFlat,Apartment / Unit / Flat,False,0,m2,False
2017369222,listing,/143a-pennant-hills-road-carlingford-nsw-2118-2017369222,1560000,is-sold,Sold prior to auction 25 Nov 2021,20211125,143A Pennant Hills Road,CARLINGFORD,NSW,2118,-33.7865868,151.030289,4,4,4,House,House,False,929,m2,False
2017373410,listing,/7-3-charles-street-carlingford-nsw-2118-2017373410,695000,is-sold,Sold by private treaty 18 Nov 2021,20211118,7/3 Charles Street,CARLINGFORD,NSW,2118,-33.78581,151.042114,2,2,2,ApartmentUnitFlat,Apartment / Unit / Flat,False,0,m2,False
2017380622,listing,/42-4-6-boundary-road-carlingford-nsw-2118-2017380622,839000,is-sold,Sold at auction 25 Nov 2021,20211125,42/4-6 Boundary Road,CARLINGFORD,NSW,2118,-33.7797661,151.048737,2,2,2,ApartmentUnitFlat,Apartment / Unit / Flat,False,195,m2,False
2017381743,listing,/33-woodstock-road-carlingford-nsw-2118-2017381743,2225000,is-sold,Sold at auction 27 Nov 2021,20211127,33 Woodstock Road,CARLINGFORD,NSW,2118,-33.7706833,151.046249,6,6,6,House,House,False,740,m2,False
2017383204,listing,/24-murray-farm-road-carlingford-nsw-2118-2017383204,2550000,is-sold,Sold by private treaty 29 Nov 2021,20211129,24 Murray Farm Road,CARLINGFORD,NSW,2118,-33.7634239,151.045059,5,5,5,House,House,False,1168,m2,False
