id,listingType,url,price,tagClassName,tagText,date,street,suburb,state,postcode,lat,lng,beds,baths,parking,propertyType,propertyTypeFormatted,isRural,landSize,landUnit,isRetirement
2017765196,listing,/404-7-mungo-scott-place-summer-hill-nsw-2130-2017765196,660000,is-sold,Sold by private treaty 22 Feb 2023,20230222,404/7 Mungo Scott Place,SUMMER HILL,NSW,2130,-33.894558,151.142456,1,1,1,ApartmentUnitFlat,Apartment / Unit / Flat,False,59,m2,False
2018004115,listing,/4-64-grosvenor-crescent-summer-hill-nsw-2130-2018004115,655000,is-sold,Sold by private treaty 18 Jan 2023,20230118,4/64 Grosvenor Crescent,SUMMER HILL,NSW,2130,-33.88926,151.133514,2,2,2,ApartmentUnitFlat,Apartment / Unit / Flat,False,0,m2,False
2018072893,listing,/2-25-prospect-road-summer-hill-nsw-2130-2018072893,800000,is-sold,Sold by private treaty 24 Feb 2023,20230224,2/25 Prospect Road,SUMMER HILL,NSW,2130,-33.8920555,151.132111,2,2,2,ApartmentUnitFlat,Apartment / Unit / Flat,False,0,m2,False
2018080092,listing,/10-37b-herbert-street-summer-hill-nsw-2130-2018080092,Price Withheld,is-sold,Sold by private treaty 16 Dec 2022,20221216,10/37B Herbert Street,SUMMER HILL,NSW,2130,-33.8958168,151.13353,2,2,2,ApartmentUnitFlat,Apartment / Unit / Flat,False,0,m2,False
2018122034,listing,/802-5-mungo-scott-place-summer-hill-nsw-2130-2018122034,Price Withheld,is-sold,Sold by private treaty 09 Feb 2023,20230209,802/5 Mungo Scott Place,SUMMER HILL,NSW,2130,-33.8942146,151.141739,2,2,2,ApartmentUnitFlat,Apartment / Unit / Flat,False,131,m2,False
2018180752,listing,/15-100-carlton-crescent-summer-hill-nsw-2130-2018180752,Price Withheld,is-sold,Sold by private treaty 13 Feb 2023,20230213,15/100 Carlton Crescent,SUMMER HILL,NSW,2130,-33.8903427,151.134079,3,3,3,Townhouse,Townhouse,False,198,m2,False
2018211350,listing,/18-151b-smith-street-summer-hill-nsw-2130-2018211350,Price Withheld,is-sold,Sold by private treaty 05 Dec 2022,20221205,18/151B Smith Street,SUMMER HILL,NSW,2130,-33.8911057,151.134659,2,2,2,ApartmentUnitFlat,Apartment / Unit / Flat,False,0,m2,False
2018255548,listing,/12-44-grosvenor-crescent-summer-hill-nsw-2130-2018255548,735000,is-sold,Sold by private treaty 07 Dec 2022,20221207,12/44 Grosvenor Crescent,SUMMER HILL,NSW,2130,-33.8893776,151.137817,2,2,2,ApartmentUnitFlat,Apartment / Unit / Flat,False,0,m2,False
2018264600,listing,/802-2-malthouse-way-summer-hill-nsw-2130-2018264600,1120000,is-sold,Sold by private treaty 13 Dec 2022,20221213,802/2 Malthouse Way,SUMMER HILL,NSW,2130,-33.8928833,151.143646,2,2,2,ApartmentUnitFlat,Apartment / Unit / Flat,False,0,m2,False
2018289812,listing,/303-14-flour-mill-way-summer-hill-nsw-2130-2018289812,1315000,is-sold,Sold prior to auction 06 Feb 2023,20230206,303/14 Flour Mill Way,SUMMER HILL,NSW,2130,-33.8936272,151.141937,3,3,3,ApartmentUnitFlat,Apartment / Unit / Flat,False,132,m2,False
2018295560,listing,/4-151b-smith-street-summer-hill-nsw-2130-2018295560,570000,is-sold,Sold at auction 11 Feb 2023,20230211,4/151B Smith Street,SUMMER HILL,NSW,2130,-33.8911057,151.134659,2,2,2,ApartmentUnitFlat,Apartment / Unit / Flat,False,0,m2,False
2018296227,listing,/705-3-mungo-scott-place-summer-hill-nsw-2130-2018296227,720000,is-sold,Sold by private treaty 22 Feb 2023,20230222,705/3 Mungo Scott Place,SUMMER HILL,NSW,2130,-33.89387,151.142273,1,1,1,ApartmentUnitFlat,Apartment / Unit / Flat,False,66,m2,False
2018308484,listing,/1-91-smith-street-summer-hill-nsw-2130-2018308484,850000,is-sold,Sold at auction 18 Feb 2023,20230218,1/91 Smith Street,SUMMER HILL,NSW,2130,-33.8913727,151.1393,2,2,2,ApartmentUnitFlat,Apartment / Unit / Flat,False,117,m2,False
2018313790,listing,/12-82-84-kensington-road-summer-hill-nsw-2130-2018313790,910000,is-sold,Sold at auction 18 Feb 2023,20230218,12/82-84 Kensington Road,SUMMER HILL,NSW,2130,-33.8875923,151.138062,2,2,2,ApartmentUnitFlat,Apartment / Unit / Flat,False,0,m2,False
2018315489,listing,/605-3-mungo-scott-place-summer-hill-nsw-2130-2018315489,1260000,is-sold,Sold by private treaty 10 Feb 2023,20230210,605/3 Mungo Scott Place,SUMMER HILL,NSW,2130,-33.89387,151.142273,2,2,2,ApartmentUnitFlat,Apartment / Unit / Flat,False,0,m2,False
2018324762,listing,/14-63a-grosvenor-crescent-summer-hill-nsw-2130-2018324762,1300000,is-sold,Sold at auction 23 Feb 2023,20230223,14/63A Grosvenor Crescent,SUMMER HILL,NSW,2130,-33.8890762,151.1338,3,3,3,ApartmentUnitFlat,Apartment / Unit / Flat,False,0,m2,False
2018328043,listing,/3-100-102-carlton-crescent-summer-hill-nsw-2130-2018328043,Price Withheld,is-sold,Sold by private treaty 20 Feb 2023,20230220,3/100-102 Carlton Crescent,SUMMER HILL,NSW,2130,-33.89034,151.134247,3,3,3,Townhouse,Townhouse,False,0,m2,False
2018348810,listing,/50-moonbie-street-summer-hill-nsw-2130-2018348810,1400000,is-sold,Sold at auction 11 Feb 2023,20230211,50 Moonbie Street,SUMMER HILL,NSW,2130,-33.8946037,151.136978,2,2,2,House,House,False,158,m2,False
2018351320,listing,/16-3a-gower-street-summer-hill-nsw-2130-2018351320,775000,is-sold,Sold by private treaty 14 Feb 2023,20230214,16/3A Gower Street,SUMMER HILL,NSW,2130,-33.88876,151.139069,2,2,2,ApartmentUnitFlat,Apartment / Unit / Flat,False,0,m2,False
2018365232,listing,/302-14-flour-mill-way-summer-hill-nsw-2130-2018365232,1225000,is-sold,Sold by private treaty 19 Jan 2023,20230119,302/14 Flour Mill Way,SUMMER HILL,NSW,2130,-33.8936272,151.141937,3,3,3,ApartmentUnitFlat,Apartment / Unit / Flat,False,0,m2,False
2017661398,listing,/16-63a-grosvenor-crescent-summer-hill-nsw-2130-2017661398,Price Withheld,is-sold,Sold by private treaty 07 Oct 2022,20221007,16/63a Grosvenor Crescent,SUMMER HILL,NSW,2130,-33.88911,151.13382,2,2,2,ApartmentUnitFlat,Apartment / Unit / Flat,False,0,m2,False
2017781752,listing,/10-junction-road-summer-hill-nsw-2130-2017781752,Price Withheld,is-sold,Sold by private treaty 03 Nov 2022,20221103,10 Junction Road,SUMMER HILL,NSW,2130,-33.89564,151.137741,4,4,4,House,House,False,341,m2,False
2017879664,listing,/26-40-junction-road-summer-hill-nsw-2130-2017879664,400000,is-sold,Sold by private treaty 19 Oct 2022,20221019,26/40 Junction Road,SUMMER HILL,NSW,2130,-33.895546,151.1338,1,1,1,ApartmentUnitFlat,Apartment / Unit / Flat,False,0,m2,False
2017947376,listing,/701-5-mungo-scott-place-summer-hill-nsw-2130-2017947376,817500,is-sold,Sold by private treaty 29 Sep 2022,20220929,701/5 Mungo Scott Place,SUMMER HILL,NSW,2130,-33.8942146,151.141739,2,2,2,ApartmentUnitFlat,Apartment / Unit / Flat,False,0,m2,False
2018038531,listing,/29-nowranie-street-summer-hill-nsw-2130-2018038531,Price Withheld,is-sold,Sold by private treaty 14 Nov 2022,20221114,29 Nowranie Street,SUMMER HILL,NSW,2130,-33.8947258,151.138336,2,2,2,House,House,False,227,m2,False
2018068489,listing,/4-26-gower-street-summer-hill-nsw-2130-2018068489,1255000,is-sold,Sold at auction 15 Oct 2022,20221015,4/26 Gower Street,SUMMER HILL,NSW,2130,-33.88833,151.136978,3,3,3,ApartmentUnitFlat,Apartment / Unit / Flat,False,137,m2,False
2018073567,listing,/2-220-old-canterbury-road-summer-hill-nsw-2130-2018073567,Price Withheld,is-sold,Sold by private treaty 04 Nov 2022,20221104,2/220 Old Canterbury Road,SUMMER HILL,NSW,2130,-33.896637,151.136734,1,1,1,ApartmentUnitFlat,Apartment / Unit / Flat,False,0,m2,False
2018074530,listing,/18-100-carlton-crescent-summer-hill-nsw-2130-2018074530,Price Withheld,is-sold,Sold by private treaty 24 Oct 2022,20221024,18/100 Carlton Crescent,SUMMER HILL,NSW,2130,-33.8903427,151.134079,3,3,3,Townhouse,Townhouse,False,174,m2,False
2018077837,listing,/2-105-smith-street-summer-hill-nsw-2130-2018077837,Price Withheld,is-sold,Sold prior to auction 20 Oct 2022,20221020,2/105 Smith Street,SUMMER HILL,NSW,2130,-33.8915443,151.137619,2,2,2,ApartmentUnitFlat,Apartment / Unit / Flat,False,0,m2,False
2018088513,listing,/16-bogan-street-summer-hill-nsw-2130-2018088513,Price Withheld,is-sold,Sold by private treaty 23 Oct 2022,20221023,16 Bogan Street,SUMMER HILL,NSW,2130,-33.8896866,151.140945,3,3,3,House,House,False,272,m2,False
2018102881,listing,/50-smith-street-summer-hill-nsw-2130-2018102881,Price Withheld,is-sold,Sold at auction 05 Nov 2022,20221105,50 Smith Street,SUMMER HILL,NSW,2130,-33.89279,151.141068,3,3,3,House,House,False,234,m2,False
2018111205,listing,/81-prospect-road-summer-hill-nsw-2130-2018111205,3700000,is-sold,Sold by private treaty 24 Nov 2022,20221124,81 Prospect Road,SUMMER HILL,NSW,2130,-33.8960075,151.132111,6,6,6,House,House,False,775,m2,False
2018123232,listing,/11-wellesley-street-summer-hill-nsw-2130-2018123232,Price Withheld,is-sold,Sold prior to auction 02 Nov 2022,20221102,11 Wellesley Street,SUMMER HILL,NSW,2130,-33.894043,151.1411,3,3,3,House,House,False,202,m2,False
2018129652,listing,/20-nowranie-street-summer-hill-nsw-2130-2018129652,Price Withheld,is-sold,Sold prior to auction 24 Oct 2022,20221024,20 Nowranie Street,SUMMER HILL,NSW,2130,-33.8931961,151.138962,2,2,2,House,House,False,0,m2,False
2018143824,listing,/7-137-smith-street-summer-hill-nsw-2130-2018143824,552000,is-sold,Sold by private treaty 27 Oct 2022,20221027,7/137 Smith Street,SUMMER HILL,NSW,2130,-33.8911629,151.135651,2,2,2,ApartmentUnitFlat,Apartment / Unit / Flat,False,0,m2,False
2018155262,listing,/4-56-grosvenor-crescent-summer-hill-nsw-2130-2018155262,Price Withheld,is-sold,Sold prior to auction 08 Nov 2022,20221108,4/56 Grosvenor Crescent,SUMMER HILL,NSW,2130,-33.8892632,151.135559,1,1,1,ApartmentUnitFlat,Apartment / Unit / Flat,False,0,m2,False
2018167935,listing,/7-44a-grosvenor-crescent-summer-hill-nsw-2130-2018167935,750000,is-sold,Sold prior to auction 18 Nov 2022,20221118,7/44A Grosvenor Crescent,SUMMER HILL,NSW,2130,-33.8891449,151.137619,2,2,2,ApartmentUnitFlat,Apartment / Unit / Flat,False,0,m2,False
2018169646,listing,/12-147-smith-street-summer-hill-nsw-2130-2018169646,Price Withheld,is-sold,Sold at auction 24 Nov 2022,20221124,12/147 Smith Street,SUMMER HILL,NSW,2130,-33.8912163,151.134933,2,2,2,ApartmentUnitFlat,Apartment / Unit / Flat,False,0,m2,False
2018184052,listing,/1-3a-gower-street-summer-hill-nsw-2130-2018184052,Price Withheld,is-sold,Sold by private treaty 02 Nov 2022,20221102,1/3a Gower Street,SUMMER HILL,NSW,2130,-33.88876,151.139069,2,2,2,ApartmentUnitFlat,Apartment / Unit / Flat,False,0,m2,False
2018223718,listing,/15-63a-grosvenor-crescent-summer-hill-nsw-2130-2018223718,Price Withheld,is-sold,Sold by private treaty 23 Nov 2022,20221123,15/63a Grosvenor Crescent,SUMMER HILL,NSW,2130,-33.8890762,151.1338,2,2,2,ApartmentUnitFlat,Apartment / Unit / Flat,False,0,m2,False
2017721457,listing,/23-151b-smith-street-summer-hill-nsw-2130-2017721457,483000,is-sold,Sold by private treaty 23 Aug 2022,20220823,23/151B Smith Street,SUMMER HILL,NSW,2130,-33.89112,151.134674,2,2,2,ApartmentUnitFlat,Apartment / Unit / Flat,False,0,m2,False
2017839831,listing,/3-139a-smith-street-summer-hill-nsw-2130-2017839831,695000,is-sold,Sold at auction 31 Aug 2022,20220831,3/139A Smith Street,SUMMER HILL,NSW,2130,-33.89098,151.135239,2,2,2,ApartmentUnitFlat,Apartment / Unit / Flat,False,0,m2,False
2017868607,listing,/2-14a-henson-street-summer-hill-nsw-2130-2017868607,845000,is-sold,Sold by private treaty 23 Sep 2022,20220923,2/14a Henson Street,SUMMER HILL,NSW,2130,-33.8933029,151.135117,2,2,2,ApartmentUnitFlat,Apartment / Unit / Flat,False,0,m2,False
2017891493,listing,/21-137-smith-street-summer-hill-nsw-2130-2017891493,547000,is-sold,Sold by private treaty 02 Sep 2022,20220902,21/137 SMITH STREET,SUMMER HILL,NSW,2130,-33.8911629,151.135651,2,2,2,ApartmentUnitFlat,Apartment / Unit / Flat,False,0,m2,False
2017924683,listing,/4-55-grosvenor-crescent-summer-hill-nsw-2130-2017924683,655000,is-sold,Sold by private treaty 12 Sep 2022,20220912,4/55 Grosvenor Crescent,SUMMER HILL,NSW,2130,-33.889267,151.135818,2,2,2,ApartmentUnitFlat,Apartment / Unit / Flat,False,0,m2,False
2017934019,listing,/12-seaview-street-summer-hill-nsw-2130-2017934019,4800000,is-sold,Sold at auction 13 Aug 2022,20220813,12 Seaview Street,SUMMER HILL,NSW,2130,-33.8981133,151.133545,5,5,5,House,House,False,645,m2,False
2017935556,listing,/19-rosemount-avenue-summer-hill-nsw-2130-2017935556,2800000,is-sold,Sold at auction 06 Aug 2022,20220806,19 Rosemount Avenue,SUMMER HILL,NSW,2130,-33.89746,151.133057,3,3,3,House,House,False,310,m2,False
2017952635,listing,/13-spencer-street-summer-hill-nsw-2130-2017952635,1767000,is-sold,Sold by private treaty 31 Aug 2022,20220831,13 Spencer Street,SUMMER HILL,NSW,2130,-33.89333,151.140457,3,3,3,House,House,False,202,m2,False
2017958712,listing,/14-16-nowranie-street-summer-hill-nsw-2130-2017958712,2850000,is-sold,Sold at auction 03 Sep 2022,20220903,14-16 Nowranie Street,SUMMER HILL,NSW,2130,-33.89306,151.139038,4,4,4,House,House,False,408,m2,False
2017967742,listing,/24-grosvenor-crescent-summer-hill-nsw-2130-2017967742,1800000,is-sold,Sold at auction 27 Aug 2022,20220827,24 Grosvenor Crescent,SUMMER HILL,NSW,2130,-33.89021,151.140213,6,6,6,House,House,False,0,m2,False
2017968549,listing,/2-11-bogan-street-summer-hill-nsw-2130-2017968549,325000,is-sold,Sold by private treaty 06 Sep 2022,20220906,2/11 Bogan Street,SUMMER HILL,NSW,2130,-33.8901024,151.1412,NaN,1.0,NaN,ApartmentUnitFlat,Apartment / Unit / Flat,False,26,m2,False
2017976595,listing,/28-bartlett-street-summer-hill-nsw-2130-2017976595,2830000,is-sold,Sold by private treaty 21 Sep 2022,20220921,28 Bartlett Street,SUMMER HILL,NSW,2130,-33.89452,151.135971,4,4,4,House,House,False,506,m2,False
2017978142,listing,/10-wellesley-street-summer-hill-nsw-2130-2017978142,2548000,is-sold,Sold prior to auction 12 Aug 2022,20220812,10 Wellesley Street,SUMMER HILL,NSW,2130,-33.8944435,151.140457,4,4,4,House,House,False,367,m2,False
2017985217,listing,/403-3-flour-mill-way-summer-hill-nsw-2130-2017985217,1230000,is-sold,Sold at auction 03 Sep 2022,20220903,403/3 Flour Mill Way,SUMMER HILL,NSW,2130,-33.8930244,151.14209,2,2,2,ApartmentUnitFlat,Apartment / Unit / Flat,False,0,m2,False
2017996872,listing,/43-carrington-street-summer-hill-nsw-2130-2017996872,1500000,is-sold,Sold prior to auction 26 Aug 2022,20220826,43 Carrington Street,SUMMER HILL,NSW,2130,-33.8938828,151.139435,2,2,2,House,House,False,171,m2,False
2018010563,listing,/405-5-mungo-scott-place-summer-hill-nsw-2130-2018010563,1205000,is-sold,Sold by private treaty 09 Sep 2022,20220909,405/5 Mungo Scott Place,SUMMER HILL,NSW,2130,-33.8942146,151.141739,2,2,2,ApartmentUnitFlat,Apartment / Unit / Flat,False,158,m2,False
2018010802,listing,/156-old-canterbury-road-summer-hill-nsw-2130-2018010802,3310000,is-sold,Sold at auction 01 Sep 2022,20220901,156 Old Canterbury Road,SUMMER HILL,NSW,2130,-33.89528,151.140213,5,5,5,House,House,False,557,m2,False
2018022400,listing,/2-bogan-street-summer-hill-nsw-2130-2018022400,1900000,is-sold,Sold at auction 17 Sep 2022,20220917,2 Bogan Street,SUMMER HILL,NSW,2130,-33.8901062,151.140427,6,6,6,House,House,False,557,m2,False
2018063451,listing,/910-2-malthouse-way-summer-hill-nsw-2130-2018063451,1240000,is-sold,Sold prior to auction 19 Sep 2022,20220919,910/2 Malthouse Way,SUMMER HILL,NSW,2130,-33.8928833,151.143646,2,2,2,ApartmentUnitFlat,Apartment / Unit / Flat,False,0,m2,False
2018073068,listing,/8-flour-mill-way-summer-hill-nsw-2130-2018073068,1816000,is-sold,Sold by private treaty 16 Sep 2022,20220916,8 Flour Mill Way,SUMMER HILL,NSW,2130,-33.8936539,151.141937,3,3,3,Terrace,Terrace,False,0,m2,False
2017621403,listing,/4-fleet-street-summer-hill-nsw-2130-2017621403,1450000,is-sold,Sold prior to auction 30 Jun 2022,20220630,4 Fleet Street,SUMMER HILL,NSW,2130,-33.89178,151.141083,2,2,2,House,House,False,158,m2,False
2017740289,listing,/11-20-gower-street-summer-hill-nsw-2130-2017740289,682000,is-sold,Sold by private treaty 04 Aug 2022,20220804,11/20 Gower Street,SUMMER HILL,NSW,2130,-33.88866,151.137436,2,2,2,ApartmentUnitFlat,Apartment / Unit / Flat,False,0,m2,False
2017777322,listing,/172-old-canterbury-road-summer-hill-nsw-2130-2017777322,1510000,is-sold,Sold by private treaty 18 Jun 2022,20220618,172 Old Canterbury Road,SUMMER HILL,NSW,2130,-33.8953667,151.139328,3,3,3,House,House,False,164,m2,False
2017787540,listing,/607-18-mcgill-street-summer-hill-nsw-2130-2017787540,1547000,is-sold,Sold by private treaty 28 Jul 2022,20220728,607/18 McGill Street,SUMMER HILL,NSW,2130,-33.8948669,151.143478,3,3,3,ApartmentUnitFlat,Apartment / Unit / Flat,False,113,m2,False
2017802049,listing,/1-10-oaklands-avenue-summer-hill-nsw-2130-2017802049,1175000,is-sold,Sold prior to auction 11 Jun 2022,20220611,1/10 Oaklands Avenue,SUMMER HILL,NSW,2130,-33.8891258,151.13533,2,2,2,ApartmentUnitFlat,Apartment / Unit / Flat,False,0,m2,False
2017818749,listing,/22-nowranie-street-summer-hill-nsw-2130-2017818749,2192000,is-sold,Sold prior to auction 10 Jun 2022,20220610,22 Nowranie Street,SUMMER HILL,NSW,2130,-33.8933144,151.138962,3,3,3,House,House,False,202,m2,False
2017824053,listing,/1-82-84-kensington-road-summer-hill-nsw-2130-2017824053,901000,is-sold,Sold at auction 18 Jun 2022,20220618,1/82-84 Kensington Road,SUMMER HILL,NSW,2130,-33.8875923,151.138062,2,2,2,ApartmentUnitFlat,Apartment / Unit / Flat,False,0,m2,False
2017842533,listing,/12-3a-gower-street-summer-hill-nsw-2130-2017842533,830000,is-sold,Sold at auction 25 Jun 2022,20220625,12/3A Gower Street,SUMMER HILL,NSW,2130,-33.88876,151.139069,2,2,2,ApartmentUnitFlat,Apartment / Unit / Flat,False,0,m2,False
2017844109,listing,/9-147-smith-street-summer-hill-nsw-2130-2017844109,890000,is-sold,Sold at auction 25 Jun 2022,20220625,9/147 Smith Street,SUMMER HILL,NSW,2130,-33.8912163,151.134933,2,2,2,ApartmentUnitFlat,Apartment / Unit / Flat,False,0,m2,False
2017846192,listing,/2-49-grosvenor-crescent-summer-hill-nsw-2130-2017846192,Price Withheld,is-sold,Sold by private treaty 21 Jul 2022,20220721,2/49 Grosvenor Crescent,SUMMER HILL,NSW,2130,-33.8892555,151.1368,2,2,2,ApartmentUnitFlat,Apartment / Unit / Flat,False,0,m2,False
2017846525,listing,/2-5b-gower-street-summer-hill-nsw-2130-2017846525,Price Withheld,is-sold,Sold at auction 02 Jul 2022,20220702,2/5b Gower Street,SUMMER HILL,NSW,2130,-33.88857,151.1388,2,2,2,ApartmentUnitFlat,Apartment / Unit / Flat,False,0,m2,False
2017847656,listing,/3-13-dover-street-summer-hill-nsw-2130-2017847656,717500,is-sold,Sold at auction 02 Aug 2022,20220802,3/13 Dover Street,SUMMER HILL,NSW,2130,-33.89081,151.143341,1,1,1,ApartmentUnitFlat,Apartment / Unit / Flat,False,0,m2,False
2017848599,listing,/201-5-mungo-scott-place-summer-hill-nsw-2130-2017848599,670000,is-sold,Sold by private treaty 29 Jun 2022,20220629,201/5 Mungo Scott Place,SUMMER HILL,NSW,2130,-33.8942146,151.141739,1,1,1,ApartmentUnitFlat,Apartment / Unit / Flat,False,0,m2,False
2017850260,listing,/124-smith-street-summer-hill-nsw-2130-2017850260,1635000,is-sold,Sold at auction 02 Jul 2022,20220702,124 Smith Street,SUMMER HILL,NSW,2130,-33.8920975,151.138138,2,2,2,Terrace,Terrace,False,139,m2,False
2017872394,listing,/12-65-67-kensington-road-summer-hill-nsw-2130-2017872394,890000,is-sold,Sold prior to auction 28 Jun 2022,20220628,12/65-67 Kensington Road,SUMMER HILL,NSW,2130,-33.887558,151.139954,2,2,2,ApartmentUnitFlat,Apartment / Unit / Flat,False,0,m2,False
2017874424,listing,/304-5-mungo-scott-place-summer-hill-nsw-2130-2017874424,1150000,is-sold,Sold by private treaty 04 Jul 2022,20220704,304/5 Mungo Scott Place,SUMMER HILL,NSW,2130,-33.8942146,151.141739,2,2,2,ApartmentUnitFlat,Apartment / Unit / Flat,False,0,m2,False
2017880515,listing,/2-34-junction-road-summer-hill-nsw-2130-2017880515,944000,is-sold,Sold prior to auction 05 Jul 2022,20220705,2/34 Junction Road,SUMMER HILL,NSW,2130,-33.8953056,151.134521,2,2,2,ApartmentUnitFlat,Apartment / Unit / Flat,False,0,m2,False
2017892714,listing,/7-91-smith-street-summer-hill-nsw-2130-2017892714,1059000,is-sold,Sold at auction 23 Jul 2022,20220723,7/91 Smith Street,SUMMER HILL,NSW,2130,-33.8913727,151.1393,2,2,2,ApartmentUnitFlat,Apartment / Unit / Flat,False,0,m2,False
2017894111,listing,/21-67-75-smith-street-summer-hill-nsw-2130-2017894111,1525000,is-sold,Sold by private treaty 29 Jul 2022,20220729,21/67-75 Smith Street,SUMMER HILL,NSW,2130,-33.89185,151.139755,3,3,3,ApartmentUnitFlat,Apartment / Unit / Flat,False,0,m2,False
2017997302,listing,/4-21-prospect-road-summer-hill-nsw-2130-2017997302,745000,is-sold,Sold at auction 29 Jul 2022,20220729,4/21 Prospect Road,SUMMER HILL,NSW,2130,-33.8917732,151.132111,2,2,2,ApartmentUnitFlat,Apartment / Unit / Flat,False,0,m2,False
2017423331,listing,/9-60-carlton-crescent-summer-hill-nsw-2130-2017423331,Price Withheld,is-sold,Sold by private treaty 08 Apr 2022,20220408,9/60 Carlton Crescent,SUMMER HILL,NSW,2130,-33.89067,151.138824,2,2,2,ApartmentUnitFlat,Apartment / Unit / Flat,False,0,m2,False
2017632206,listing,/27-151a-smith-street-summer-hill-nsw-2130-2017632206,560000,is-sold,Sold by private treaty 19 May 2022,20220519,27/151a Smith Street,SUMMER HILL,NSW,2130,-33.89088,151.13446,2,2,2,ApartmentUnitFlat,Apartment / Unit / Flat,False,0,m2,False
2017649162,listing,/15-25-27-sloane-street-summer-hill-nsw-2130-2017649162,852500,is-sold,Sold by private treaty 23 May 2022,20220523,15/25-27 Sloane Street,SUMMER HILL,NSW,2130,-33.88932,151.140488,2,2,2,ApartmentUnitFlat,Apartment / Unit / Flat,False,0,m2,False
2017657241,listing,/5-8-kensington-road-summer-hill-nsw-2130-2017657241,645000,is-sold,Sold at auction 12 Apr 2022,20220412,5/8 Kensington Road,SUMMER HILL,NSW,2130,-33.890213,151.142578,1,1,1,ApartmentUnitFlat,Apartment / Unit / Flat,False,0,m2,False
2017663163,listing,/5-13-dover-street-summer-hill-nsw-2130-2017663163,825000,is-sold,Sold by private treaty 10 May 2022,20220510,5/13 Dover Street,SUMMER HILL,NSW,2130,-33.89081,151.143341,2,2,2,ApartmentUnitFlat,Apartment / Unit / Flat,False,77,m2,False
2017672793,listing,/43-sloane-street-summer-hill-nsw-2130-2017672793,2350000,is-sold,Sold prior to auction 08 Apr 2022,20220408,43 Sloane Street,SUMMER HILL,NSW,2130,-33.8885,151.141022,3,3,3,House,House,False,367,m2,False
2017672805,listing,/175-smith-street-summer-hill-nsw-2130-2017672805,1395000,is-sold,Sold by private treaty 20 May 2022,20220520,175 Smith Street,SUMMER HILL,NSW,2130,-33.89154,151.133209,2,2,2,House,House,False,329,m2,False
2017674207,listing,/13-short-street-summer-hill-nsw-2130-2017674207,1742000,is-sold,Sold by private treaty 17 May 2022,20220517,13 Short Street,SUMMER HILL,NSW,2130,-33.89255,151.133774,3,3,3,House,House,False,247,m2,False
2017682750,listing,/5-hurlstone-avenue-summer-hill-nsw-2130-2017682750,3200000,is-sold,Sold by private treaty 07 Jun 2022,20220607,5 Hurlstone Avenue,SUMMER HILL,NSW,2130,-33.8985939,151.133469,4,4,4,House,House,False,650,m2,False
2017688412,listing,/14-bartlett-street-summer-hill-nsw-2130-2017688412,2185000,is-sold,Sold prior to auction 07 Apr 2022,20220407,14 Bartlett Street,SUMMER HILL,NSW,2130,-33.8934364,151.1361,3,3,3,House,House,False,285,m2,False
2017731777,listing,/4-95-kensington-road-summer-hill-nsw-2130-2017731777,1300000,is-sold,Sold at auction 14 May 2022,20220514,4/95 Kensington Road,SUMMER HILL,NSW,2130,-33.8870735,151.138565,2,2,2,ApartmentUnitFlat,Apartment / Unit / Flat,False,0,m2,False
2017748328,listing,/4-37-bartlett-street-summer-hill-nsw-2130-2017748328,740000,is-sold,Sold prior to auction 09 May 2022,20220509,4/37 Bartlett Street,SUMMER HILL,NSW,2130,-33.89474,151.135422,2,2,2,ApartmentUnitFlat,Apartment / Unit / Flat,False,0,m2,False
2017751392,listing,/5-25-prospect-road-summer-hill-nsw-2130-2017751392,810000,is-sold,Sold at auction 21 May 2022,20220521,5/25 Prospect Road,SUMMER HILL,NSW,2130,-33.8920555,151.132111,2,2,2,ApartmentUnitFlat,Apartment / Unit / Flat,False,0,m2,False
2017751431,listing,/9-28-gower-street-summer-hill-nsw-2130-2017751431,727000,is-sold,Sold prior to auction 13 May 2022,20220513,9/28 Gower Street,SUMMER HILL,NSW,2130,-33.8878,151.136627,1,1,1,ApartmentUnitFlat,Apartment / Unit / Flat,False,88,m2,False
2017773154,listing,/34-moonbie-street-summer-hill-nsw-2130-2017773154,Price Withheld,is-sold,Sold at auction 26 May 2022,20220526,34 Moonbie Street,SUMMER HILL,NSW,2130,-33.8939247,151.136932,2,2,2,House,House,False,215,m2,False
2017775399,listing,/8-44a-grosvenor-crescent-summer-hill-nsw-2130-2017775399,705000,is-sold,Sold prior to auction 20 May 2022,20220520,8/44a Grosvenor Crescent,SUMMER HILL,NSW,2130,-33.8891449,151.137619,2,2,2,ApartmentUnitFlat,Apartment / Unit / Flat,False,0,m2,False
2017776435,listing,/11-25-27-sloane-street-summer-hill-nsw-2130-2017776435,765000,is-sold,Sold prior to auction 30 May 2022,20220530,11/25-27 Sloane Street,SUMMER HILL,NSW,2130,-33.88932,151.140488,1,1,1,ApartmentUnitFlat,Apartment / Unit / Flat,False,0,m2,False
2017793099,listing,/4-72-kensington-rd-summer-hill-nsw-2130-2017793099,785000,is-sold,Sold by private treaty 09 Jun 2022,20220609,4/72 Kensington Rd,SUMMER HILL,NSW,2130,-33.88777,151.1388,2,2,2,ApartmentUnitFlat,Apartment / Unit / Flat,False,0,m2,False
2017794684,listing,/6-39-smith-street-summer-hill-nsw-2130-2017794684,Price Withheld,is-sold,Sold by private treaty 10 May 2022,20220510,6/39 Smith Street,SUMMER HILL,NSW,2130,-33.8922424,151.140976,3,3,3,Townhouse,Townhouse,False,0,m2,False
2017832709,listing,/21-23-25-gower-street-summer-hill-nsw-2130-2017832709,Price Withheld,is-sold,Sold prior to auction 10 Jun 2022,20220610,21/23-25 Gower Street,SUMMER HILL,NSW,2130,-33.88788,151.1377,2,2,2,ApartmentUnitFlat,Apartment / Unit / Flat,False,0,m2,False
2017464383,listing,/7-25-sloane-street-summer-hill-nsw-2130-2017464383,730000,is-sold,Sold by private treaty 11 Feb 2022,20220211,7/25 Sloane Street,SUMMER HILL,NSW,2130,-33.88932,151.140488,1,1,1,ApartmentUnitFlat,Apartment / Unit / Flat,False,0,m2,False
2017523887,listing,/39-morris-street-summer-hill-nsw-2130-2017523887,2900000,is-sold,Sold at auction 05 Feb 2022,20220205,39 Morris Street,SUMMER HILL,NSW,2130,-33.8934479,151.137573,3,3,3,House,House,False,265,m2,False
2017527578,listing,/5-26-moonbie-street-summer-hill-nsw-2130-2017527578,840000,is-sold,Sold at auction 19 Feb 2022,20220219,5/26 Moonbie Street,SUMMER HILL,NSW,2130,-33.89312,151.13707,2,2,2,ApartmentUnitFlat,Apartment / Unit / Flat,False,0,m2,False
2017545516,listing,/47-28-gower-street-summer-hill-nsw-2130-2017545516,Price Withheld,is-sold,Sold prior to auction 18 Feb 2022,20220218,47/28 Gower Street,SUMMER HILL,NSW,2130,-33.8878,151.136627,3,3,3,ApartmentUnitFlat,Apartment / Unit / Flat,False,189,m2,False
2017557509,listing,/205-3-mungo-scott-place-summer-hill-nsw-2130-2017557509,Price Withheld,is-sold,Sold prior to auction 18 Feb 2022,20220218,205/3 Mungo Scott Place,SUMMER HILL,NSW,2130,-33.89387,151.142273,2,2,2,ApartmentUnitFlat,Apartment / Unit / Flat,False,0,m2,False
2017557510,listing,/8-rosemount-avenue-summer-hill-nsw-2130-2017557510,Price Withheld,is-sold,Sold prior to auction 14 Feb 2022,20220214,8 Rosemount Avenue,SUMMER HILL,NSW,2130,-33.8969345,151.1337,5,5,5,House,House,False,646,m2,False
2017564966,listing,/17-spencer-street-summer-hill-nsw-2130-2017564966,Price Withheld,is-sold,Sold prior to auction 15 Feb 2022,20220215,17 Spencer Street,SUMMER HILL,NSW,2130,-33.8934021,151.140457,2,2,2,House,House,False,202,m2,False
2017565921,listing,/8-49-grosvenor-crescent-summer-hill-nsw-2130-2017565921,Price Withheld,is-sold,Sold prior to auction 22 Feb 2022,20220222,8/49 Grosvenor Crescent,SUMMER HILL,NSW,2130,-33.889225,151.13681,2,2,2,ApartmentUnitFlat,Apartment / Unit / Flat,False,0,m2,False
2017583000,listing,/7-47-49-prospect-road-summer-hill-nsw-2130-2017583000,1730000,is-sold,Sold at auction 03 Mar 2022,20220303,7/47-49 Prospect Road,SUMMER HILL,NSW,2130,-33.89363,151.13205,3,3,3,Townhouse,Townhouse,False,0,m2,False
2017583481,listing,/3a-96-98-carlton-crescent-summer-hill-nsw-2130-2017583481,510000,is-sold,Sold prior to auction 11 Mar 2022,20220311,3A/96-98 Carlton Crescent,SUMMER HILL,NSW,2130,-33.8903847,151.134781,1,1,1,ApartmentUnitFlat,Apartment / Unit / Flat,False,0,m2,False
2017589748,listing,/41-spencer-street-summer-hill-nsw-2130-2017589748,4280000,is-sold,Sold at auction 19 Mar 2022,20220319,41 Spencer Street,SUMMER HILL,NSW,2130,-33.8948975,151.140427,5,5,5,House,House,False,0,m2,False
2017599500,listing,/13-regent-street-summer-hill-nsw-2130-2017599500,1495000,is-sold,Sold prior to auction 15 Mar 2022,20220315,13 Regent Street,SUMMER HILL,NSW,2130,-33.89407,151.135849,2,2,2,House,House,False,0,m2,False
2017599901,listing,/22-151a-smith-street-summer-hill-nsw-2130-2017599901,555000,is-sold,Sold prior to auction 02 Mar 2022,20220302,22/151a Smith Street,SUMMER HILL,NSW,2130,-33.89088,151.13446,2,2,2,ApartmentUnitFlat,Apartment / Unit / Flat,False,0,m2,False
2017603965,listing,/4-3-allman-avenue-summer-hill-nsw-2130-2017603965,920000,is-sold,Sold by private treaty 15 Mar 2022,20220315,4/3 Allman Avenue,SUMMER HILL,NSW,2130,-33.8912048,151.133469,2,2,2,ApartmentUnitFlat,Apartment / Unit / Flat,False,0,m2,False
2017626627,listing,/7-3a-gower-street-summer-hill-nsw-2130-2017626627,935000,is-sold,Sold prior to auction 23 Mar 2022,20220323,7/3A Gower Street,SUMMER HILL,NSW,2130,-33.88876,151.139069,2,2,2,ApartmentUnitFlat,Apartment / Unit / Flat,False,0,m2,False
2017629902,listing,/307-5-mungo-scott-place-summer-hill-nsw-2130-2017629902,815000,is-sold,Sold at auction 26 Mar 2022,20220326,307/5 Mungo Scott Place,SUMMER HILL,NSW,2130,-33.8942566,151.142639,1,1,1,ApartmentUnitFlat,Apartment / Unit / Flat,False,0,m2,False
2017637132,listing,/1-14a-henson-street-summer-hill-nsw-2130-2017637132,870000,is-sold,Sold by private treaty 18 Mar 2022,20220318,1/14a Henson Street,SUMMER HILL,NSW,2130,-33.8933029,151.135117,2,2,2,ApartmentUnitFlat,Apartment / Unit / Flat,False,0,m2,False
2017642250,listing,/2-17-19-gower-street-summer-hill-nsw-2130-2017642250,1900000,is-sold,Sold by private treaty 05 Mar 2022,20220305,2/17-19 Gower Street,SUMMER HILL,NSW,2130,-33.8883324,151.138016,3,3,3,Townhouse,Townhouse,False,0,m2,False
2017644092,listing,/46-sloane-street-summer-hill-nsw-2130-2017644092,2550000,is-sold,Sold at auction 02 Apr 2022,20220402,46 Sloane Street,SUMMER HILL,NSW,2130,-33.8881378,151.1407,4,4,4,House,House,False,594,m2,False
2017827861,listing,/7-fleet-street-summer-hill-nsw-2130-2017827861,Price Withheld,is-sold,Sold by private treaty 02 Mar 2022,20220302,7 Fleet Street,SUMMER HILL,NSW,2130,-33.8917274,151.140518,3,3,3,SemiDetached,Semi-Detached,False,322,m2,False
2017300799,listing,/28-67-75-smith-street-summer-hill-nsw-2130-2017300799,Price Withheld,is-sold,Sold by private treaty 07 Dec 2021,20211207,28/67-75 Smith Street,SUMMER HILL,NSW,2130,-33.89185,151.139755,3,3,3,House,House,False,0,m2,False
2017312124,listing,/6-12-allman-avenue-summer-hill-nsw-2130-2017312124,Price Withheld,is-sold,Sold by private treaty 15 Dec 2021,20211215,6/12 Allman Avenue,SUMMER HILL,NSW,2130,-33.8910828,151.133926,1,1,1,ApartmentUnitFlat,Apartment / Unit / Flat,False,0,m2,False
2017325443,listing,/7-104-prospect-road-summer-hill-nsw-2130-2017325443,Price Withheld,is-sold,Sold by private treaty 21 Dec 2021,20211221,7/104 Prospect Road,SUMMER HILL,NSW,2130,-33.8960953,151.1326,2,2,2,ApartmentUnitFlat,Apartment / Unit / Flat,False,0,m2,False
2017347818,listing,/11-151b-smith-st-summer-hill-nsw-2130-2017347818,508000,is-sold,Sold by private treaty 03 Feb 2022,20220203,11/151B Smith St.,SUMMER HILL,NSW,2130,-33.89112,151.134674,2,2,2,ApartmentUnitFlat,Apartment / Unit / Flat,False,0,m2,False
2017359449,listing,/3-64-grosvenor-crescent-summer-hill-nsw-2130-2017359449,Price Withheld,is-sold,Sold by private treaty 15 Dec 2021,20211215,3/64 Grosvenor Crescent,SUMMER HILL,NSW,2130,-33.88926,151.133514,2,2,2,ApartmentUnitFlat,Apartment / Unit / Flat,False,69,m2,False
2017383929,listing,/2-62-grosvenor-crescent-summer-hill-nsw-2130-2017383929,Price Withheld,is-sold,Sold by private treaty 09 Jan 2022,20220109,2/62 Grosvenor Crescent,SUMMER HILL,NSW,2130,-33.88926,151.134537,2,2,2,ApartmentUnitFlat,Apartment / Unit / Flat,False,0,m2,False
2017401520,listing,/1402-7-mungo-scott-place-summer-hill-nsw-2130-2017401520,1420000,is-sold,Sold at auction 04 Dec 2021,20211204,1402/7 Mungo Scott Place,SUMMER HILL,NSW,2130,-33.89453,151.142365,2,2,2,ApartmentUnitFlat,Apartment / Unit / Flat,False,0,m2,False
2017407240,listing,/132-prospect-road-summer-hill-nsw-2130-2017407240,3150000,is-sold,Sold at auction 04 Dec 2021,20211204,132 Prospect Road,SUMMER HILL,NSW,2130,-33.89767,151.1325,5,5,5,House,House,False,645,m2,False
2017408377,listing,/156a-old-canterbury-road-summer-hill-nsw-2130-2017408377,Price Withheld,is-sold,Sold at auction 11 Dec 2021,20211211,156a Old Canterbury Road,SUMMER HILL,NSW,2130,-33.8952637,151.140381,4,4,4,House,House,False,430,m2,False
2017409414,listing,/406-7-mungo-scott-place-summer-hill-nsw-2130-2017409414,1530000,is-sold,Sold at auction 09 Dec 2021,20211209,406/7 Mungo Scott Place,SUMMER HILL,NSW,2130,-33.89453,151.142365,3,3,3,ApartmentUnitFlat,Apartment / Unit / Flat,False,0,m2,False
2017413933,listing,/4-58-grosvenor-crescent-summer-hill-nsw-2130-2017413933,870000,is-sold,Sold prior to auction 18 Dec 2021,20211218,4/58 Grosvenor Crescent,SUMMER HILL,NSW,2130,-33.8893051,151.1351,2,2,2,ApartmentUnitFlat,Apartment / Unit / Flat,False,0,m2,False
2017419697,listing,/11-henson-street-summer-hill-nsw-2130-2017419697,3300000,is-sold,Sold at auction 11 Dec 2021,20211211,11 Henson Street,SUMMER HILL,NSW,2130,-33.8938065,151.134521,5,5,5,House,House,False,430,m2,False
2017423678,listing,/4-44-henson-street-summer-hill-nsw-2130-2017423678,989000,is-sold,Sold at auction 11 Dec 2021,20211211,4/44 Henson Street,SUMMER HILL,NSW,2130,-33.8961,151.134872,2,2,2,ApartmentUnitFlat,Apartment / Unit / Flat,False,0,m2,False
2017427625,listing,/32-prospect-road-summer-hill-nsw-2130-2017427625,Price Withheld,is-sold,Sold prior to auction 06 Dec 2021,20211206,32 Prospect Road,SUMMER HILL,NSW,2130,-33.8913956,151.132645,2,2,2,House,House,False,152,m2,False
2017456691,listing,/20-kensington-road-summer-hill-nsw-2130-2017456691,3600000,is-sold,Sold by private treaty 14 Dec 2021,20211214,20 Kensington Road,SUMMER HILL,NSW,2130,-33.8898468,151.141968,4,4,4,House,House,False,474,m2,False
2017491223,listing,/2-5-sunning-place-summer-hill-nsw-2130-2017491223,877000,is-sold,Sold by private treaty 13 Dec 2021,20211213,2/5 Sunning Place,SUMMER HILL,NSW,2130,-33.8886566,151.1366,2,2,2,ApartmentUnitFlat,Apartment / Unit / Flat,False,84,m2,False
2017503929,listing,/9-43-herbert-street-summer-hill-nsw-2130-2017503929,519500,is-sold,Sold by private treaty 13 Dec 2021,20211213,9/43 Herbert Street,SUMMER HILL,NSW,2130,-33.8958054,151.13327,1,1,1,ApartmentUnitFlat,Apartment / Unit / Flat,False,0,m2,False
2017507408,listing,/3-12-allman-avenue-summer-hill-nsw-2130-2017507408,855000,is-sold,Sold at auction 29 Jan 2022,20220129,3/12 Allman Avenue,SUMMER HILL,NSW,2130,-33.8910828,151.133926,2,2,2,ApartmentUnitFlat,Apartment / Unit / Flat,False,0,m2,False
2017510048,listing,/22-151b-smith-street-summer-hill-nsw-2130-2017510048,570000,is-sold,Sold by private treaty 02 Feb 2022,20220202,22/151B Smith Street,SUMMER HILL,NSW,2130,-33.89112,151.134674,2,2,2,ApartmentUnitFlat,Apartment / Unit / Flat,False,50,m2,False
2017546780,listing,/1-105-smith-street-summer-hill-nsw-2130-2017546780,697000,is-sold,Sold by private treaty 04 Feb 2022,20220204,1/105 Smith Street,SUMMER HILL,NSW,2130,-33.8915443,151.137619,1,1,1,ApartmentUnitFlat,Apartment / Unit / Flat,False,61,m2,False
2017290777,listing,/3-137-smith-street-summer-hill-nsw-2130-2017290777,545000,is-sold,Sold by private treaty 19 Nov 2021,20211119,3/137 Smith Street,SUMMER HILL,NSW,2130,-33.8911629,151.135651,2,2,2,ApartmentUnitFlat,Apartment / Unit / Flat,False,0,m2,False
2017291946,listing,/13-morris-street-summer-hill-nsw-2130-2017291946,3470000,is-sold,Sold at auction 23 Oct 2021,20211023,13 Morris Street,SUMMER HILL,NSW,2130,-33.892498,151.137558,4,4,4,House,House,False,284,m2,False
2017313127,listing,/33-carlton-crescent-summer-hill-nsw-2130-2017313127,Price Withheld,is-sold,Sold by private treaty 18 Nov 2021,20211118,33 Carlton Crescent,SUMMER HILL,NSW,2130,-33.891346,151.140747,3,3,3,House,House,False,0,m2,False
2017323089,listing,/32-28-gower-street-summer-hill-nsw-2130-2017323089,710000,is-sold,Sold at auction 13 Nov 2021,20211113,32/28 Gower Street,SUMMER HILL,NSW,2130,-33.8878,151.136627,1,1,1,ApartmentUnitFlat,Apartment / Unit / Flat,False,0,m2,False
2017326794,listing,/10-56-sloane-street-summer-hill-nsw-2130-2017326794,1062000,is-sold,Sold prior to auction 29 Oct 2021,20211029,10/56 Sloane Street,SUMMER HILL,NSW,2130,-33.8875,151.141022,2,2,2,Townhouse,Townhouse,False,0,m2,False
2017331462,listing,/23-50-carlton-crescent-summer-hill-nsw-2130-2017331462,Price Withheld,is-sold,Sold prior to auction 29 Oct 2021,20211029,23/50 Carlton Crescent,SUMMER HILL,NSW,2130,-33.89083,151.139236,2,2,2,ApartmentUnitFlat,Apartment / Unit / Flat,False,0,m2,False
2017332932,listing,/26-liverpool-road-summer-hill-nsw-2130-2017332932,Price Withheld,is-sold,Sold prior to auction 05 Nov 2021,20211105,26 Liverpool Road,SUMMER HILL,NSW,2130,-33.8870926,151.137741,4,4,4,House,House,False,253,m2,False
2017350498,listing,/8-6-8-gower-street-summer-hill-nsw-2130-2017350498,780000,is-sold,Sold at auction 21 Nov 2021,20211121,8/6-8 Gower Street,SUMMER HILL,NSW,2130,-33.8893127,151.138428,1,1,1,ApartmentUnitFlat,Apartment / Unit / Flat,False,0,m2,False
2017360697,listing,/6-47-49-prospect-road-summer-hill-nsw-2130-2017360697,Price Withheld,is-sold,Sold at auction 18 Nov 2021,20211118,6/47-49 Prospect Road,SUMMER HILL,NSW,2130,-33.89363,151.13205,3,3,3,Townhouse,Townhouse,False,0,m2,False
2017361830,listing,/6-58-grosvenor-crescent-summer-hill-nsw-2130-2017361830,875000,is-sold,Sold at auction 20 Nov 2021,20211120,6/58 Grosvenor Crescent,SUMMER HILL,NSW,2130,-33.8893051,151.1351,2,2,2,ApartmentUnitFlat,Apartment / Unit / Flat,False,0,m2,False
2017365013,listing,/3-48-grosvenor-crescent-summer-hill-nsw-2130-2017365013,955000,is-sold,Sold by private treaty 28 Oct 2021,20211028,3/48 Grosvenor Crescent,SUMMER HILL,NSW,2130,-33.8894157,151.136948,2,2,2,ApartmentUnitFlat,Apartment / Unit / Flat,False,0,m2,False
2017367604,listing,/5a-henson-street-summer-hill-nsw-2130-2017367604,3650000,is-sold,Sold at auction 20 Nov 2021,20211120,5A Henson Street,SUMMER HILL,NSW,2130,-33.8928261,151.134613,8,8,8,BlockOfUnits,Block of Units,False,461,m2,False
2017371364,listing,/2-21-prospect-road-summer-hill-nsw-2130-2017371364,Price Withheld,is-sold,Sold by private treaty 14 Nov 2021,20211114,2/21 Prospect Road,SUMMER HILL,NSW,2130,-33.8917732,151.132111,2,2,2,ApartmentUnitFlat,Apartment / Unit / Flat,False,0,m2,False
2017393879,listing,/1-26-gower-street-summer-hill-nsw-2130-2017393879,975000,is-sold,Sold prior to auction 02 Dec 2021,20211202,1/26 Gower Street,SUMMER HILL,NSW,2130,-33.8882332,151.137085,2,2,2,ApartmentUnitFlat,Apartment / Unit / Flat,False,0,m2,False
2017398148,listing,/7-17-gower-street-summer-hill-nsw-2130-2017398148,Price Withheld,is-sold,Sold by private treaty 10 Nov 2021,20211110,7/17 Gower Street,SUMMER HILL,NSW,2130,-33.8883324,151.138016,3,3,3,Townhouse,Townhouse,False,0,m2,False
2017414946,listing,/44-62-grosvenor-crescent-summer-hill-nsw-2130-2017414946,860000,is-sold,Sold prior to auction 02 Dec 2021,20211202,44/62 Grosvenor Crescent,SUMMER HILL,NSW,2130,-33.88926,151.134537,2,2,2,ApartmentUnitFlat,Apartment / Unit / Flat,False,0,m2,False
2017421059,listing,/306-5-mungo-scott-place-summer-hill-nsw-2130-2017421059,1210000,is-sold,Sold prior to auction 30 Nov 2021,20211130,306/5 Mungo Scott Place,SUMMER HILL,NSW,2130,-33.8942566,151.142639,2,2,2,ApartmentUnitFlat,Apartment / Unit / Flat,False,0,m2,False
2017423768,listing,/9-7-grosvenor-crescent-summer-hill-nsw-2130-2017423768,1075000,is-sold,Sold prior to auction 02 Dec 2021,20211202,9/7 Grosvenor Crescent,SUMMER HILL,NSW,2130,-33.89135,151.143433,3,3,3,ApartmentUnitFlat,Apartment / Unit / Flat,False,0,m2,False
2017439241,listing,/4-39-smith-street-summer-hill-nsw-2130-2017439241,Price Withheld,is-sold,Sold by private treaty 22 Nov 2021,20211122,4/39 Smith Street,SUMMER HILL,NSW,2130,-33.8922424,151.140976,3,3,3,Townhouse,Townhouse,False,0,m2,False
2017439242,listing,/5-39-smith-street-summer-hill-nsw-2130-2017439242,Price Withheld,is-sold,Sold by private treaty 17 Nov 2021,20211117,5/39 Smith Street,SUMMER HILL,NSW,2130,-33.8922424,151.140976,3,3,3,Townhouse,Townhouse,False,0,m2,False
2017038269,listing,/3-47-herbert-street-summer-hill-nsw-2130-2017038269,552000,is-sold,Sold by private treaty 05 Oct 2021,20211005,3/47 Herbert Street,SUMMER HILL,NSW,2130,-33.8961334,151.133,1,1,1,ApartmentUnitFlat,Apartment / Unit / Flat,False,0,m2,False
2017089404,listing,/9-17-gower-street-summer-hill-nsw-2130-2017089404,Price Withheld,is-sold,Sold prior to auction 25 Sep 2021,20210925,9/17 Gower Street,SUMMER HILL,NSW,2130,-33.8883324,151.138016,2,2,2,Townhouse,Townhouse,False,0,m2,False
2017224358,listing,/1-20-gower-street-summer-hill-nsw-2130-2017224358,790000,is-sold,Sold at auction 18 Sep 2021,20210918,1/20 Gower Street,SUMMER HILL,NSW,2130,-33.8886871,151.137451,2,2,2,ApartmentUnitFlat,Apartment / Unit / Flat,False,0,m2,False
2017225421,listing,/9-27-29-smith-street-summer-hill-nsw-2130-2017225421,1467000,is-sold,Sold at auction 23 Sep 2021,20210923,9/27-29 Smith Street,SUMMER HILL,NSW,2130,-33.89233,151.141464,3,3,3,Townhouse,Townhouse,False,0,m2,False
2017226715,listing,/11-37b-herbert-street-summer-hill-nsw-2130-2017226715,755000,is-sold,Sold at auction 14 Sep 2021,20210914,11/37B Herbert Street,SUMMER HILL,NSW,2130,-33.89587,151.133713,2,2,2,ApartmentUnitFlat,Apartment / Unit / Flat,False,0,m2,False
2017230733,listing,/34-kensington-road-summer-hill-nsw-2130-2017230733,Price Withheld,is-sold,Sold prior to auction 20 Sep 2021,20210920,34 Kensington Road,SUMMER HILL,NSW,2130,-33.8893661,151.141418,3,3,3,House,House,False,0,m2,False
2017232563,listing,/20-100-carlton-cresent-summer-hill-nsw-2130-2017232563,1590000,is-sold,Sold at auction 25 Sep 2021,20210925,20/100 Carlton Cresent,SUMMER HILL,NSW,2130,-33.8903961,151.134064,3,3,3,Townhouse,Townhouse,False,196,m2,False
2017235431,listing,/4-short-street-summer-hill-nsw-2130-2017235431,Price Withheld,is-sold,Sold at auction 30 Sep 2021,20210930,4 Short Street,SUMMER HILL,NSW,2130,-33.8921547,151.133347,3,3,3,House,House,False,0,m2,False
2017237045,listing,/1-95-kensington-road-summer-hill-nsw-2130-2017237045,1110000,is-sold,Sold at auction 30 Sep 2021,20210930,1/95 Kensington Road,SUMMER HILL,NSW,2130,-33.8870735,151.138565,2,2,2,ApartmentUnitFlat,Apartment / Unit / Flat,False,0,m2,False
2017239257,listing,/2-44-grosvenor-crescent-summer-hill-nsw-2130-2017239257,Price Withheld,is-sold,Sold prior to auction 20 Sep 2021,20210920,2/44 Grosvenor Crescent,SUMMER HILL,NSW,2130,-33.889473,151.137787,2,2,2,ApartmentUnitFlat,Apartment / Unit / Flat,False,0,m2,False
2017264121,listing,/1-16-grosvenor-crescent-summer-hill-nsw-2130-2017264121,910000,is-sold,Sold prior to auction 11 Oct 2021,20211011,1/16 Grosvenor Crescent,SUMMER HILL,NSW,2130,-33.89065,151.141159,2,2,2,ApartmentUnitFlat,Apartment / Unit / Flat,False,0,m2,False
2017270894,listing,/502-7-mungo-scott-place-summer-hill-nsw-2130-2017270894,1055000,is-sold,Sold by private treaty 28 Sep 2021,20210928,502/7 Mungo Scott Place,SUMMER HILL,NSW,2130,-33.89453,151.142365,2,2,2,ApartmentUnitFlat,Apartment / Unit / Flat,False,123,m2,False
2017276283,listing,/5-5b-gower-street-summer-hill-nsw-2130-2017276283,1025000,is-sold,Sold at auction 14 Oct 2021,20211014,5/5B Gower Street,SUMMER HILL,NSW,2130,-33.8888168,151.138626,2,2,2,ApartmentUnitFlat,Apartment / Unit / Flat,False,0,m2,False
2017280467,listing,/3-15-nowraine-street-summer-hill-nsw-2130-2017280467,Price Withheld,is-sold,Sold prior to auction 07 Oct 2021,20211007,3/15 Nowraine Street,SUMMER HILL,NSW,2130,-33.8939133,151.138428,2,2,2,ApartmentUnitFlat,Apartment / Unit / Flat,False,0,m2,False
2017280992,listing,/10-17-19-gower-street-summer-hill-nsw-2130-2017280992,Price Withheld,is-sold,Sold by private treaty 27 Sep 2021,20210927,10/17-19 Gower Street,SUMMER HILL,NSW,2130,-33.8883324,151.138016,2,2,2,Townhouse,Townhouse,False,0,m2,False
2017283674,listing,/1-45-kensington-road-summer-hill-nsw-2130-2017283674,805000,is-sold,Sold prior to auction 21 Oct 2021,20211021,1/45 Kensington Road,SUMMER HILL,NSW,2130,-33.88874,151.141663,2,2,2,ApartmentUnitFlat,Apartment / Unit / Flat,False,82,m2,False
2017311153,listing,/6-27-29-smith-street-summer-hill-nsw-2130-2017311153,1495000,is-sold,Sold at auction 13 Oct 2021,20211013,6/27-29 Smith Street,SUMMER HILL,NSW,2130,-33.89233,151.141464,3,3,3,Townhouse,Townhouse,False,0,m2,False
2017312651,listing,/2-95-kensington-road-summer-hill-nsw-2130-2017312651,1128000,is-sold,Sold prior to auction 21 Oct 2021,20211021,2/95 Kensington Road,SUMMER HILL,NSW,2130,-33.8870735,151.138565,2,2,2,ApartmentUnitFlat,Apartment / Unit / Flat,False,0,m2,False
2017326572,listing,/4-44a-grosvenor-crescent-summer-hill-nsw-2130-2017326572,810000,is-sold,Sold prior to auction 22 Oct 2021,20211022,4/44a Grosvenor Crescent,SUMMER HILL,NSW,2130,-33.88915,151.13768,2,2,2,ApartmentUnitFlat,Apartment / Unit / Flat,False,0,m2,False
2017331514,listing,/3-17-19-gower-street-summer-hill-nsw-2130-2017331514,Price Withheld,is-sold,Sold by private treaty 15 Oct 2021,20211015,3/17-19 Gower Street,SUMMER HILL,NSW,2130,-33.8883324,151.138016,3,3,3,Townhouse,Townhouse,False,0,m2,False
2016989449,listing,/8-137-smith-street-summer-hill-nsw-2130-2016989449,Price Withheld,is-sold,Sold by private treaty 15 Jul 2021,20210715,8/137 Smith Street,SUMMER HILL,NSW,2130,-33.8911629,151.135651,2,2,2,ApartmentUnitFlat,Apartment / Unit / Flat,False,0,m2,False
2017047002,listing,/3-147-smith-street-summer-hill-nsw-2130-2017047002,1030000,is-sold,Sold at auction 01 Jul 2021,20210701,3/147 Smith Street,SUMMER HILL,NSW,2130,-33.8912849,151.134888,2,2,2,ApartmentUnitFlat,Apartment / Unit / Flat,False,0,m2,False
2017053542,listing,/196a-old-canterbury-road-summer-hill-nsw-2130-2017053542,2150000,is-sold,Sold at auction 03 Jul 2021,20210703,196A Old Canterbury Road,SUMMER HILL,NSW,2130,-33.8958435,151.137222,4,4,4,House,House,False,242,m2,False
2017068583,listing,/5b-96-98-carlton-crescent-summer-hill-nsw-2130-2017068583,711000,is-sold,Sold prior to auction 07 Jul 2021,20210707,5B/96-98 Carlton Crescent,SUMMER HILL,NSW,2130,-33.89036,151.134781,2,2,2,ApartmentUnitFlat,Apartment / Unit / Flat,False,69,m2,False
2017124939,listing,/17-151b-smith-street-summer-hill-nsw-2130-2017124939,550000,is-sold,Sold by private treaty 20 Jul 2021,20210720,17/151B Smith Street,SUMMER HILL,NSW,2130,-33.89112,151.134674,2,2,2,ApartmentUnitFlat,Apartment / Unit / Flat,False,0,m2,False
2017145297,listing,/4-59-grosvenor-crescent-summer-hill-nsw-2130-2017145297,847500,is-sold,Sold prior to auction 03 Aug 2021,20210803,4/59 Grosvenor Crescent,SUMMER HILL,NSW,2130,-33.8893,151.134933,2,2,2,ApartmentUnitFlat,Apartment / Unit / Flat,False,0,m2,False
2017154190,listing,/12-151a-smith-street-summer-hill-nsw-2130-2017154190,475500,is-sold,Sold prior to auction 19 Aug 2021,20210819,12/151A Smith Street,SUMMER HILL,NSW,2130,-33.890873,151.13446,2,2,2,ApartmentUnitFlat,Apartment / Unit / Flat,False,0,m2,False
2017154326,listing,/12-rosemount-avenue-summer-hill-nsw-2130-2017154326,3150000,is-sold,Sold by private treaty 07 Sep 2021,20210907,12 Rosemount Avenue,SUMMER HILL,NSW,2130,-33.8972,151.133743,5,5,5,House,House,False,645,m2,False
2017159939,listing,/1c-96-98-carlton-crescent-summer-hill-nsw-2130-2017159939,605000,is-sold,Sold prior to auction 09 Aug 2021,20210809,1C/96-98 Carlton Crescent,SUMMER HILL,NSW,2130,-33.89036,151.134781,1,1,1,ApartmentUnitFlat,Apartment / Unit / Flat,False,61,m2,False
2017163897,listing,/11-junction-road-summer-hill-nsw-2130-2017163897,Price Withheld,is-sold,Sold prior to auction 09 Aug 2021,20210809,11 Junction Road,SUMMER HILL,NSW,2130,-33.8952637,151.1381,3,3,3,House,House,False,223,m2,False
2017167514,listing,/28-sloane-street-summer-hill-nsw-2130-2017167514,Price Withheld,is-sold,Sold prior to auction 10 Aug 2021,20210810,28 Sloane Street,SUMMER HILL,NSW,2130,-33.8888931,151.139771,3,3,3,House,House,False,340,m2,False
2017169065,listing,/8-55-grosvenor-crescent-summer-hill-nsw-2130-2017169065,780000,is-sold,Sold by private treaty 13 Aug 2021,20210813,8/55 Grosvenor Crescent,SUMMER HILL,NSW,2130,-33.889267,151.135818,2,2,2,ApartmentUnitFlat,Apartment / Unit / Flat,False,0,m2,False
2017177751,listing,/31-herbert-street-summer-hill-nsw-2130-2017177751,Price Withheld,is-sold,Sold at auction 02 Sep 2021,20210902,31 Herbert Street,SUMMER HILL,NSW,2130,-33.8962173,151.133911,5,5,5,House,House,False,930,m2,False
2017196508,listing,/3-5-morris-street-summer-hill-nsw-2130-2017196508,3560000,is-sold,Sold at auction 10 Sep 2021,20210910,3-5 Morris Street,SUMMER HILL,NSW,2130,-33.8921356,151.137589,7,7,7,House,House,False,449,m2,False
2017205137,listing,/9-carrington-street-summer-hill-nsw-2130-2017205137,Price Withheld,is-sold,Sold prior to auction 09 Sep 2021,20210909,9 Carrington Street,SUMMER HILL,NSW,2130,-33.89292,151.139481,2,2,2,House,House,False,202,m2,False
2017214761,listing,/38-prospect-road-summer-hill-nsw-2130-2017214761,Price Withheld,is-sold,Sold prior to auction 01 Sep 2021,20210901,38 Prospect Road,SUMMER HILL,NSW,2130,-33.8915558,151.132645,3,3,3,House,House,False,181,m2,False
2017215910,listing,/303-7-mungo-scott-place-summer-hill-nsw-2130-2017215910,1360000,is-sold,Sold by private treaty 25 Aug 2021,20210825,303/7 Mungo Scott Place,SUMMER HILL,NSW,2130,-33.89453,151.142365,3,3,3,ApartmentUnitFlat,Apartment / Unit / Flat,False,0,m2,False
2017226358,listing,/1-lorne-street-summer-hill-nsw-2130-2017226358,3700000,is-sold,Sold prior to auction 18 Aug 2021,20210818,1 Lorne Street,SUMMER HILL,NSW,2130,-33.8935661,151.137161,5,5,5,House,House,False,442,m2,False
2017233298,listing,/35-sloane-street-summer-hill-nsw-2130-2017233298,Price Withheld,is-sold,Sold prior to auction 09 Sep 2021,20210909,35 Sloane Street,SUMMER HILL,NSW,2130,-33.8890152,151.1406,2,2,2,House,House,False,0,m2,False
2017246186,listing,/6-151a-smith-street-summer-hill-nsw-2130-2017246186,580000,is-sold,Sold by private treaty 02 Sep 2021,20210902,6/151a Smith Street,SUMMER HILL,NSW,2130,-33.890873,151.13446,2,2,2,ApartmentUnitFlat,Apartment / Unit / Flat,False,0,m2,False
2014609120,listing,/6e-96-98-carlton-crescent-summer-hill-nsw-2130-2014609120,723000,is-sold,Sold at auction 29 May 2021,20210529,6E/96-98 Carlton Crescent,SUMMER HILL,NSW,2130,-33.89036,151.134781,2,2,2,ApartmentUnitFlat,Apartment / Unit / Flat,False,73,m2,False
2016896421,listing,/3-17-19-gower-street-summer-hill-nsw-2130-2016896421,Price Withheld,is-sold,Sold by private treaty 09 Jun 2021,20210609,3/17-19 Gower Street,SUMMER HILL,NSW,2130,-33.8883324,151.138016,3,3,3,Townhouse,Townhouse,False,0,m2,False
2016907435,listing,/12-17-19-gower-street-summer-hill-nsw-2130-2016907435,Price Withheld,is-sold,Sold by private treaty 09 Jun 2021,20210609,12/17-19 Gower Street,SUMMER HILL,NSW,2130,-33.8883324,151.138016,2,2,2,NewApartments,New Apartments / Off the Plan,False,0,m2,False
2016957955,listing,/305-3-mungo-scott-place-summer-hill-nsw-2130-2016957955,707500,is-sold,Sold by private treaty 28 Jun 2021,20210628,305/3 Mungo Scott Place,SUMMER HILL,NSW,2130,-33.89387,151.142273,1,1,1,ApartmentUnitFlat,Apartment / Unit / Flat,False,0,m2,False
2016975990,listing,/8-139a-smith-street-summer-hill-nsw-2130-2016975990,510000,is-sold,Sold by private treaty 27 May 2021,20210527,8/139A Smith Street,SUMMER HILL,NSW,2130,-33.8908958,151.135361,1,1,1,ApartmentUnitFlat,Apartment / Unit / Flat,False,0,m2,False
2016985811,listing,/5-7-grosvenor-crescent-summer-hill-nsw-2130-2016985811,647000,is-sold,Sold at auction 27 May 2021,20210527,5/7 Grosvenor Crescent,SUMMER HILL,NSW,2130,-33.89135,151.143433,1,1,1,ApartmentUnitFlat,Apartment / Unit / Flat,False,69,m2,False
2016996096,listing,/12-100-carlton-crescent-summer-hill-nsw-2130-2016996096,1355000,is-sold,Sold by private treaty 15 Jun 2021,20210615,12/100 Carlton Crescent,SUMMER HILL,NSW,2130,-33.8903961,151.134064,3,3,3,Townhouse,Townhouse,False,0,m2,False
2017000297,listing,/5e-98-carlton-crescent-summer-hill-nsw-2130-2017000297,535000,is-sold,Sold prior to auction 09 Jun 2021,20210609,5e/98 Carlton Crescent,SUMMER HILL,NSW,2130,-33.8904762,151.134766,1,1,1,ApartmentUnitFlat,Apartment / Unit / Flat,False,0,m2,False
2017000452,listing,/6-15-nowranie-street-summer-hill-nsw-2130-2017000452,884000,is-sold,Sold at auction 09 Jun 2021,20210609,6/15 Nowranie Street,SUMMER HILL,NSW,2130,-33.8939133,151.138428,2,2,2,ApartmentUnitFlat,Apartment / Unit / Flat,False,0,m2,False
2017017175,listing,/9-lorne-street-summer-hill-nsw-2130-2017017175,Price Withheld,is-sold,Sold at auction 12 Jun 2021,20210612,9 Lorne Street,SUMMER HILL,NSW,2130,-33.8936272,151.137924,4,4,4,House,House,False,569,m2,False
2017025234,listing,/106-5-mungo-scott-place-summer-hill-nsw-2130-2017025234,Price Withheld,is-sold,Sold at auction 04 Jun 2021,20210604,106/5 Mungo Scott Place,SUMMER HILL,NSW,2130,-33.8942566,151.142639,1,1,1,ApartmentUnitFlat,Apartment / Unit / Flat,False,0,m2,False
2017030813,listing,/30-40-junction-road-summer-hill-nsw-2130-2017030813,Price Withheld,is-sold,Sold prior to auction 25 Jun 2021,20210625,30/40 Junction road,SUMMER HILL,NSW,2130,-33.8954659,151.1338,2,2,2,ApartmentUnitFlat,Apartment / Unit / Flat,False,0,m2,False
2017032904,listing,/36-wellesley-street-summer-hill-nsw-2130-2017032904,1685000,is-sold,Sold prior to auction 22 Jun 2021,20210622,36 Wellesley Street,SUMMER HILL,NSW,2130,-33.89453,151.139221,2,2,2,House,House,False,145,m2,False
2017040957,listing,/16-regent-street-summer-hill-nsw-2130-2017040957,1450000,is-sold,Sold by private treaty 05 Jun 2021,20210605,16 Regent Street,SUMMER HILL,NSW,2130,-33.89369,151.136215,2,2,2,House,House,False,126,m2,False
2017047702,listing,/10-25-27-sloane-street-summer-hill-nsw-2130-2017047702,925000,is-sold,Sold by private treaty 18 Jun 2021,20210618,10/25-27 Sloane Street,SUMMER HILL,NSW,2130,-33.88932,151.140488,2,2,2,ApartmentUnitFlat,Apartment / Unit / Flat,False,0,m2,False
2017051266,listing,/83-smith-street-summer-hill-nsw-2130-2017051266,1600000,is-sold,Sold by private treaty 03 Jun 2021,20210603,83 Smith Street,SUMMER HILL,NSW,2130,-33.89181,151.13916,2,2,2,House,House,False,0,m2,False
2017061049,listing,/2-bartlett-street-summer-hill-nsw-2130-2017061049,3150000,is-sold,Sold prior to auction 23 Jun 2021,20210623,2 Bartlett Street,SUMMER HILL,NSW,2130,-33.8926659,151.136063,5,5,5,House,House,False,468,m2,False
2017066354,listing,/14-1-gower-street-summer-hill-nsw-2130-2017066354,720000,is-sold,Sold prior to auction 24 Jun 2021,20210624,14/1 Gower Street,SUMMER HILL,NSW,2130,-33.8891525,151.1392,2,2,2,ApartmentUnitFlat,Apartment / Unit / Flat,False,0,m2,False
2017074142,listing,/1-4-sunning-place-summer-hill-nsw-2130-2017074142,815000,is-sold,Sold prior to auction 21 Jun 2021,20210621,1/4 Sunning Place,SUMMER HILL,NSW,2130,-33.8888245,151.136581,2,2,2,ApartmentUnitFlat,Apartment / Unit / Flat,False,0,m2,False
2017084635,listing,/27-morris-street-summer-hill-nsw-2130-2017084635,Price Withheld,is-sold,Sold at auction 29 Jun 2021,20210629,27 Morris Street,SUMMER HILL,NSW,2130,-33.89311,151.137619,2,2,2,House,House,False,0,m2,False
2016167093,listing,/11-56-sloane-st-summer-hill-nsw-2130-2016167093,Price Withheld,is-sold,Sold by private treaty 22 May 2021,20210522,11/56 Sloane St,SUMMER HILL,NSW,2130,-33.8875,151.141022,2,2,2,Townhouse,Townhouse,False,0,m2,False
2016916869,listing,/3-43-herbert-street-summer-hill-nsw-2130-2016916869,Price Withheld,is-sold,Sold prior to auction 26 Apr 2021,20210426,3/43 Herbert Street,SUMMER HILL,NSW,2130,-33.8958054,151.13327,2,2,2,ApartmentUnitFlat,Apartment / Unit / Flat,False,0,m2,False
2016923280,listing,/176-old-canterbury-road-summer-hill-nsw-2130-2016923280,2450000,is-sold,Sold at auction 24 Apr 2021,20210424,176 Old Canterbury Road,SUMMER HILL,NSW,2130,-33.8952827,151.1392,5,5,5,House,House,False,449,m2,False
2016930676,listing,/21-100-carlton-crescent-summer-hill-nsw-2130-2016930676,1385000,is-sold,Sold at auction 08 May 2021,20210508,21/100 Carlton Crescent,SUMMER HILL,NSW,2130,-33.89034,151.134247,3,3,3,Townhouse,Townhouse,False,0,m2,False
2016938037,listing,/5-72-kensington-rd-summer-hill-nsw-2130-2016938037,970000,is-sold,Sold at auction 22 May 2021,20210522,5/72 Kensington Rd,SUMMER HILL,NSW,2130,-33.88777,151.1388,3,3,3,ApartmentUnitFlat,Apartment / Unit / Flat,False,0,m2,False
2016939510,listing,/7-26-moonbie-street-summer-hill-nsw-2130-2016939510,900000,is-sold,Sold at auction 08 May 2021,20210508,7/26 Moonbie Street,SUMMER HILL,NSW,2130,-33.89312,151.13707,2,2,2,ApartmentUnitFlat,Apartment / Unit / Flat,False,0,m2,False
2016940528,listing,/14-short-street-summer-hill-nsw-2130-2016940528,Price Withheld,is-sold,Sold prior to auction 04 May 2021,20210504,14 Short Street,SUMMER HILL,NSW,2130,-33.8921432,151.133881,3,3,3,House,House,False,186,m2,False
2016949072,listing,/2c-96-98-carlton-crescent-summer-hill-nsw-2130-2016949072,695000,is-sold,Sold prior to auction 06 May 2021,20210506,2C/96-98 Carlton Crescent,SUMMER HILL,NSW,2130,-33.89036,151.134781,2,2,2,ApartmentUnitFlat,Apartment / Unit / Flat,False,0,m2,False
2016951589,listing,/23-100-102-carlton-crescent-summer-hill-nsw-2130-2016951589,Price Withheld,is-sold,Sold by private treaty 21 Apr 2021,20210421,23/100-102 Carlton Crescent,SUMMER HILL,NSW,2130,-33.89034,151.134247,3,3,3,Townhouse,Townhouse,False,0,m2,False
2016967646,listing,/19-regent-street-summer-hill-nsw-2130-2016967646,1620000,is-sold,Sold prior to auction 11 May 2021,20210511,19 Regent Street,SUMMER HILL,NSW,2130,-33.89408,151.135971,2,2,2,SemiDetached,Semi-Detached,False,142,m2,False
2016978718,listing,/2-72-kensington-road-summer-hill-nsw-2130-2016978718,1100000,is-sold,Sold prior to auction 03 May 2021,20210503,2/72 Kensington Road,SUMMER HILL,NSW,2130,-33.88777,151.1388,3,3,3,ApartmentUnitFlat,Apartment / Unit / Flat,False,94,m2,False
2016987774,listing,/57-kensington-road-summer-hill-nsw-2130-2016987774,1955000,is-sold,Sold prior to auction 11 May 2021,20210511,57 Kensington Road,SUMMER HILL,NSW,2130,-33.88855,151.1411,3,3,3,House,House,False,183,m2,False
2017005661,listing,/4-64-grosvenor-crescent-summer-hill-nsw-2130-2017005661,Price Withheld,is-sold,Sold prior to auction 26 May 2021,20210526,4/64 Grosvenor Crescent,SUMMER HILL,NSW,2130,-33.88926,151.133514,2,2,2,ApartmentUnitFlat,Apartment / Unit / Flat,False,0,m2,False
2017006774,listing,/9-36-sloane-street-summer-hill-nsw-2130-2017006774,650000,is-sold,Sold by private treaty 23 Apr 2021,20210423,9/36 Sloane Street,SUMMER HILL,NSW,2130,-33.88858,151.140259,2,2,2,ApartmentUnitFlat,Apartment / Unit / Flat,False,0,m2,False
2017009869,listing,/12-58-grosvenor-crescent-summer-hill-nsw-2130-2017009869,976000,is-sold,Sold prior to auction 25 May 2021,20210525,12/58 Grosvenor Crescent,SUMMER HILL,NSW,2130,-33.8893051,151.1351,2,2,2,ApartmentUnitFlat,Apartment / Unit / Flat,False,0,m2,False
2017017904,listing,/85-smith-street-summer-hill-nsw-2130-2017017904,1620000,is-sold,Sold by private treaty 19 May 2021,20210519,85 Smith Street,SUMMER HILL,NSW,2130,-33.8917923,151.139114,3,3,3,House,House,False,259,m2,False
2017017998,listing,/1-17-19-gower-street-summer-hill-nsw-2130-2017017998,Price Withheld,is-sold,Sold by private treaty 20 May 2021,20210520,1/17-19 Gower Street,SUMMER HILL,NSW,2130,-33.8883324,151.138016,3,3,3,Townhouse,Townhouse,False,0,m2,False
2017018082,listing,/6-17-19-gower-street-summer-hill-nsw-2130-2017018082,Price Withheld,is-sold,Sold by private treaty 20 May 2021,20210520,6/17-19 Gower Street,SUMMER HILL,NSW,2130,-33.8883324,151.138016,3,3,3,Townhouse,Townhouse,False,0,m2,False
2017018084,listing,/11-17-19-gower-street-summer-hill-nsw-2130-2017018084,Price Withheld,is-sold,Sold by private treaty 20 May 2021,20210520,11/17-19 Gower Street,SUMMER HILL,NSW,2130,-33.8883324,151.138016,2,2,2,ApartmentUnitFlat,Apartment / Unit / Flat,False,0,m2,False
2017018087,listing,/9-17-19-gower-street-summer-hill-nsw-2130-2017018087,Price Withheld,is-sold,Sold by private treaty 20 May 2021,20210520,9/17-19 Gower Street,SUMMER HILL,NSW,2130,-33.8883324,151.138016,3,3,3,Townhouse,Townhouse,False,0,m2,False
2016733014,listing,/1-24-moonbie-street-summer-hill-nsw-2130-2016733014,Price Withheld,is-sold,Sold by private treaty 15 Mar 2021,20210315,1/24 Moonbie Street,SUMMER HILL,NSW,2130,-33.89295,151.137085,1,1,1,ApartmentUnitFlat,Apartment / Unit / Flat,False,0,m2,False
2016740369,listing,/301-14-flour-mill-way-summer-hill-nsw-2130-2016740369,Price Withheld,is-sold,Sold by private treaty 03 Mar 2021,20210303,301/14 Flour Mill Way,SUMMER HILL,NSW,2130,-33.8936272,151.141937,3,3,3,ApartmentUnitFlat,Apartment / Unit / Flat,False,0,m2,False
2016765615,listing,/7-12-prospect-road-summer-hill-nsw-2130-2016765615,Price Withheld,is-sold,Sold by private treaty 05 Mar 2021,20210305,7/12 Prospect Road,SUMMER HILL,NSW,2130,-33.89061,151.13269,2,2,2,ApartmentUnitFlat,Apartment / Unit / Flat,False,0,m2,False
2016771053,listing,/2-95-kensington-road-summer-hill-nsw-2130-2016771053,1006000,is-sold,Sold prior to auction 25 Feb 2021,20210225,2/95 Kensington Road,SUMMER HILL,NSW,2130,-33.8870735,151.138565,2,2,2,ApartmentUnitFlat,Apartment / Unit / Flat,False,0,m2,False
2016774370,listing,/9-fleet-street-summer-hill-nsw-2130-2016774370,2070000,is-sold,Sold by private treaty 18 Mar 2021,20210318,9 Fleet Street,SUMMER HILL,NSW,2130,-33.8917542,151.140488,4,4,4,SemiDetached,Semi-Detached,False,310,m2,False
2016795196,listing,/11a-spencer-street-summer-hill-nsw-2130-2016795196,1770000,is-sold,Sold at auction 06 Mar 2021,20210306,11a Spencer Street,SUMMER HILL,NSW,2130,-33.89326,151.140472,2,2,2,House,House,False,202,m2,False
2016800705,listing,/29-regent-street-summer-hill-nsw-2130-2016800705,2080000,is-sold,Sold by private treaty 06 Apr 2021,20210406,29 Regent Street,SUMMER HILL,NSW,2130,-33.89412,151.136368,3,3,3,House,House,False,279,m2,False
2016803143,listing,/3-105-smith-street-summer-hill-nsw-2130-2016803143,675000,is-sold,Sold prior to auction 10 Mar 2021,20210310,3/105 Smith Street,SUMMER HILL,NSW,2130,-33.8915443,151.137619,1,1,1,ApartmentUnitFlat,Apartment / Unit / Flat,False,0,m2,False
2016817041,listing,/6-55-prospect-road-summer-hill-nsw-2130-2016817041,Price Withheld,is-sold,Sold by private treaty 03 Mar 2021,20210303,6/55 Prospect Road,SUMMER HILL,NSW,2130,-33.8939857,151.132034,1,1,1,ApartmentUnitFlat,Apartment / Unit / Flat,False,0,m2,False
2016826372,listing,/30-liverpool-road-summer-hill-nsw-2130-2016826372,1110000,is-sold,Sold at auction 20 Mar 2021,20210320,30 Liverpool Road,SUMMER HILL,NSW,2130,-33.8871,151.137619,2,2,2,House,House,False,107,m2,False
2016842750,listing,/8-50-carlton-crescent-summer-hill-nsw-2130-2016842750,Price Withheld,is-sold,Sold prior to auction 17 Mar 2021,20210317,8/50 Carlton Crescent,SUMMER HILL,NSW,2130,-33.89083,151.139236,2,2,2,ApartmentUnitFlat,Apartment / Unit / Flat,False,0,m2,False
2016849982,listing,/3-64-grosvenor-crescent-summer-hill-nsw-2130-2016849982,Price Withheld,is-sold,Sold by private treaty 22 Mar 2021,20210322,3/64 Grosvenor Crescent,SUMMER HILL,NSW,2130,-33.88926,151.133514,1,1,1,ApartmentUnitFlat,Apartment / Unit / Flat,False,0,m2,False
2016855531,listing,/6-bartlett-street-summer-hill-nsw-2130-2016855531,2250000,is-sold,Sold prior to auction 23 Mar 2021,20210323,6 Bartlett Street,SUMMER HILL,NSW,2130,-33.8928947,151.136017,3,3,3,House,House,False,376,m2,False
2016856466,listing,/1101-3-mungo-scott-place-summer-hill-nsw-2130-2016856466,600000,is-sold,Sold by private treaty 09 Apr 2021,20210409,1101/3 Mungo Scott Place,SUMMER HILL,NSW,2130,-33.89387,151.142273,1,1,1,ApartmentUnitFlat,Apartment / Unit / Flat,False,0,m2,False
2016873782,listing,/25-bartlett-street-summer-hill-nsw-2130-2016873782,Price Withheld,is-sold,Sold prior to auction 22 Mar 2021,20210322,25 Bartlett Street,SUMMER HILL,NSW,2130,-33.8942223,151.135452,4,4,4,House,House,False,247,m2,False
2016874371,listing,/16-fleet-street-summer-hill-nsw-2130-2016874371,Price Withheld,is-sold,Sold prior to auction 10 Apr 2021,20210410,16 Fleet Street,SUMMER HILL,NSW,2130,-33.89206,151.140854,2,2,2,House,House,False,133,m2,False
2016875847,listing,/1-5-sunning-place-summer-hill-nsw-2130-2016875847,870000,is-sold,Sold prior to auction 31 Mar 2021,20210331,1/5 Sunning Place,SUMMER HILL,NSW,2130,-33.8886566,151.1366,2,2,2,ApartmentUnitFlat,Apartment / Unit / Flat,False,0,m2,False
2016884271,listing,/38-henson-street-summer-hill-nsw-2130-2016884271,2505000,is-sold,Sold prior to auction 29 Mar 2021,20210329,38 Henson Street,SUMMER HILL,NSW,2130,-33.8956947,151.1349,4,4,4,House,House,False,214,m2,False
2016893529,listing,/3-16-grosvenor-crescent-summer-hill-nsw-2130-2016893529,960000,is-sold,Sold at auction 17 Apr 2021,20210417,3/16 Grosvenor Crescent,SUMMER HILL,NSW,2130,-33.89065,151.141159,2,2,2,ApartmentUnitFlat,Apartment / Unit / Flat,False,0,m2,False
2016922619,listing,/16-carrington-street-summer-hill-nsw-2130-2016922619,2000000,is-sold,Sold prior to auction 16 Apr 2021,20210416,16 Carrington Street,SUMMER HILL,NSW,2130,-33.89338,151.139984,3,3,3,House,House,False,201,m2,False
2016181005,listing,/33-grosvenor-crescent-summer-hill-nsw-2130-2016181005,Price Withheld,is-sold,Sold by private treaty 16 Dec 2020,20201216,33 Grosvenor Crescent,SUMMER HILL,NSW,2130,-33.8899078,151.138779,3,3,3,House,House,False,0,m2,False
2016423729,listing,/5-139a-smith-street-summer-hill-nsw-2130-2016423729,515000,is-sold,Sold by private treaty 10 Feb 2021,20210210,5/139a Smith Street,SUMMER HILL,NSW,2130,-33.8908958,151.135361,1,1,1,ApartmentUnitFlat,Apartment / Unit / Flat,False,0,m2,False
2016512426,listing,/1-13-dover-street-summer-hill-nsw-2130-2016512426,Price Withheld,is-sold,Sold by private treaty 31 Dec 2020,20201231,1/13 Dover Street,SUMMER HILL,NSW,2130,-33.89084,151.1433,2,2,2,ApartmentUnitFlat,Apartment / Unit / Flat,False,0,m2,False
2016582848,listing,/6-prospect-road-summer-hill-nsw-2130-2016582848,Price Withheld,is-sold,Sold by private treaty 08 Feb 2021,20210208,6 Prospect Road,SUMMER HILL,NSW,2130,-33.8903351,151.132553,4,4,4,House,House,False,626,m2,False
2016583464,listing,/20-regent-street-summer-hill-nsw-2130-2016583464,Price Withheld,is-sold,Sold by private treaty 14 Jan 2021,20210114,20 Regent Street,SUMMER HILL,NSW,2130,-33.8937,151.136322,3,3,3,House,House,False,0,m2,False
2016637142,listing,/8-bartlett-street-summer-hill-nsw-2130-2016637142,2100000,is-sold,Sold at auction 12 Dec 2020,20201212,8 Bartlett Street,SUMMER HILL,NSW,2130,-33.893055,151.136017,3,3,3,House,House,False,376,m2,False
2016644986,listing,/7-lindsay-avenue-summer-hill-nsw-2130-2016644986,Price Withheld,is-sold,Sold at auction 12 Dec 2020,20201212,7 Lindsay Avenue,SUMMER HILL,NSW,2130,-33.89293,151.13382,2,2,2,SemiDetached,Semi-Detached,False,253,m2,False
2016666785,listing,/18-63a-grosvenor-crescent-summer-hill-nsw-2130-2016666785,785000,is-sold,Sold by private treaty 11 Dec 2020,20201211,18/63a Grosvenor Crescent,SUMMER HILL,NSW,2130,-33.88911,151.13382,2,2,2,ApartmentUnitFlat,Apartment / Unit / Flat,False,0,m2,False
2016698353,listing,/48-morris-street-summer-hill-nsw-2130-2016698353,Price Withheld,is-sold,Sold by private treaty 15 Dec 2020,20201215,48 Morris Street,SUMMER HILL,NSW,2130,-33.89443,151.137924,3,3,3,House,House,False,0,m2,False
2016730722,listing,/27-139a-smith-street-summer-hill-nsw-2130-2016730722,568000,is-sold,Sold by private treaty 20 Jan 2021,20210120,27/139A Smith Street,SUMMER HILL,NSW,2130,-33.8908958,151.135361,1,1,1,ApartmentUnitFlat,Apartment / Unit / Flat,False,0,m2,False
2016731610,listing,/18-seaview-street-summer-hill-nsw-2130-2016731610,Price Withheld,is-sold,Sold prior to auction 21 Jan 2021,20210121,18 Seaview Street,SUMMER HILL,NSW,2130,-33.89816,151.133179,3,3,3,House,House,False,360,m2,False
2016733526,listing,/14-regent-street-summer-hill-nsw-2130-2016733526,2700000,is-sold,Sold at auction 13 Feb 2021,20210213,14 Regent Street,SUMMER HILL,NSW,2130,-33.89368,151.136139,4,4,4,House,House,False,278,m2,False
2016750482,listing,/228-old-canterbury-road-summer-hill-nsw-2130-2016750482,1550500,is-sold,Sold at auction 11 Feb 2021,20210211,228 Old Canterbury Road,SUMMER HILL,NSW,2130,-33.896904,151.136261,2,2,2,House,House,False,436,m2,False
2016750869,listing,/17-23-25-gower-street-summer-hill-nsw-2130-2016750869,Price Withheld,is-sold,Sold by private treaty 01 Feb 2021,20210201,17/23-25 Gower Street,SUMMER HILL,NSW,2130,-33.88788,151.1377,1,1,1,ApartmentUnitFlat,Apartment / Unit / Flat,False,0,m2,False
2016751213,listing,/28-40-junction-road-summer-hill-nsw-2130-2016751213,Price Withheld,is-sold,Sold by private treaty 10 Feb 2021,20210210,28/40 Junction Road,SUMMER HILL,NSW,2130,-33.8954659,151.1338,1,1,1,ApartmentUnitFlat,Apartment / Unit / Flat,False,0,m2,False
2016769033,listing,/4-prospect-road-summer-hill-nsw-2130-2016769033,Price Withheld,is-sold,Sold prior to auction 18 Feb 2021,20210218,4 Prospect Road,SUMMER HILL,NSW,2130,-33.890255,151.132553,3,3,3,House,House,False,470,m2,False
2016772378,listing,/13-16-grosvenor-crescent-summer-hill-nsw-2130-2016772378,812000,is-sold,Sold prior to auction 16 Feb 2021,20210216,13/16 Grosvenor Crescent,SUMMER HILL,NSW,2130,-33.89065,151.141159,2,2,2,ApartmentUnitFlat,Apartment / Unit / Flat,False,0,m2,False
2016775559,listing,/47-kensington-road-summer-hill-nsw-2130-2016775559,1460000,is-sold,Sold prior to auction 22 Feb 2021,20210222,47 Kensington Road,SUMMER HILL,NSW,2130,-33.8887978,151.141449,3,3,3,House,House,False,183,m2,False
2016788234,listing,/203-2-malthouse-way-summer-hill-nsw-2130-2016788234,995000,is-sold,Sold by private treaty 18 Feb 2021,20210218,203/2 Malthouse Way,SUMMER HILL,NSW,2130,-33.8928833,151.1437,2,2,2,ApartmentUnitFlat,Apartment / Unit / Flat,False,0,m2,False
2016824242,listing,/2-64-grosvenor-crescent-summer-hill-nsw-2130-2016824242,Price Withheld,is-sold,Sold by private treaty 10 Feb 2021,20210210,2/64 Grosvenor Crescent,SUMMER HILL,NSW,2130,-33.88926,151.133514,1,1,1,ApartmentUnitFlat,Apartment / Unit / Flat,False,0,m2,False
2016430490,listing,/7-45-kensington-road-summer-hill-nsw-2130-2016430490,579500,is-sold,Sold by private treaty 16 Nov 2020,20201116,7/45 Kensington Road,SUMMER HILL,NSW,2130,-33.88881,151.141617,1,1,1,ApartmentUnitFlat,Apartment / Unit / Flat,False,0,m2,False
2016531394,listing,/37-spencer-street-summer-hill-nsw-2130-2016531394,Price Withheld,is-sold,Sold by private treaty 27 Nov 2020,20201127,37 Spencer Street,SUMMER HILL,NSW,2130,-33.89476,151.1404,4,4,4,House,House,False,234,m2,False
2016532492,listing,/11-grosvenor-crescent-summer-hill-nsw-2130-2016532492,2530000,is-sold,Sold at auction 07 Nov 2020,20201107,11 Grosvenor Crescent,SUMMER HILL,NSW,2130,-33.8908577,151.141663,4,4,4,House,House,False,784,m2,False
2016540450,listing,/11-regent-street-summer-hill-nsw-2130-2016540450,2400000,is-sold,Sold at auction 31 Oct 2020,20201031,11 Regent Street,SUMMER HILL,NSW,2130,-33.8939743,151.135559,3,3,3,House,House,False,557,m2,False
2016543579,listing,/4-bartlett-street-summer-hill-nsw-2130-2016543579,Price Withheld,is-sold,Sold prior to auction 29 Oct 2020,20201029,4 Bartlett Street,SUMMER HILL,NSW,2130,-33.8928,151.136108,4,4,4,House,House,False,436,m2,False
2016554795,listing,/22-100-carlton-crescent-summer-hill-nsw-2130-2016554795,Price Withheld,is-sold,Sold by private treaty 07 Dec 2020,20201207,22/100 Carlton Crescent,SUMMER HILL,NSW,2130,-33.89034,151.134247,3,3,3,Townhouse,Townhouse,False,0,m2,False
2016559868,listing,/9-sloane-street-summer-hill-nsw-2130-2016559868,1610000,is-sold,Sold by private treaty 04 Dec 2020,20201204,9 Sloane Street,SUMMER HILL,NSW,2130,-33.8898926,151.139557,4,4,4,House,House,False,279,m2,False
2016567774,listing,/5-6-8-gower-street-summer-hill-nsw-2130-2016567774,675000,is-sold,Sold at auction 21 Nov 2020,20201121,5/6-8 Gower Street,SUMMER HILL,NSW,2130,-33.8893127,151.138428,1,1,1,ApartmentUnitFlat,Apartment / Unit / Flat,False,0,m2,False
2016568343,listing,/11-43-herbert-street-summer-hill-nsw-2130-2016568343,Price Withheld,is-sold,Sold by private treaty 24 Nov 2020,20201124,11/43 Herbert Street,SUMMER HILL,NSW,2130,-33.8958054,151.13327,2,2,2,ApartmentUnitFlat,Apartment / Unit / Flat,False,0,m2,False
2016571346,listing,/85-prospect-road-summer-hill-nsw-2130-2016571346,3925000,is-sold,Sold at auction 23 Nov 2020,20201123,85 Prospect Road,SUMMER HILL,NSW,2130,-33.8963432,151.13205,5,5,5,House,House,False,775,m2,False
2016577944,listing,/4-2-allman-avenue-summer-hill-nsw-2130-2016577944,Price Withheld,is-sold,Sold prior to auction 17 Nov 2020,20201117,4/2 Allman Avenue,SUMMER HILL,NSW,2130,-33.8913651,151.133469,1,1,1,ApartmentUnitFlat,Apartment / Unit / Flat,False,0,m2,False
2016585839,listing,/49-kensington-road-summer-hill-nsw-2130-2016585839,995000,is-sold,Sold at auction 28 Nov 2020,20201128,49 Kensington Road,SUMMER HILL,NSW,2130,-33.8887978,151.141373,2,2,2,House,House,False,184,m2,False
2016586646,listing,/33-henson-street-summer-hill-nsw-2130-2016586646,1675000,is-sold,Sold at auction 21 Nov 2020,20201121,33 Henson Street,SUMMER HILL,NSW,2130,-33.89563,151.134308,2,2,2,Terrace,Terrace,False,379,m2,False
2016605837,listing,/11-hurlstone-avenue-summer-hill-nsw-2130-2016605837,3210000,is-sold,Sold at auction 05 Dec 2020,20201205,11 Hurlstone Avenue,SUMMER HILL,NSW,2130,-33.898613,151.133,4,4,4,House,House,False,582,m2,False
2016626721,listing,/55-62-grosvenor-crescent-summer-hill-nsw-2130-2016626721,730000,is-sold,Sold by private treaty 25 Nov 2020,20201125,55/62 Grosvenor Crescent,SUMMER HILL,NSW,2130,-33.88926,151.134537,2,2,2,ApartmentUnitFlat,Apartment / Unit / Flat,False,0,m2,False
2016649968,listing,/5-short-street-summer-hill-nsw-2130-2016649968,Price Withheld,is-sold,Sold by private treaty 01 Dec 2020,20201201,5 Short Street,SUMMER HILL,NSW,2130,-33.8925629,151.133453,3,3,3,SemiDetached,Semi-Detached,False,247,m2,False
2016663460,listing,/46-62-grosvenor-crescent-summer-hill-nsw-2130-2016663460,780000,is-sold,Sold by private treaty 08 Dec 2020,20201208,46/62 Grosvenor Crescent,SUMMER HILL,NSW,2130,-33.88926,151.134537,2,2,2,ApartmentUnitFlat,Apartment / Unit / Flat,False,0,m2,False
2016668766,listing,/summer-hill-nsw-2130-2016668766,Price Withheld,is-sold,Sold by private treaty 28 Nov 2020,20201128,NaN,SUMMER HILL,NSW,2130,-33.8922958,151.135956,3,3,3,House,House,False,0,m2,False
2016671642,listing,/403-14-flour-mill-way-summer-hill-nsw-2130-2016671642,Price Withheld,is-sold,Sold by private treaty 23 Nov 2020,20201123,403/14 Flour Mill Way,SUMMER HILL,NSW,2130,-33.8936272,151.141937,3,3,3,ApartmentUnitFlat,Apartment / Unit / Flat,False,0,m2,False
2016691126,listing,/20-prospect-road-summer-hill-nsw-2130-2016691126,Price Withheld,is-sold,Sold by private treaty 09 Dec 2020,20201209,20 Prospect Road,SUMMER HILL,NSW,2130,-33.891037,151.132645,4,4,4,House,House,False,923,m2,False
2016325058,listing,/25-139a-smith-street-summer-hill-nsw-2130-2016325058,565000,is-sold,Sold by private treaty 26 Oct 2020,20201026,25/139a Smith Street,SUMMER HILL,NSW,2130,-33.8908958,151.135361,1,1,1,ApartmentUnitFlat,Apartment / Unit / Flat,False,0,m2,False
2016375875,listing,/41-carlton-crescent-summer-hill-nsw-2130-2016375875,1075000,is-sold,Sold by private treaty 13 Oct 2020,20201013,41 Carlton Crescent,SUMMER HILL,NSW,2130,-33.89118,151.139984,2,2,2,House,House,False,145,m2,False
2016406230,listing,/3-22-gower-street-summer-hill-nsw-2130-2016406230,Price Withheld,is-sold,Sold by private treaty 24 Sep 2020,20200924,3/22 Gower Street,SUMMER HILL,NSW,2130,-33.8885,151.137436,2,2,2,ApartmentUnitFlat,Apartment / Unit / Flat,False,0,m2,False
2016436036,listing,/9-dover-street-summer-hill-nsw-2130-2016436036,Price Withheld,is-sold,Sold at auction 12 Sep 2020,20200912,9 Dover Street,SUMMER HILL,NSW,2130,-33.89097,151.143021,3,3,3,House,House,False,379,m2,False
2016438075,listing,/4-edward-street-summer-hill-nsw-2130-2016438075,1590000,is-sold,Sold at auction 12 Sep 2020,20200912,4 Edward Street,SUMMER HILL,NSW,2130,-33.89307,151.141754,4,4,4,Townhouse,Townhouse,False,0,m2,False
2016440071,listing,/507-7-mungo-scott-place-summer-hill-nsw-2130-2016440071,950000,is-sold,Sold by private treaty 15 Sep 2020,20200915,507/7 Mungo Scott Place,SUMMER HILL,NSW,2130,-33.89453,151.142365,2,2,2,ApartmentUnitFlat,Apartment / Unit / Flat,False,0,m2,False
2016456780,listing,/304-3-flour-mill-way-summer-hill-nsw-2130-2016456780,1027000,is-sold,Sold at auction 17 Sep 2020,20200917,304/3 Flour Mill Way,SUMMER HILL,NSW,2130,-33.8930244,151.14209,2,2,2,ApartmentUnitFlat,Apartment / Unit / Flat,False,0,m2,False
2016456909,listing,/19-smith-street-summer-hill-nsw-2130-2016456909,Price Withheld,is-sold,Sold at auction 19 Sep 2020,20200919,19 Smith Street,SUMMER HILL,NSW,2130,-33.89258,151.142441,3,3,3,House,House,False,266,m2,False
2016458346,listing,/30-junction-road-summer-hill-nsw-2130-2016458346,1485000,is-sold,Sold at auction 21 Sep 2020,20200921,30 Junction Road,SUMMER HILL,NSW,2130,-33.89536,151.134888,3,3,3,House,House,False,190,m2,False
2016468177,listing,/3-95-kensington-road-summer-hill-nsw-2130-2016468177,960000,is-sold,Sold at auction 26 Sep 2020,20200926,3/95 Kensington Road,SUMMER HILL,NSW,2130,-33.8870735,151.138565,2,2,2,ApartmentUnitFlat,Apartment / Unit / Flat,False,111,m2,False
2016469918,listing,/3-72-kensington-road-summer-hill-nsw-2130-2016469918,Price Withheld,is-sold,Sold by private treaty 15 Sep 2020,20200915,3/72 Kensington Road,SUMMER HILL,NSW,2130,-33.88777,151.1388,3,3,3,ApartmentUnitFlat,Apartment / Unit / Flat,False,0,m2,False
2016483482,listing,/2-48-grosvenor-crescent-summer-hill-nsw-2130-2016483482,Price Withheld,is-sold,Sold at auction 30 Sep 2020,20200930,2/48 Grosvenor Crescent,SUMMER HILL,NSW,2130,-33.8894157,151.136948,2,2,2,ApartmentUnitFlat,Apartment / Unit / Flat,False,0,m2,False
2016488796,listing,/116-prospect-road-summer-hill-nsw-2130-2016488796,3250000,is-sold,Sold at auction 10 Oct 2020,20201010,116 Prospect Road,SUMMER HILL,NSW,2130,-33.8968544,151.132584,4,4,4,House,House,False,646,m2,False
2016497563,listing,/8-45-kensington-road-summer-hill-nsw-2130-2016497563,Price Withheld,is-sold,Sold at auction 17 Oct 2020,20201017,8/45 Kensington Road,SUMMER HILL,NSW,2130,-33.88881,151.141617,2,2,2,ApartmentUnitFlat,Apartment / Unit / Flat,False,0,m2,False
2016497576,listing,/27-65-75-smith-street-summer-hill-nsw-2130-2016497576,872000,is-sold,Sold at auction 17 Oct 2020,20201017,27/65-75 Smith Street,SUMMER HILL,NSW,2130,-33.8918724,151.1398,1,1,1,ApartmentUnitFlat,Apartment / Unit / Flat,False,0,m2,False
2016497638,listing,/29-62-grosvenor-crescent-summer-hill-nsw-2130-2016497638,743000,is-sold,Sold prior to auction 14 Oct 2020,20201014,29/62 Grosvenor Crescent,SUMMER HILL,NSW,2130,-33.88926,151.134537,2,2,2,ApartmentUnitFlat,Apartment / Unit / Flat,False,0,m2,False
2016503400,listing,/9-edward-street-summer-hill-nsw-2130-2016503400,Price Withheld,is-sold,Sold at auction 17 Oct 2020,20201017,9 Edward Street,SUMMER HILL,NSW,2130,-33.8934021,151.141388,4,4,4,House,House,False,392,m2,False
2016503766,listing,/35-henson-street-summer-hill-nsw-2130-2016503766,1535000,is-sold,Sold at auction 24 Oct 2020,20201024,35 Henson Street,SUMMER HILL,NSW,2130,-33.89571,151.134308,2,2,2,Terrace,Terrace,False,379,m2,False
2016507349,listing,/4-13-dover-street-summer-hill-nsw-2130-2016507349,610000,is-sold,Sold prior to auction 16 Oct 2020,20201016,4/13 Dover Street,SUMMER HILL,NSW,2130,-33.89084,151.1433,1,1,1,ApartmentUnitFlat,Apartment / Unit / Flat,False,64,m2,False
2016508568,listing,/10-27-29-smith-street-summer-hill-nsw-2130-2016508568,1270000,is-sold,Sold at auction 30 Sep 2020,20200930,10/27-29 Smith Street,SUMMER HILL,NSW,2130,-33.89233,151.141464,3,3,3,Townhouse,Townhouse,False,0,m2,False
2016286504,listing,/6-flour-mill-way-summer-hill-nsw-2130-2016286504,Price Withheld,is-sold,Sold by private treaty 01 Aug 2020,20200801,6 Flour Mill Way,SUMMER HILL,NSW,2130,-33.8932838,151.142349,4,4,4,House,House,False,0,m2,False
2016323428,listing,/501-14-flour-mill-way-summer-hill-nsw-2130-2016323428,Price Withheld,is-sold,Sold by private treaty 28 Aug 2020,20200828,501/14 Flour Mill Way,SUMMER HILL,NSW,2130,-33.8932838,151.142349,3,3,3,ApartmentUnitFlat,Apartment / Unit / Flat,False,0,m2,False
2016341558,listing,/35-sloane-street-summer-hill-nsw-2130-2016341558,Price Withheld,is-sold,Sold at auction 25 Jul 2020,20200725,35 Sloane Street,SUMMER HILL,NSW,2130,-33.8890152,151.1406,2,2,2,House,House,False,164,m2,False
2016359410,listing,/2-104-prospect-road-summer-hill-nsw-2130-2016359410,700000,is-sold,Sold prior to auction 28 Jul 2020,20200728,2/104 Prospect Road,SUMMER HILL,NSW,2130,-33.8960953,151.1326,2,2,2,ApartmentUnitFlat,Apartment / Unit / Flat,False,0,m2,False
2016360215,listing,/8-nowranie-street-summer-hill-nsw-2130-2016360215,2000000,is-sold,Sold at auction 03 Aug 2020,20200803,8 Nowranie Street,SUMMER HILL,NSW,2130,-33.89284,151.139069,3,3,3,House,House,False,205,m2,False
2016360589,listing,/24a-seaview-street-summer-hill-nsw-2130-2016360589,Price Withheld,is-sold,Sold by private treaty 24 Aug 2020,20200824,24A Seaview Street,SUMMER HILL,NSW,2130,-33.89798,151.132675,3,3,3,House,House,False,322,m2,False
2016376004,listing,/12-44-grosvenor-crescent-summer-hill-nsw-2130-2016376004,675000,is-sold,Sold by private treaty 04 Sep 2020,20200904,12/44 Grosvenor Crescent,SUMMER HILL,NSW,2130,-33.889473,151.137787,2,2,2,ApartmentUnitFlat,Apartment / Unit / Flat,False,0,m2,False
2016389441,listing,/68-smith-street-summer-hill-nsw-2130-2016389441,Price Withheld,is-sold,Sold prior to auction 31 Jul 2020,20200731,68 Smith Street,SUMMER HILL,NSW,2130,-33.8926163,151.140259,3,3,3,House,House,False,197,m2,False
2016401106,listing,/20-henson-street-summer-hill-nsw-2130-2016401106,1900000,is-sold,Sold prior to auction 07 Aug 2020,20200807,20 Henson Street,SUMMER HILL,NSW,2130,-33.89407,151.13501,4,4,4,House,House,False,556,m2,False
2016401556,listing,/2-louisa-street-summer-hill-nsw-2130-2016401556,Price Withheld,is-sold,Sold at auction 24 Aug 2020,20200824,2 Louisa Street,SUMMER HILL,NSW,2130,-33.89279,151.133423,3,3,3,House,House,False,278,m2,False
2016401904,listing,/11-66-kensington-road-summer-hill-nsw-2130-2016401904,Price Withheld,is-sold,Sold by private treaty 15 Aug 2020,20200815,11/66 Kensington Road,SUMMER HILL,NSW,2130,-33.88792,151.1391,2,2,2,ApartmentUnitFlat,Apartment / Unit / Flat,False,0,m2,False
2016415997,listing,/6-9-prospect-road-summer-hill-nsw-2130-2016415997,723000,is-sold,Sold by private treaty 08 Sep 2020,20200908,6/9 Prospect Road,SUMMER HILL,NSW,2130,-33.890686,151.132065,2,2,2,ApartmentUnitFlat,Apartment / Unit / Flat,False,0,m2,False
2016418856,listing,/lg-2-23-25-gower-street-summer-hill-nsw-2130-2016418856,723000,is-sold,Sold by private treaty 08 Sep 2020,20200908,LG 2/23-25 Gower Street,SUMMER HILL,NSW,2130,-33.88788,151.1377,2,2,2,ApartmentUnitFlat,Apartment / Unit / Flat,False,0,m2,False
2016421922,listing,/6-33-edward-street-summer-hill-nsw-2130-2016421922,520000,is-sold,Sold at auction 21 Aug 2020,20200821,6/33 Edward Street,SUMMER HILL,NSW,2130,-33.8949547,151.141434,1,1,1,ApartmentUnitFlat,Apartment / Unit / Flat,False,0,m2,False
2016422259,listing,/26-prospect-road-summer-hill-nsw-2130-2016422259,1525000,is-sold,Sold prior to auction 04 Sep 2020,20200904,26 Prospect Road,SUMMER HILL,NSW,2130,-33.89123,151.132828,3,3,3,House,House,False,341,m2,False
2016426822,listing,/26-edward-street-summer-hill-nsw-2130-2016426822,Price Withheld,is-sold,Sold prior to auction 24 Aug 2020,20200824,26 Edward Street,SUMMER HILL,NSW,2130,-33.89399,151.141754,3,3,3,House,House,False,0,m2,False
2016436325,listing,/1-44-grosvenor-crescent-summer-hill-nsw-2130-2016436325,Price Withheld,is-sold,Sold at auction 04 Sep 2020,20200904,1/44 Grosvenor Crescent,SUMMER HILL,NSW,2130,-33.889473,151.137787,2,2,2,ApartmentUnitFlat,Apartment / Unit / Flat,False,0,m2,False
2016437550,listing,/18-59-61-kensington-road-summer-hill-nsw-2130-2016437550,Price Withheld,is-sold,Sold prior to auction 22 Aug 2020,20200822,18/59-61 Kensington Road,SUMMER HILL,NSW,2130,-33.8877831,151.140427,2,2,2,ApartmentUnitFlat,Apartment / Unit / Flat,False,0,m2,False
2016452292,listing,/11-58-grosvenor-crescent-summer-hill-nsw-2130-2016452292,780500,is-sold,Sold by private treaty 07 Sep 2020,20200907,11/58 Grosvenor Crescent,SUMMER HILL,NSW,2130,-33.8893051,151.1351,2,2,2,ApartmentUnitFlat,Apartment / Unit / Flat,False,0,m2,False
2016495373,listing,/202-1-flour-mill-way-summer-hill-nsw-2130-2016495373,Price Withheld,is-sold,Sold by private treaty 09 Sep 2020,20200909,202/1 Flour Mill Way,SUMMER HILL,NSW,2130,-33.8934555,151.142,2,2,2,ApartmentUnitFlat,Apartment / Unit / Flat,False,0,m2,False
2016142875,listing,/55-kensington-road-summer-hill-nsw-2130-2016142875,1235000,is-sold,Sold by private treaty 24 Apr 2020,20200424,55 Kensington Road,SUMMER HILL,NSW,2130,-33.88858,151.141144,2,2,2,House,House,False,189,m2,False
2016155195,listing,/3-3a-gower-street-summer-hill-nsw-2130-2016155195,705000,is-sold,Sold by private treaty 30 Apr 2020,20200430,3/3A Gower Street,SUMMER HILL,NSW,2130,-33.88876,151.139069,2,2,2,ApartmentUnitFlat,Apartment / Unit / Flat,False,0,m2,False
2016192025,listing,/2-51-sloane-street-summer-hill-nsw-2130-2016192025,695000,is-sold,Sold by private treaty 27 May 2020,20200527,2/51 Sloane Street,SUMMER HILL,NSW,2130,-33.8883743,151.141479,2,2,2,ApartmentUnitFlat,Apartment / Unit / Flat,False,0,m2,False
2016205327,listing,/27-23-gower-street-summer-hill-nsw-2130-2016205327,445000,is-sold,Sold by private treaty 04 May 2020,20200504,27/23 Gower Street,SUMMER HILL,NSW,2130,-33.88788,151.1377,1,1,1,ApartmentUnitFlat,Apartment / Unit / Flat,False,0,m2,False
2016207950,listing,/100-smith-street-summer-hill-nsw-2130-2016207950,Price Withheld,is-sold,Sold prior to auction 15 May 2020,20200515,100 Smith Street,SUMMER HILL,NSW,2130,-33.89229,151.139,2,2,2,House,House,False,202,m2,False
2016219596,listing,/3-103-carlton-crescent-summer-hill-nsw-2130-2016219596,Price Withheld,is-sold,Sold by private treaty 16 May 2020,20200516,3/103 Carlton Crescent,SUMMER HILL,NSW,2130,-33.8901672,151.133911,3,3,3,Townhouse,Townhouse,False,0,m2,False
2016226102,listing,/10-159-smith-street-summer-hill-nsw-2130-2016226102,Price Withheld,is-sold,Sold by private treaty 04 May 2020,20200504,10/159 Smith Street,SUMMER HILL,NSW,2130,-33.89139,151.1338,1,1,1,ApartmentUnitFlat,Apartment / Unit / Flat,False,0,m2,False
2016228490,listing,/30-151b-smith-street-summer-hill-nsw-2130-2016228490,577000,is-sold,Sold by private treaty 22 May 2020,20200522,30/151B Smith Street,SUMMER HILL,NSW,2130,-33.89112,151.134674,2,2,2,ApartmentUnitFlat,Apartment / Unit / Flat,False,0,m2,False
2016230360,listing,/407-5-mungo-scott-place-summer-hill-nsw-2130-2016230360,Price Withheld,is-sold,Sold by private treaty 24 Jul 2020,20200724,407/5 Mungo Scott Place,SUMMER HILL,NSW,2130,-33.8942566,151.142639,1,1,1,ApartmentUnitFlat,Apartment / Unit / Flat,False,0,m2,False
2016233048,listing,/3-67-75-smith-street-summer-hill-nsw-2130-2016233048,Price Withheld,is-sold,Sold by private treaty 29 May 2020,20200529,3/67-75 Smith Street,SUMMER HILL,NSW,2130,-33.8918724,151.13974,3,3,3,House,House,False,0,m2,False
2016244613,listing,/14-carlton-crescent-summer-hill-nsw-2130-2016244613,1680000,is-sold,Sold at auction 30 May 2020,20200530,14 Carlton Crescent,SUMMER HILL,NSW,2130,-33.89188,151.142075,5,5,5,House,House,False,346,m2,False
2016251852,listing,/75-morris-street-summer-hill-nsw-2130-2016251852,1600000,is-sold,Sold by private treaty 26 May 2020,20200526,75 Morris Street,SUMMER HILL,NSW,2130,-33.8947144,151.13739,2,2,2,SemiDetached,Semi-Detached,False,251,m2,False
2016264383,listing,/9-lindsay-avenue-summer-hill-nsw-2130-2016264383,Price Withheld,is-sold,Sold at auction 06 Jul 2020,20200706,9 Lindsay Avenue,SUMMER HILL,NSW,2130,-33.89301,151.13382,2,2,2,House,House,False,253,m2,False
2016266892,listing,/75-28-gower-street-summer-hill-nsw-2130-2016266892,Price Withheld,is-sold,Sold at auction 13 Jun 2020,20200613,75/28 Gower Street,SUMMER HILL,NSW,2130,-33.8878555,151.136871,2,2,2,ApartmentUnitFlat,Apartment / Unit / Flat,False,210,m2,False
2016286530,listing,/4-104-prospect-road-summer-hill-nsw-2130-2016286530,760000,is-sold,Sold at auction 17 Jun 2020,20200617,4/104 Prospect Road,SUMMER HILL,NSW,2130,-33.8960953,151.1326,2,2,2,ApartmentUnitFlat,Apartment / Unit / Flat,False,0,m2,False
2016317776,listing,/19-short-street-summer-hill-nsw-2130-2016317776,1605000,is-sold,Sold at auction 11 Jul 2020,20200711,19 Short Street,SUMMER HILL,NSW,2130,-33.89254,151.134,3,3,3,House,House,False,246,m2,False
2016319672,listing,/9-3a-gower-street-summer-hill-nsw-2130-2016319672,730000,is-sold,Sold prior to auction 02 Jul 2020,20200702,9/3A Gower Street,SUMMER HILL,NSW,2130,-33.88876,151.139069,2,2,2,ApartmentUnitFlat,Apartment / Unit / Flat,False,0,m2,False
2016331828,listing,/16-28-gower-street-summer-hill-nsw-2130-2016331828,Price Withheld,is-sold,Sold prior to auction 16 Jul 2020,20200716,16/28 Gower Street,SUMMER HILL,NSW,2130,-33.8878555,151.136871,1,1,1,ApartmentUnitFlat,Apartment / Unit / Flat,False,0,m2,False
2016351601,listing,/10-139a-smith-street-summer-hill-nsw-2130-2016351601,Price Withheld,is-sold,Sold prior to auction 17 Jul 2020,20200717,10/139a Smith Street,SUMMER HILL,NSW,2130,-33.8908958,151.135361,2,2,2,ApartmentUnitFlat,Apartment / Unit / Flat,False,0,m2,False
2016495372,listing,/5-24-moonbie-street-summer-hill-nsw-2130-2016495372,Price Withheld,is-sold,Sold by private treaty 23 Jul 2020,20200723,5/24 Moonbie Street,SUMMER HILL,NSW,2130,-33.89295,151.137085,1,1,1,ApartmentUnitFlat,Apartment / Unit / Flat,False,0,m2,False
2016023341,listing,/11-25-sloane-street-summer-hill-nsw-2130-2016023341,695000,is-sold,Sold at auction 22 Feb 2020,20200222,11/25 Sloane Street,SUMMER HILL,NSW,2130,-33.88932,151.140488,1,1,1,ApartmentUnitFlat,Apartment / Unit / Flat,False,0,m2,False
2016033194,listing,/henson-street-summer-hill-nsw-2130-2016033194,Price Withheld,is-sold,Sold at auction 02 Mar 2020,20200302,Henson Street,SUMMER HILL,NSW,2130,-33.8949966,151.134689,2,2,2,ApartmentUnitFlat,Apartment / Unit / Flat,False,0,m2,False
2016049025,listing,/85-kensington-road-summer-hill-nsw-2130-2016049025,Price Withheld,is-sold,Sold by private treaty 21 Feb 2020,20200221,85 Kensington Road,SUMMER HILL,NSW,2130,-33.8872032,151.138962,3,3,3,House,House,False,455,m2,False
2016052296,listing,/6-7-gower-street-summer-hill-nsw-2130-2016052296,655000,is-sold,Sold by private treaty 18 Feb 2020,20200218,6/7 Gower Street,SUMMER HILL,NSW,2130,-33.8887,151.138519,1,1,1,ApartmentUnitFlat,Apartment / Unit / Flat,False,64,m2,False
2016057401,listing,/14-2-4-lackey-street-summer-hill-nsw-2130-2016057401,667000,is-sold,Sold prior to auction 21 Feb 2020,20200221,14/2-4 Lackey Street,SUMMER HILL,NSW,2130,-33.89069,151.138733,1,1,1,ApartmentUnitFlat,Apartment / Unit / Flat,False,0,m2,False
2016060011,listing,/18-100-carlton-crescent-summer-hill-nsw-2130-2016060011,Price Withheld,is-sold,Sold prior to auction 05 Mar 2020,20200305,18/100 Carlton Crescent,SUMMER HILL,NSW,2130,-33.89034,151.134232,3,3,3,ApartmentUnitFlat,Apartment / Unit / Flat,False,0,m2,False
2016064378,listing,/21-louisa-street-summer-hill-nsw-2130-2016064378,Price Withheld,is-sold,Sold at auction 07 Mar 2020,20200307,21 Louisa Street,SUMMER HILL,NSW,2130,-33.8929634,151.133041,3,3,3,House,House,False,0,m2,False
2016104953,listing,/3-48-grosvenor-crescent-summer-hill-nsw-2130-2016104953,876000,is-sold,Sold at auction 21 Mar 2020,20200321,3/48 Grosvenor Crescent,SUMMER HILL,NSW,2130,-33.8894157,151.136948,2,2,2,ApartmentUnitFlat,Apartment / Unit / Flat,False,0,m2,False
2016110076,listing,/24-28-gower-street-summer-hill-nsw-2130-2016110076,Price Withheld,is-sold,Sold by private treaty 07 Mar 2020,20200307,24/28 Gower Street,SUMMER HILL,NSW,2130,-33.8878555,151.136871,1,1,1,ApartmentUnitFlat,Apartment / Unit / Flat,False,0,m2,False
2016112050,listing,/45-dover-street-summer-hill-nsw-2130-2016112050,Price Withheld,is-sold,Sold prior to auction 20 Mar 2020,20200320,45 Dover Street,SUMMER HILL,NSW,2130,-33.8898964,151.1442,3,3,3,House,House,False,0,m2,False
2016117355,listing,/1-5a-gower-street-summer-hill-nsw-2130-2016117355,735000,is-sold,Sold prior to auction 25 Mar 2020,20200325,1/5A Gower Street,SUMMER HILL,NSW,2130,-33.8886642,151.138947,2,2,2,ApartmentUnitFlat,Apartment / Unit / Flat,False,0,m2,False
2016119878,listing,/27-herbert-street-summer-hill-nsw-2130-2016119878,1165000,is-sold,Sold by private treaty 06 Apr 2020,20200406,27 Herbert Street,SUMMER HILL,NSW,2130,-33.8961639,151.134125,2,2,2,SemiDetached,Semi-Detached,False,175,m2,False
2016124578,listing,/9-wellesley-street-summer-hill-nsw-2130-2016124578,Price Withheld,is-sold,Sold prior to auction 02 Apr 2020,20200402,9 Wellesley Street,SUMMER HILL,NSW,2130,-33.8940468,151.141159,2,2,2,House,House,False,202,m2,False
2016126546,listing,/40-carrington-street-summer-hill-nsw-2130-2016126546,2150000,is-sold,Sold prior to auction 19 Mar 2020,20200319,40 Carrington Street,SUMMER HILL,NSW,2130,-33.8950653,151.139847,4,4,4,House,House,False,354,m2,False
2016135066,listing,/1-36-junction-road-summer-hill-nsw-2130-2016135066,Price Withheld,is-sold,Sold at auction 23 Mar 2020,20200323,1/36 Junction Road,SUMMER HILL,NSW,2130,-33.8953171,151.134216,2,2,2,ApartmentUnitFlat,Apartment / Unit / Flat,False,0,m2,False
2016142065,listing,/5-19-junction-road-summer-hill-nsw-2130-2016142065,Price Withheld,is-sold,Sold by private treaty 09 Apr 2020,20200409,5/19 Junction Road,SUMMER HILL,NSW,2130,-33.89515,151.1373,3,3,3,Townhouse,Townhouse,False,0,m2,False
2016143090,listing,/14-16-grosvenor-crescent-summer-hill-nsw-2130-2016143090,Price Withheld,is-sold,Sold by private treaty 14 Apr 2020,20200414,14/16 Grosvenor Crescent,SUMMER HILL,NSW,2130,-33.89065,151.141159,2,2,2,ApartmentUnitFlat,Apartment / Unit / Flat,False,0,m2,False
2016143605,listing,/2-137-smith-street-summer-hill-nsw-2130-2016143605,Price Withheld,is-sold,Sold by private treaty 06 Apr 2020,20200406,2/137 Smith Street,SUMMER HILL,NSW,2130,-33.8911629,151.135651,2,2,2,ApartmentUnitFlat,Apartment / Unit / Flat,False,0,m2,False
2016146840,listing,/27-28-gower-street-summer-hill-nsw-2130-2016146840,1635000,is-sold,Sold at auction 12 Mar 2020,20200312,27/28 Gower Street,SUMMER HILL,NSW,2130,-33.8878555,151.136871,3,3,3,ApartmentUnitFlat,Apartment / Unit / Flat,False,209,m2,False
2016193872,listing,/1-22-gower-street-summer-hill-nsw-2130-2016193872,Price Withheld,is-sold,Sold at auction 09 Apr 2020,20200409,1/22 Gower Street,SUMMER HILL,NSW,2130,-33.8885,151.137436,2,2,2,ApartmentUnitFlat,Apartment / Unit / Flat,False,0,m2,False
2013440737,listing,/1404-durum-silos-corner-smith-and-edward-street-summer-hill-nsw-2130-2013440737,Price Withheld,is-sold,Sold by private treaty 22 Nov 2019,20191122,1404/Durum Silos Corner Smith and Edward Street,SUMMER HILL,NSW,2130,-33.8942566,151.142639,1,1,1,NewApartments,New Apartments / Off the Plan,False,0,m2,False
2015764294,listing,/14-moonbie-street-summer-hill-nsw-2130-2015764294,1500000,is-sold,Sold at auction 16 Nov 2019,20191116,14 Moonbie Street,SUMMER HILL,NSW,2130,-33.8925056,151.137146,3,3,3,House,House,False,240,m2,False
2015800126,listing,/32-junction-road-summer-hill-nsw-2130-2015800126,1826000,is-sold,Sold at auction 20 Nov 2019,20191120,32 Junction Road,SUMMER HILL,NSW,2130,-33.8953476,151.134811,3,3,3,House,House,False,316,m2,False
2015818291,listing,/27-moonbie-street-summer-hill-nsw-2130-2015818291,2110000,is-sold,Sold at auction 23 Nov 2019,20191123,27 Moonbie Street,SUMMER HILL,NSW,2130,-33.8937874,151.136536,4,4,4,House,House,False,385,m2,False
2015819596,listing,/45-morris-street-summer-hill-nsw-2130-2015819596,1695000,is-sold,Sold at auction 25 Nov 2019,20191125,45 Morris Street,SUMMER HILL,NSW,2130,-33.89366,151.137512,3,3,3,House,House,False,190,m2,False
2015820885,listing,/6-drynan-street-summer-hill-nsw-2130-2015820885,Price Withheld,is-sold,Sold prior to auction 19 Nov 2019,20191119,6 Drynan Street,SUMMER HILL,NSW,2130,-33.89333,151.13327,5,5,5,House,House,False,620,m2,False
2015878249,listing,/24-carlton-crescent-summer-hill-nsw-2130-2015878249,Price Withheld,is-sold,Sold at auction 21 Nov 2019,20191121,24 Carlton Crescent,SUMMER HILL,NSW,2130,-33.8915253,151.1413,4,4,4,House,House,False,329,m2,False
2015880938,listing,/5-93-carlton-crescent-summer-hill-nsw-2130-2015880938,Price Withheld,is-sold,Sold prior to auction 04 Dec 2019,20191204,5/93 Carlton Crescent,SUMMER HILL,NSW,2130,-33.89011,151.135162,2,2,2,House,House,False,0,m2,False
2015888864,listing,/40-smith-street-summer-hill-nsw-2130-2015888864,1855000,is-sold,Sold at auction 16 Dec 2019,20191216,40 Smith Street,SUMMER HILL,NSW,2130,-33.8928757,151.141449,3,3,3,House,House,False,244,m2,False
2015897877,listing,/47-wellesley-street-summer-hill-nsw-2130-2015897877,1810000,is-sold,Sold at auction 18 Dec 2019,20191218,47 Wellesley Street,SUMMER HILL,NSW,2130,-33.8940773,151.139282,3,3,3,House,House,False,147,m2,False
2015900952,listing,/25-grosvenor-crescent-summer-hill-nsw-2130-2015900952,1675000,is-sold,Sold at auction 14 Dec 2019,20191214,25 Grosvenor Crescent,SUMMER HILL,NSW,2130,-33.8903351,151.139954,2,2,2,House,House,False,481,m2,False
2015902907,listing,/4-24-gower-street-summer-hill-nsw-2130-2015902907,772000,is-sold,Sold by private treaty 23 Dec 2019,20191223,4/24 Gower Street,SUMMER HILL,NSW,2130,-33.88837,151.13739,2,2,2,ApartmentUnitFlat,Apartment / Unit / Flat,False,0,m2,False
2015911959,listing,/63-morris-street-summer-hill-nsw-2130-2015911959,Price Withheld,is-sold,Sold by private treaty 27 Nov 2019,20191127,63 Morris Street,SUMMER HILL,NSW,2130,-33.8943024,151.137482,3,3,3,House,House,False,0,m2,False
2015920186,listing,/2-9-allman-avenue-summer-hill-nsw-2130-2015920186,750000,is-sold,Sold at auction 14 Dec 2019,20191214,2/9 Allman Avenue,SUMMER HILL,NSW,2130,-33.89083,151.133881,1,1,1,ApartmentUnitFlat,Apartment / Unit / Flat,False,0,m2,False
2015951634,listing,/403-7-mungo-scott-place-summer-hill-nsw-2130-2015951634,1305000,is-sold,Sold by private treaty 17 Dec 2019,20191217,403/7 Mungo Scott Place,SUMMER HILL,NSW,2130,-33.89453,151.142365,3,3,3,NewApartments,New Apartments / Off the Plan,False,0,m2,False
2016001027,listing,/1-59-grosvenor-crescent-summer-hill-nsw-2130-2016001027,760000,is-sold,Sold prior to auction 30 Jan 2020,20200130,1/59 Grosvenor Crescent,SUMMER HILL,NSW,2130,-33.8893,151.134933,2,2,2,ApartmentUnitFlat,Apartment / Unit / Flat,False,0,m2,False
2016033003,listing,/207-2-malthouse-way-summer-hill-nsw-2130-2016033003,998000,is-sold,Sold by private treaty 14 Feb 2020,20200214,207/2 Malthouse Way,SUMMER HILL,NSW,2130,-33.8928833,151.1437,2,2,2,ApartmentUnitFlat,Apartment / Unit / Flat,False,118,m2,False
2016036953,listing,/15-morris-street-summer-hill-nsw-2130-2016036953,Price Withheld,is-sold,Sold prior to auction 17 Feb 2020,20200217,15 Morris Street,SUMMER HILL,NSW,2130,-33.89257,151.137543,4,4,4,House,House,False,0,m2,False
2016060292,listing,/41-bartlett-street-summer-hill-nsw-2130-2016060292,Price Withheld,is-sold,Sold prior to auction 12 Feb 2020,20200212,41 Bartlett Street,SUMMER HILL,NSW,2130,-33.89488,151.135437,2,2,2,House,House,False,253,m2,False
2016063852,listing,/4-8-kensington-road-summer-hill-nsw-2130-2016063852,Price Withheld,is-sold,Sold by private treaty 10 Feb 2020,20200210,4/8 Kensington Road,SUMMER HILL,NSW,2130,-33.89024,151.142532,1,1,1,ApartmentUnitFlat,Apartment / Unit / Flat,False,0,m2,False
2014118169,listing,/mungo-scott-place-summer-hill-nsw-2130-2014118169,840000,is-sold,Sold by private treaty 25 Oct 2019,20191025,Mungo Scott Place,SUMMER HILL,NSW,2130,-33.89423,151.142014,2,2,2,NewApartments,New Apartments / Off the Plan,False,0,m2,False
