id,listingType,url,price,tagClassName,tagText,date,street,suburb,state,postcode,lat,lng,beds,baths,parking,propertyType,propertyTypeFormatted,isRural,landSize,landUnit,isRetirement
2018003051,listing,/29-fuller-street-seven-hills-nsw-2147-2018003051,950000,is-sold,Sold by private treaty 28 Feb 2023,20230228,29 Fuller Street,SEVEN HILLS,NSW,2147,-33.78168,150.943848,4,1,3,House,House,False,557,m2,False
2018323218,listing,/40-patterson-road-lalor-park-nsw-2147-2018323218,850000,is-sold,Sold by private treaty 27 Feb 2023,20230227,40 Patterson Road,LALOR PARK,NSW,2147,-33.7591934,150.928436,3,1,1,House,House,False,613,m2,False
2017895354,listing,/303-140a-best-road-seven-hills-nsw-2147-2017895354,640000,is-sold,Sold by private treaty 16 Feb 2023,20230216,303/140A Best Road,SEVEN HILLS,NSW,2147,-33.77647,150.93631,3,2,2,ApartmentUnitFlat,Apartment / Unit / Flat,False,0,m2,False
2018186265,listing,/366-seven-hills-road-seven-hills-nsw-2147-2018186265,729000,is-sold,Sold by private treaty 09 Feb 2023,20230209,366 Seven Hills Road,SEVEN HILLS,NSW,2147,-33.76368,150.949066,2,1,2,House,House,False,574,m2,False
2018229432,listing,/46-mackenzie-boulevard-seven-hills-nsw-2147-2018229432,1006000,is-sold,Sold by private treaty 21 Feb 2023,20230221,46 Mackenzie Boulevard,SEVEN HILLS,NSW,2147,-33.78655,150.934219,5,2,3,House,House,False,556,m2,False
2018271003,listing,/18a-noble-close-kings-langley-nsw-2147-2018271003,1180000,is-sold,Sold by private treaty 17 Feb 2023,20230217,18A Noble Close,KINGS LANGLEY,NSW,2147,-33.7492828,150.928528,4,2,2,House,House,False,0,m2,False
2018271313,listing,/3-patten-place-kings-langley-nsw-2147-2018271313,1510000,is-sold,Sold by private treaty 20 Feb 2023,20230220,3 Patten Place,KINGS LANGLEY,NSW,2147,-33.7427,150.927216,4,3,1,House,House,False,730,m2,False
2018291584,listing,/505-7b-olive-street-seven-hills-nsw-2147-2018291584,600000,is-sold,Sold by private treaty 08 Feb 2023,20230208,505/7B Olive Street,SEVEN HILLS,NSW,2147,-33.77758,150.9343,2,2,1,ApartmentUnitFlat,Apartment / Unit / Flat,False,0,m2,False
2018297514,listing,/45-lawson-street-lalor-park-nsw-2147-2018297514,815000,is-sold,Sold by private treaty 13 Feb 2023,20230213,45 Lawson Street,LALOR PARK,NSW,2147,-33.7600365,150.920532,3,2,4,House,House,False,588,m2,False
2018299188,listing,/46-lowry-road-lalor-park-nsw-2147-2018299188,855000,is-sold,Sold at auction 18 Feb 2023,20230218,46 Lowry Road,LALOR PARK,NSW,2147,-33.7603874,150.9418,3,1,2,House,House,False,0,m2,False
2018299573,listing,/23-vesuvius-street-seven-hills-nsw-2147-2018299573,1075000,is-sold,Sold by private treaty 23 Feb 2023,20230223,23 Vesuvius Street,SEVEN HILLS,NSW,2147,-33.7886429,150.921982,4,2,1,House,House,False,556,m2,False
2018305416,listing,/1-crestbrook-street-seven-hills-nsw-2147-2018305416,870000,is-sold,Sold by private treaty 24 Feb 2023,20230224,1 Crestbrook Street,SEVEN HILLS,NSW,2147,-33.768013,150.92453,4,1,2,House,House,False,550,m2,False
2018305824,listing,/37-burke-road-lalor-park-nsw-2147-2018305824,800000,is-sold,Sold by private treaty 17 Feb 2023,20230217,37 Burke Road,LALOR PARK,NSW,2147,-33.7635422,150.933716,4,2,4,House,House,False,588,m2,False
2018308710,listing,/64-columbia-road-seven-hills-nsw-2147-2018308710,1233000,is-sold,Sold at auction 18 Feb 2023,20230218,64 Columbia Road,SEVEN HILLS,NSW,2147,-33.78996,150.923218,6,3,1,House,House,False,556,m2,False
2018309206,listing,/405-21a-alice-street-seven-hills-nsw-2147-2018309206,655000,is-sold,Sold by private treaty 13 Feb 2023,20230213,405/21A Alice Street,SEVEN HILLS,NSW,2147,-33.7772522,150.934418,3,2,2,ApartmentUnitFlat,Apartment / Unit / Flat,False,0,m2,False
2018313975,listing,/25-brett-street-kings-langley-nsw-2147-2018313975,1150000,is-sold,Sold by private treaty 17 Feb 2023,20230217,25 Brett Street,KINGS LANGLEY,NSW,2147,-33.75564,150.9387,4,2,2,House,House,False,0,m2,False
2018318391,listing,/12-isaac-smith-parade-kings-langley-nsw-2147-2018318391,1260000,is-sold,Sold by private treaty 24 Feb 2023,20230224,12 Isaac Smith Parade,KINGS LANGLEY,NSW,2147,-33.7474327,150.930389,3,2,2,House,House,False,697,m2,False
2018319282,listing,/10-simmonds-street-kings-langley-nsw-2147-2018319282,1450000,is-sold,Sold at auction 25 Feb 2023,20230225,10 Simmonds Street,KINGS LANGLEY,NSW,2147,-33.75463,150.9463,4,2,2,House,House,False,697,m2,False
2018320288,listing,/59-ellam-drive-seven-hills-nsw-2147-2018320288,1000000,is-sold,Sold by private treaty 17 Feb 2023,20230217,59 Ellam Drive,SEVEN HILLS,NSW,2147,-33.79013,150.926208,3,2,1,House,House,False,556,m2,False
2018345190,listing,/12-molyneaux-avenue-kings-langley-nsw-2147-2018345190,1210000,is-sold,Sold by private treaty 09 Feb 2023,20230209,12 Molyneaux Avenue,KINGS LANGLEY,NSW,2147,-33.75008,150.9393,3,1,2,House,House,False,696,m2,False
2018154001,listing,/20-christine-crescent-lalor-park-nsw-2147-2018154001,762000,is-sold,Sold by private treaty 02 Feb 2023,20230202,20 Christine Crescent,LALOR PARK,NSW,2147,-33.7626076,150.937073,3,1,1,House,House,False,556,m2,False
2018204157,listing,/122-122a-lucas-road-seven-hills-nsw-2147-2018204157,Price Withheld,is-sold,Sold by private treaty 03 Feb 2023,20230203,122 & 122A Lucas Road,SEVEN HILLS,NSW,2147,-33.7672729,150.924438,4,3,-,House,House,False,556,m2,False
2018218876,listing,/46-orana-avenue-seven-hills-nsw-2147-2018218876,Price Withheld,is-sold,Sold by private treaty 20 Jan 2023,20230120,46 Orana Avenue,SEVEN HILLS,NSW,2147,-33.77868,150.922668,3,2,4,House,House,False,581,m2,False
2018219083,listing,/47-isaac-smith-parade-kings-langley-nsw-2147-2018219083,1410000,is-sold,Sold prior to auction 27 Jan 2023,20230127,47 Isaac Smith Parade,KINGS LANGLEY,NSW,2147,-33.74712,150.926849,4,2,2,House,House,False,700,m2,False
2018223722,listing,/1-janice-street-seven-hills-nsw-2147-2018223722,800000,is-sold,Sold at auction 17 Jan 2023,20230117,1 Janice Street,SEVEN HILLS,NSW,2147,-33.77185,150.925171,4,1,1,House,House,False,556,m2,False
2018235035,listing,/13-phillip-street-seven-hills-nsw-2147-2018235035,1075000,is-sold,Sold by private treaty 02 Feb 2023,20230202,13 Phillip Street,SEVEN HILLS,NSW,2147,-33.7698936,150.929977,4,2,2,House,House,False,401,m2,False
2018254844,listing,/1-butler-place-lalor-park-nsw-2147-2018254844,812000,is-sold,Sold by private treaty 18 Jan 2023,20230118,1 Butler Place,LALOR PARK,NSW,2147,-33.7660065,150.934021,3,1,2,House,House,False,594,m2,False
2018267155,listing,/21-koorabel-road-lalor-park-nsw-2147-2018267155,750000,is-sold,Sold by private treaty 20 Jan 2023,20230120,21 Koorabel Road,LALOR PARK,NSW,2147,-33.76173,150.927536,2,1,2,House,House,False,581,m2,False
2018270969,listing,/21-kempe-parade-kings-langley-nsw-2147-2018270969,1500000,is-sold,Sold at auction 28 Jan 2023,20230128,21 Kempe Parade,KINGS LANGLEY,NSW,2147,-33.75923,150.949432,5,3,8,House,House,False,771,m2,False
2018270980,listing,/16-parkinson-street-kings-langley-nsw-2147-2018270980,1215000,is-sold,Sold prior to auction 20 Jan 2023,20230120,16 Parkinson Street,KINGS LANGLEY,NSW,2147,-33.7497,150.928864,4,2,1,House,House,False,679,m2,False
2018270994,listing,/5-harpur-place-lalor-park-nsw-2147-2018270994,760000,is-sold,Sold by private treaty 23 Jan 2023,20230123,5 Harpur Place,LALOR PARK,NSW,2147,-33.759346,150.929352,3,1,-,House,House,False,632,m2,False
2018270997,listing,/8-banksia-close-kings-langley-nsw-2147-2018270997,1542000,is-sold,Sold at auction 28 Jan 2023,20230128,8 Banksia Close,KINGS LANGLEY,NSW,2147,-33.7569351,150.941513,5,2,2,House,House,False,680,m2,False
2018270999,listing,/10-hodges-street-kings-langley-nsw-2147-2018270999,1325000,is-sold,Sold at auction 17 Jan 2023,20230117,10 Hodges Street,KINGS LANGLEY,NSW,2147,-33.74082,150.918808,3,1,2,House,House,False,707,m2,False
2018271037,listing,/5-gray-place-kings-langley-nsw-2147-2018271037,1350000,is-sold,Sold prior to auction 18 Jan 2023,20230118,5 Gray Place,KINGS LANGLEY,NSW,2147,-33.75625,150.944672,5,2,2,House,House,False,747,m2,False
2018271041,listing,/2-12-bogan-place-seven-hills-nsw-2147-2018271041,745000,is-sold,Sold by private treaty 30 Jan 2023,20230130,2/12 Bogan Place,SEVEN HILLS,NSW,2147,-33.79334,150.9328,3,2,2,Townhouse,Townhouse,False,251,m2,False
2018271317,listing,/6-horwood-place-kings-langley-nsw-2147-2018271317,1406500,is-sold,Sold at auction 06 Feb 2023,20230206,6 Horwood Place,KINGS LANGLEY,NSW,2147,-33.7405128,150.9218,4,2,2,House,House,False,675,m2,False
2018271324,listing,/87-shanke-crescent-kings-langley-nsw-2147-2018271324,1197000,is-sold,Sold at auction 30 Jan 2023,20230130,87 Shanke Crescent,KINGS LANGLEY,NSW,2147,-33.7417259,150.925751,3,1,1,House,House,False,766,m2,False
2018281743,listing,/51-himalaya-crescent-seven-hills-nsw-2147-2018281743,1015000,is-sold,Sold by private treaty 06 Feb 2023,20230206,51 Himalaya Crescent,SEVEN HILLS,NSW,2147,-33.79188,150.9223,4,1,3,House,House,False,676,m2,False
2018305672,listing,/50-rosina-crescent-kings-langley-nsw-2147-2018305672,1491000,is-sold,Sold by private treaty 25 Jan 2023,20230125,50 Rosina Crescent,KINGS LANGLEY,NSW,2147,-33.7440453,150.9327,4,2,2,House,House,False,708,m2,False
2018317742,listing,/12-briscoe-crescent-kings-langley-nsw-2147-2018317742,1200000,is-sold,Sold prior to auction 03 Feb 2023,20230203,12 Briscoe Crescent,KINGS LANGLEY,NSW,2147,-33.7466774,150.924225,3,1,1,House,House,False,696,m2,False
2017981560,listing,/3-marnie-grove-kings-langley-nsw-2147-2017981560,1065000,is-sold,Sold by private treaty 23 Dec 2022,20221223,3 Marnie Grove,KINGS LANGLEY,NSW,2147,-33.7523346,150.9428,3,1,2,House,House,False,697,m2,False
2018045914,listing,/6-madeira-avenue-kings-langley-nsw-2147-2018045914,1287000,is-sold,Sold by private treaty 09 Dec 2022,20221209,6 Madeira Avenue,KINGS LANGLEY,NSW,2147,-33.75097,150.927536,3,2,1,House,House,False,697,m2,False
2018151420,listing,/14-eyre-street-lalor-park-nsw-2147-2018151420,Price Withheld,is-sold,Sold by private treaty 11 Jan 2023,20230111,14 Eyre Street,LALOR PARK,NSW,2147,-33.76575,150.920074,3,1,2,House,House,False,582,m2,False
2018157226,listing,/83-joseph-banks-drive-kings-langley-nsw-2147-2018157226,1289000,is-sold,Sold by private treaty 15 Dec 2022,20221215,83 Joseph Banks Drive,KINGS LANGLEY,NSW,2147,-33.753994,150.948486,3,3,2,House,House,False,697,m2,False
2018172804,listing,/83-and-83a-whitby-road-kings-langley-nsw-2147-2018172804,1218000,is-sold,Sold by private treaty 21 Dec 2022,20221221,83 and 83A Whitby Road,KINGS LANGLEY,NSW,2147,-33.74978,150.9358,6,3,4,House,House,False,697,m2,False
2018192622,listing,/2f-vermont-court-seven-hills-nsw-2147-2018192622,822500,is-sold,Sold by private treaty 11 Jan 2023,20230111,2F Vermont Court,SEVEN HILLS,NSW,2147,-33.7828369,150.923233,4,2,2,Townhouse,Townhouse,False,0,m2,False
2018197279,listing,/122-frederick-street-lalor-park-nsw-2147-2018197279,910000,is-sold,Sold by private treaty 20 Dec 2022,20221220,122 Frederick Street,LALOR PARK,NSW,2147,-33.754158,150.927353,4,1,4,House,House,False,556,m2,False
2018200750,listing,/51-molyneaux-avenue-kings-langley-nsw-2147-2018200750,1230000,is-sold,Sold by private treaty 08 Dec 2022,20221208,51 Molyneaux Avenue,KINGS LANGLEY,NSW,2147,-33.75278,150.941574,3,1,4,House,House,False,690,m2,False
2018205188,listing,/130-james-cook-drive-kings-langley-nsw-2147-2018205188,1500000,is-sold,Sold at auction 12 Dec 2022,20221212,130 James Cook Drive,KINGS LANGLEY,NSW,2147,-33.7421951,150.923843,4,3,2,House,House,False,370,m2,False
2018209064,listing,/43-jean-street-seven-hills-nsw-2147-2018209064,1250000,is-sold,Sold by private treaty 16 Dec 2022,20221216,43 Jean Street,SEVEN HILLS,NSW,2147,-33.7719765,150.9276,4,2,2,House,House,False,714,m2,False
2018209341,listing,/16-cartwright-crescent-lalor-park-nsw-2147-2018209341,700000,is-sold,Sold by private treaty 22 Dec 2022,20221222,16 Cartwright Crescent,LALOR PARK,NSW,2147,-33.7604866,150.936127,3,1,1,House,House,False,556,m2,False
2018221002,listing,/108-solander-road-seven-hills-nsw-2147-2018221002,729000,is-sold,Sold at auction 17 Dec 2022,20221217,108 Solander Road,SEVEN HILLS,NSW,2147,-33.761795,150.9504,2,1,-,House,House,False,556,m2,False
2018221229,listing,/12-carter-street-seven-hills-nsw-2147-2018221229,1000000,is-sold,Sold at auction 17 Dec 2022,20221217,12 Carter Street,SEVEN HILLS,NSW,2147,-33.78067,150.945663,3,1,2,House,House,False,806,m2,False
2018229968,listing,/30-janice-street-seven-hills-nsw-2147-2018229968,830000,is-sold,Sold by private treaty 16 Dec 2022,20221216,30 Janice Street,SEVEN HILLS,NSW,2147,-33.77218,150.9238,3,1,1,House,House,False,670,m2,False
2018231617,listing,/8-dumble-street-seven-hills-nsw-2147-2018231617,1320000,is-sold,Sold by private treaty 09 Dec 2022,20221209,8 Dumble Street,SEVEN HILLS,NSW,2147,-33.777462,150.927261,4,2,2,House,House,False,562,m2,False
2018241846,listing,/17-gilmore-road-lalor-park-nsw-2147-2018241846,780000,is-sold,Sold by private treaty 17 Dec 2022,20221217,17 Gilmore Road,LALOR PARK,NSW,2147,-33.75709,150.9302,3,2,1,House,House,False,663,m2,False
2018244956,listing,/5-36-ellam-drive-seven-hills-nsw-2147-2018244956,725000,is-sold,Sold by private treaty 17 Dec 2022,20221217,5/36 Ellam Drive,SEVEN HILLS,NSW,2147,-33.7888832,150.9254,3,2,1,Townhouse,Townhouse,False,0,m2,False
2018253992,listing,/4-holmes-street-lalor-park-nsw-2147-2018253992,840000,is-sold,Sold by private treaty 13 Jan 2023,20230113,4 Holmes Street,LALOR PARK,NSW,2147,-33.76504,150.93425,4,1,2,House,House,False,562,m2,False
2018278947,listing,/1-ibis-road-lalor-park-nsw-2147-2018278947,685000,is-sold,Sold by private treaty 11 Jan 2023,20230111,1 Ibis Road,LALOR PARK,NSW,2147,-33.7582664,150.940842,3,1,2,House,House,False,689,m2,False
2018298159,listing,/40-collins-street-seven-hills-nsw-2147-2018298159,920000,is-sold,Sold by private treaty 17 Jan 2023,20230117,40 Collins Street,SEVEN HILLS,NSW,2147,-33.7710953,150.931717,3,2,1,House,House,False,708,m2,False
2018110322,listing,/19-carter-street-seven-hills-nsw-2147-2018110322,Price Withheld,is-sold,Sold by private treaty 07 Dec 2022,20221207,19 Carter Street,SEVEN HILLS,NSW,2147,-33.78074,150.9464,3,1,1,House,House,False,1916,m2,False
2018138266,listing,/8-cook-place-lalor-park-nsw-2147-2018138266,805000,is-sold,Sold by private treaty 28 Nov 2022,20221128,8 Cook Place,LALOR PARK,NSW,2147,-33.7644463,150.92308,3,1,3,House,House,False,594,m2,False
2018138856,listing,/28-wheeler-street-lalor-park-nsw-2147-2018138856,902000,is-sold,Sold by private treaty 30 Nov 2022,20221130,28 Wheeler Street,LALOR PARK,NSW,2147,-33.76337,150.924484,5,2,2,House,House,False,600,m2,False
2018157164,listing,/8-judith-avenue-seven-hills-nsw-2147-2018157164,1070000,is-sold,Sold by private treaty 25 Nov 2022,20221125,8 Judith Avenue,SEVEN HILLS,NSW,2147,-33.7806969,150.9257,4,3,1,House,House,False,575,m2,False
2018161230,listing,/33-lawson-street-lalor-park-nsw-2147-2018161230,680000,is-sold,Sold at auction 26 Nov 2022,20221126,33 Lawson Street,LALOR PARK,NSW,2147,-33.76062,150.922485,3,1,-,House,House,False,569,m2,False
2018161231,listing,/38-kennedy-parade-lalor-park-nsw-2147-2018161231,680000,is-sold,Sold at auction 26 Nov 2022,20221126,38 Kennedy Parade,LALOR PARK,NSW,2147,-33.7645721,150.938354,3,1,-,House,House,False,556,m2,False
2018161860,listing,/47-collins-street-seven-hills-nsw-2147-2018161860,846000,is-sold,Sold at auction 26 Nov 2022,20221126,47 Collins Street,SEVEN HILLS,NSW,2147,-33.7705765,150.9314,3,1,-,House,House,False,689,m2,False
2018165067,listing,/139-joseph-banks-drive-kings-langley-nsw-2147-2018165067,1278000,is-sold,Sold by private treaty 24 Nov 2022,20221124,139 Joseph Banks Drive,KINGS LANGLEY,NSW,2147,-33.7545128,150.941483,3,2,2,House,House,False,638,m2,False
2018165275,listing,/14-mccoy-street-seven-hills-nsw-2147-2018165275,1210000,is-sold,Sold by private treaty 08 Dec 2022,20221208,14 McCoy Street,SEVEN HILLS,NSW,2147,-33.7814941,150.945755,5,2,2,House,House,False,557,m2,False
2018168746,listing,/39-amazon-road-seven-hills-nsw-2147-2018168746,1185000,is-sold,Sold by private treaty 25 Nov 2022,20221125,39 Amazon Road,SEVEN HILLS,NSW,2147,-33.7926,150.931946,5,2,4,House,House,False,556,m2,False
2018185911,listing,/41-rosina-crescent-kings-langley-nsw-2147-2018185911,1708850,is-sold,Sold by private treaty 30 Nov 2022,20221130,41 Rosina Crescent,KINGS LANGLEY,NSW,2147,-33.74556,150.933212,5,3,2,House,House,False,703,m2,False
2018187160,listing,/1-cowan-close-seven-hills-nsw-2147-2018187160,965000,is-sold,Sold at auction 26 Nov 2022,20221126,1 Cowan Close,SEVEN HILLS,NSW,2147,-33.7626266,150.951614,4,2,2,House,House,False,648,m2,False
2018188255,listing,/6-mercury-place-kings-langley-nsw-2147-2018188255,1320000,is-sold,Sold at auction 05 Dec 2022,20221205,6 Mercury Place,KINGS LANGLEY,NSW,2147,-33.75325,150.950577,4,4,3,House,House,False,651,m2,False
2018191793,listing,/55-vardys-road-lalor-park-nsw-2147-2018191793,675000,is-sold,Sold at auction 05 Dec 2022,20221205,55 Vardys Road,LALOR PARK,NSW,2147,-33.7560272,150.937576,3,1,1,House,House,False,558,m2,False
2018192617,listing,/78-seven-hills-road-south-seven-hills-nsw-2147-2018192617,850500,is-sold,Sold at auction 03 Dec 2022,20221203,78 Seven Hills Road South,SEVEN HILLS,NSW,2147,-33.7801132,150.929031,3,1,3,House,House,False,569,m2,False
2018193763,listing,/22-topaz-crescent-seven-hills-nsw-2147-2018193763,940000,is-sold,Sold at auction 03 Dec 2022,20221203,22 Topaz Crescent,SEVEN HILLS,NSW,2147,-33.78789,150.921082,3,1,1,House,House,False,670,m2,False
2018195153,listing,/20-landy-road-lalor-park-nsw-2147-2018195153,960000,is-sold,Sold by private treaty 28 Nov 2022,20221128,20 Landy Road,LALOR PARK,NSW,2147,-33.7576637,150.926529,3,3,2,House,House,False,619,m2,False
2018196139,listing,/88-columbia-road-seven-hills-nsw-2147-2018196139,1081000,is-sold,Sold by private treaty 02 Dec 2022,20221202,88 Columbia Road,SEVEN HILLS,NSW,2147,-33.7882538,150.923264,4,1,2,House,House,False,556,m2,False
2018201146,listing,/9-lowana-crescent-seven-hills-nsw-2147-2018201146,1005000,is-sold,Sold by private treaty 25 Nov 2022,20221125,9 Lowana Crescent,SEVEN HILLS,NSW,2147,-33.7626839,150.951523,3,1,1,House,House,False,695,m2,False
2018212245,listing,/45-ravel-street-seven-hills-nsw-2147-2018212245,1023000,is-sold,Sold by private treaty 01 Dec 2022,20221201,45 Ravel Street,SEVEN HILLS,NSW,2147,-33.7640228,150.957214,4,2,2,House,House,False,556,m2,False
2017773977,listing,/9-9a-shepherd-street-lalor-park-nsw-2147-2017773977,865000,is-sold,Sold by private treaty 31 Oct 2022,20221031,9 & 9A Shepherd Street,LALOR PARK,NSW,2147,-33.75664,150.927979,4,2,2,House,House,False,575,m2,False
2017830444,listing,/g01-21a-alice-street-seven-hills-nsw-2147-2017830444,Price Withheld,is-sold,Sold by private treaty 31 Oct 2022,20221031,G01/21A Alice Street,SEVEN HILLS,NSW,2147,-33.7772446,150.9344,2,2,1,ApartmentUnitFlat,Apartment / Unit / Flat,False,107,m2,False
2017915264,listing,/53-melba-road-lalor-park-nsw-2147-2017915264,760000,is-sold,Sold by private treaty 27 Oct 2022,20221027,53 Melba Road,LALOR PARK,NSW,2147,-33.75655,150.925308,2,1,1,House,House,False,588,m2,False
2018036423,listing,/46-shannon-street-lalor-park-nsw-2147-2018036423,785000,is-sold,Sold by private treaty 15 Nov 2022,20221115,46 Shannon Street,LALOR PARK,NSW,2147,-33.7566643,150.936478,3,1,1,House,House,False,569,m2,False
2018049162,listing,/2-lorraine-street-seven-hills-nsw-2147-2018049162,1050000,is-sold,Sold by private treaty 29 Oct 2022,20221029,2 Lorraine Street,SEVEN HILLS,NSW,2147,-33.7689934,150.93985,3,2,3,House,House,False,695,m2,False
2018050822,listing,/40-gladys-crescent-seven-hills-nsw-2147-2018050822,820000,is-sold,Sold by private treaty 02 Nov 2022,20221102,40 Gladys Crescent,SEVEN HILLS,NSW,2147,-33.770752,150.9254,3,1,-,House,House,False,613,m2,False
2018054151,listing,/42-barbara-boulevard-seven-hills-nsw-2147-2018054151,765000,is-sold,Sold by private treaty 22 Nov 2022,20221122,42 Barbara Boulevard,SEVEN HILLS,NSW,2147,-33.7716751,150.925262,3,1,1,House,House,False,550,m2,False
2018066309,listing,/164-lucretia-road-seven-hills-nsw-2147-2018066309,870000,is-sold,Sold by private treaty 18 Nov 2022,20221118,164 Lucretia Road,SEVEN HILLS,NSW,2147,-33.784256,150.926346,3,1,2,House,House,False,556,m2,False
2018084881,listing,/14-4-nolan-place-seven-hills-nsw-2147-2018084881,750000,is-sold,Sold by private treaty 01 Nov 2022,20221101,14/4 Nolan Place,SEVEN HILLS,NSW,2147,-33.7668343,150.941772,3,1,2,Townhouse,Townhouse,False,145,m2,False
2018123825,listing,/6-elgar-place-seven-hills-nsw-2147-2018123825,930000,is-sold,Sold by private treaty 02 Nov 2022,20221102,6 Elgar Place,SEVEN HILLS,NSW,2147,-33.76037,150.956039,3,1,1,House,House,False,566,m2,False
2018127531,listing,/32-sporing-avenue-kings-langley-nsw-2147-2018127531,1235000,is-sold,Sold prior to auction 31 Oct 2022,20221031,32 Sporing Avenue,KINGS LANGLEY,NSW,2147,-33.7465439,150.940231,3,1,3,House,House,False,697,m2,False
2018128405,listing,/16-bernice-street-seven-hills-nsw-2147-2018128405,790000,is-sold,Sold by private treaty 04 Nov 2022,20221104,16 Bernice Street,SEVEN HILLS,NSW,2147,-33.760994,150.948212,2,1,1,House,House,False,550,m2,False
2018129899,listing,/17-margaret-street-seven-hills-nsw-2147-2018129899,Price Withheld,is-sold,Sold by private treaty 02 Nov 2022,20221102,17 Margaret Street,SEVEN HILLS,NSW,2147,-33.7800331,150.932755,3,1,2,House,House,False,556,m2,False
2018148350,listing,/75-mackenzie-boulevard-seven-hills-nsw-2147-2018148350,875555,is-sold,Sold at auction 13 Nov 2022,20221113,75 Mackenzie Boulevard,SEVEN HILLS,NSW,2147,-33.78885,150.932251,3,1,1,House,House,False,566,m2,False
2018149598,listing,/13-hope-street-seven-hills-nsw-2147-2018149598,1166000,is-sold,Sold at auction 12 Nov 2022,20221112,13 Hope Street,SEVEN HILLS,NSW,2147,-33.76914,150.934662,4,3,3,House,House,False,669,m2,False
2018164653,listing,/16-kulgoa-street-lalor-park-nsw-2147-2018164653,1025000,is-sold,Sold by private treaty 16 Nov 2022,20221116,16 Kulgoa Street,LALOR PARK,NSW,2147,-33.7563934,150.937759,4,2,2,House,House,False,663,m2,False
2018170013,listing,/19-landy-road-lalor-park-nsw-2147-2018170013,833000,is-sold,Sold by private treaty 18 Nov 2022,20221118,19 Landy Road,LALOR PARK,NSW,2147,-33.7573776,150.927444,3,1,2,House,House,False,543,m2,False
2018171571,listing,/26-rearden-avenue-kings-langley-nsw-2147-2018171571,1130000,is-sold,Sold prior to auction 18 Nov 2022,20221118,26 Rearden Avenue,KINGS LANGLEY,NSW,2147,-33.75747,150.944443,3,1,2,House,House,False,701,m2,False
2018174369,listing,/114-solander-road-seven-hills-nsw-2147-2018174369,810000,is-sold,Sold by private treaty 23 Nov 2022,20221123,114 Solander Road,SEVEN HILLS,NSW,2147,-33.7621841,150.950668,3,1,2,House,House,False,689,m2,False
2018199311,listing,/92-92a-amazon-road-seven-hills-nsw-2147-2018199311,1232000,is-sold,Sold by private treaty 14 Nov 2022,20221114,92 & 92A Amazon Road,SEVEN HILLS,NSW,2147,-33.79143,150.92662,6,2,2,House,House,False,0,m2,False
2017839682,listing,/21-jopling-crescent-lalor-park-nsw-2147-2017839682,803000,is-sold,Sold by private treaty 24 Oct 2022,20221024,21 Jopling Crescent,LALOR PARK,NSW,2147,-33.7599335,150.9223,4,2,2,House,House,False,588,m2,False
2017880609,listing,/384-seven-hills-road-seven-hills-nsw-2147-2017880609,805000,is-sold,Sold by private treaty 25 Oct 2022,20221025,384 Seven Hills Road,SEVEN HILLS,NSW,2147,-33.7646866,150.94812,3,1,2,House,House,False,556,m2,False
2017891057,listing,/28-whitby-road-kings-langley-nsw-2147-2017891057,1200000,is-sold,Sold by private treaty 20 Oct 2022,20221020,28 Whitby Road,KINGS LANGLEY,NSW,2147,-33.7505,150.9439,4,3,2,House,House,False,697,m2,False
2017995040,listing,/178-prospect-highway-seven-hills-nsw-2147-2017995040,1010000,is-sold,Sold by private treaty 22 Oct 2022,20221022,178 Prospect Highway,SEVEN HILLS,NSW,2147,-33.7704735,150.939392,4,2,3,House,House,False,493,m2,False
2018034690,listing,/4-fisher-road-lalor-park-nsw-2147-2018034690,711000,is-sold,Sold by private treaty 17 Oct 2022,20221017,4 Fisher Road,LALOR PARK,NSW,2147,-33.7574043,150.934082,3,1,1,House,House,False,556,m2,False
2018040455,listing,/33-33a-margaret-street-seven-hills-nsw-2147-2018040455,1030000,is-sold,Sold by private treaty 19 Oct 2022,20221019,33 & 33A Margaret Street,SEVEN HILLS,NSW,2147,-33.77943,150.931671,5,2,2,House,House,False,581,m2,False
2018056580,listing,/42-nowland-street-seven-hills-nsw-2147-2018056580,960000,is-sold,Sold by private treaty 24 Oct 2022,20221024,42 Nowland Street,SEVEN HILLS,NSW,2147,-33.7667,150.946945,3,2,3,House,House,False,556,m2,False
2018056775,listing,/45-marton-crescent-kings-langley-nsw-2147-2018056775,980000,is-sold,Sold by private treaty 19 Oct 2022,20221019,45 Marton Crescent,KINGS LANGLEY,NSW,2147,-33.75352,150.934662,3,1,2,House,House,False,703,m2,False
2018064182,listing,/12-everest-street-seven-hills-nsw-2147-2018064182,900000,is-sold,Sold by private treaty 17 Oct 2022,20221017,12 Everest Street,SEVEN HILLS,NSW,2147,-33.7895279,150.919983,3,1,2,House,House,False,556,m2,False
2018064785,listing,/3-13-19-hughes-street-kings-langley-nsw-2147-2018064785,767000,is-sold,Sold by private treaty 26 Oct 2022,20221026,3/13-19 Hughes Street,KINGS LANGLEY,NSW,2147,-33.7585754,150.948441,3,1,2,Townhouse,Townhouse,False,202,m2,False
2018066521,listing,/37-abbott-road-seven-hills-nsw-2147-2018066521,785000,is-sold,Sold at auction 15 Oct 2022,20221015,37 Abbott Road,SEVEN HILLS,NSW,2147,-33.7671051,150.948212,3,1,1,House,House,False,575,m2,False
2018073652,listing,/14-everest-street-seven-hills-nsw-2147-2018073652,930000,is-sold,Sold by private treaty 18 Oct 2022,20221018,14 Everest Street,SEVEN HILLS,NSW,2147,-33.7896461,150.919983,3,1,1,House,House,False,550,m2,False
2018074319,listing,/176-james-cook-drive-kings-langley-nsw-2147-2018074319,1065000,is-sold,Sold by private treaty 19 Oct 2022,20221019,176 James Cook Drive,KINGS LANGLEY,NSW,2147,-33.74131,150.919235,3,1,2,House,House,False,695,m2,False
2018079922,listing,/36-athabaska-avenue-seven-hills-nsw-2147-2018079922,970000,is-sold,Sold by private treaty 24 Oct 2022,20221024,36 Athabaska Avenue,SEVEN HILLS,NSW,2147,-33.7882957,150.9376,3,1,1,House,House,False,556,m2,False
2018083850,listing,/2-66-ellam-drive-seven-hills-nsw-2147-2018083850,760000,is-sold,Sold by private treaty 25 Oct 2022,20221025,2/66 Ellam Drive,SEVEN HILLS,NSW,2147,-33.79118,150.925491,3,2,2,Villa,Villa,False,208,m2,False
2018099976,listing,/2-moomin-street-lalor-park-nsw-2147-2018099976,865000,is-sold,Sold at auction 22 Oct 2022,20221022,2 Moomin Street,LALOR PARK,NSW,2147,-33.7577477,150.937088,4,1,1,House,House,False,651,m2,False
2018101844,listing,/34-gilbert-crescent-kings-langley-nsw-2147-2018101844,1575000,is-sold,Sold by private treaty 19 Oct 2022,20221019,34 Gilbert Crescent,KINGS LANGLEY,NSW,2147,-33.74306,150.917969,4,2,4,House,House,False,852,m2,False
2018113504,listing,/1-16-18-leabons-lane-seven-hills-nsw-2147-2018113504,965000,is-sold,Sold by private treaty 21 Oct 2022,20221021,1/16-18 Leabons Lane,SEVEN HILLS,NSW,2147,-33.7825928,150.923309,5,3,2,Townhouse,Townhouse,False,0,m2,False
2018115904,listing,/501-124-best-road-seven-hills-nsw-2147-2018115904,595000,is-sold,Sold by private treaty 18 Oct 2022,20221018,501/124 Best Road,SEVEN HILLS,NSW,2147,-33.7771149,150.936844,2,2,1,ApartmentUnitFlat,Apartment / Unit / Flat,False,0,m2,False
2018139925,listing,/6-nadie-place-kings-langley-nsw-2147-2018139925,1060000,is-sold,Sold by private treaty 25 Oct 2022,20221025,6 Nadie Place,KINGS LANGLEY,NSW,2147,-33.75039,150.942139,4,2,2,House,House,False,692,m2,False
2017710612,listing,/20-kennedy-parade-lalor-park-nsw-2147-2017710612,780000,is-sold,Sold by private treaty 29 Sep 2022,20220929,20 Kennedy Parade,LALOR PARK,NSW,2147,-33.7633476,150.9384,3,2,1,House,House,False,556,m2,False
2017785818,listing,/502-124-132-best-road-seven-hills-nsw-2147-2017785818,650000,is-sold,Sold by private treaty 07 Oct 2022,20221007,502/124-132 Best Road,SEVEN HILLS,NSW,2147,-33.7771149,150.936844,3,2,2,ApartmentUnitFlat,Apartment / Unit / Flat,False,0,m2,False
2017810750,listing,/25-christine-crescent-lalor-park-nsw-2147-2017810750,810000,is-sold,Sold by private treaty 07 Oct 2022,20221007,25 Christine Crescent,LALOR PARK,NSW,2147,-33.7628174,150.937576,5,2,1,House,House,False,638,m2,False
2017871567,listing,/g07-7b-olive-street-seven-hills-nsw-2147-2017871567,380000,is-sold,Sold by private treaty 10 Oct 2022,20221010,G07/7B Olive Street,SEVEN HILLS,NSW,2147,-33.77758,150.9343,1,1,2,ApartmentUnitFlat,Apartment / Unit / Flat,False,0,m2,False
2017872817,listing,/56-and-56a-dawn-drive-seven-hills-nsw-2147-2017872817,Price Withheld,is-sold,Sold by private treaty 29 Sep 2022,20220929,56 and 56a Dawn Drive,SEVEN HILLS,NSW,2147,-33.771122,150.91922,4,2,-,House,House,False,569,m2,False
2017990094,listing,/3-may-walk-lalor-park-nsw-2147-2017990094,640000,is-sold,Sold by private treaty 30 Sep 2022,20220930,3 May Walk,LALOR PARK,NSW,2147,-33.7606544,150.935532,2,1,-,House,House,False,626,m2,False
2017991234,listing,/4-mississippi-road-seven-hills-nsw-2147-2017991234,830000,is-sold,Sold by private treaty 27 Sep 2022,20220927,4 Mississippi Road,SEVEN HILLS,NSW,2147,-33.7867279,150.927887,3,1,3,House,House,False,569,m2,False
2018019195,listing,/29-charlton-road-lalor-park-nsw-2147-2018019195,772500,is-sold,Sold by private treaty 13 Oct 2022,20221013,29 Charlton Road,LALOR PARK,NSW,2147,-33.7562675,150.92981,3,1,-,House,House,False,828,m2,False
2018022942,listing,/20-orinoco-close-seven-hills-nsw-2147-2018022942,910000,is-sold,Sold by private treaty 30 Sep 2022,20220930,20 Orinoco Close,SEVEN HILLS,NSW,2147,-33.7897339,150.928711,3,2,2,House,House,False,575,m2,False
2018025667,listing,/2-conway-place-kings-langley-nsw-2147-2018025667,1160000,is-sold,Sold by private treaty 10 Oct 2022,20221010,2 Conway Place,KINGS LANGLEY,NSW,2147,-33.74992,150.9323,3,1,2,House,House,False,697,m2,False
2018039902,listing,/25-janice-street-seven-hills-nsw-2147-2018039902,939000,is-sold,Sold by private treaty 14 Oct 2022,20221014,25 Janice Street,SEVEN HILLS,NSW,2147,-33.77166,150.923477,4,2,3,House,House,False,562,m2,False
2018060679,listing,/48-molyneaux-avenue-kings-langley-nsw-2147-2018060679,1280000,is-sold,Sold at auction 29 Sep 2022,20220929,48 Molyneaux Avenue,KINGS LANGLEY,NSW,2147,-33.752037,150.941483,3,2,4,House,House,False,793,m2,False
2018064049,listing,/23-margaret-street-seven-hills-nsw-2147-2018064049,830000,is-sold,Sold at auction 08 Oct 2022,20221008,23 Margaret Street,SEVEN HILLS,NSW,2147,-33.77974,150.932388,3,1,2,House,House,False,556,m2,False
2018070688,listing,/13-heffron-road-lalor-park-nsw-2147-2018070688,900000,is-sold,Sold by private treaty 04 Oct 2022,20221004,13 Heffron Road,LALOR PARK,NSW,2147,-33.75543,150.932755,3,2,1,House,House,False,556,m2,False
2018070936,listing,/16-sewell-avenue-seven-hills-nsw-2147-2018070936,920000,is-sold,Sold by private treaty 29 Sep 2022,20220929,16 Sewell Avenue,SEVEN HILLS,NSW,2147,-33.7654,150.944977,3,1,2,House,House,False,556,m2,False
2018073091,listing,/8-anne-avenue-seven-hills-nsw-2147-2018073091,840000,is-sold,Sold by private treaty 14 Oct 2022,20221014,8 Anne Avenue,SEVEN HILLS,NSW,2147,-33.7726135,150.922531,3,1,1,House,House,False,860,m2,False
2018083309,listing,/38-yvonne-street-seven-hills-nsw-2147-2018083309,1285000,is-sold,Sold by private treaty 05 Oct 2022,20221005,38 Yvonne Street,SEVEN HILLS,NSW,2147,-33.7602425,150.945755,4,2,3,House,House,False,576,m2,False
2018084079,listing,/14-jopling-crescent-lalor-park-nsw-2147-2018084079,740000,is-sold,Sold by private treaty 14 Oct 2022,20221014,14 Jopling Crescent,LALOR PARK,NSW,2147,-33.7597237,150.9218,4,1,1,House,House,False,550,m2,False
2018092854,listing,/2-2a-sturt-street-lalor-park-nsw-2147-2018092854,945000,is-sold,Sold by private treaty 14 Oct 2022,20221014,2 & 2a Sturt Street,LALOR PARK,NSW,2147,-33.76386,150.924988,6,2,2,House,House,False,581,m2,False
2018129668,listing,/406-8-george-street-seven-hills-nsw-2147-2018129668,600000,is-sold,Sold by private treaty 13 Oct 2022,20221013,406/8 George Street,SEVEN HILLS,NSW,2147,-33.7773438,150.935349,2,2,1,ApartmentUnitFlat,Apartment / Unit / Flat,False,0,m2,False
2017251002,listing,/13-15-second-avenue-seven-hills-nsw-2147-2017251002,Price Withheld,is-sold,Sold by private treaty 12 Sep 2022,20220912,13-15 Second Avenue,SEVEN HILLS,NSW,2147,-33.7762337,150.938217,6,4,2,House,House,False,0,m2,False
2017809202,listing,/1-61-wall-park-avenue-seven-hills-nsw-2147-2017809202,917000,is-sold,Sold by private treaty 21 Sep 2022,20220921,1/61 Wall Park Avenue,SEVEN HILLS,NSW,2147,-33.7764359,150.926849,5,3,2,Townhouse,Townhouse,False,0,m2,False
2017917683,listing,/26-mamie-avenue-seven-hills-nsw-2147-2017917683,950000,is-sold,Sold by private treaty 23 Sep 2022,20220923,26 Mamie Avenue,SEVEN HILLS,NSW,2147,-33.76986,150.920212,4,1,3,House,House,False,632,m2,False
2017947817,listing,/65-lavinia-street-seven-hills-nsw-2147-2017947817,1347000,is-sold,Sold by private treaty 12 Sep 2022,20220912,65 Lavinia Street,SEVEN HILLS,NSW,2147,-33.7905922,150.9367,5,2,3,House,House,False,827,m2,False
2017962117,listing,/9-9a-harpur-place-lalor-park-nsw-2147-2017962117,825000,is-sold,Sold by private treaty 20 Sep 2022,20220920,9 & 9a Harpur Place,LALOR PARK,NSW,2147,-33.7594643,150.928711,4,2,1,House,House,False,562,m2,False
2017969409,listing,/2-johnson-avenue-seven-hills-nsw-2147-2017969409,870000,is-sold,Sold by private treaty 16 Sep 2022,20220916,2 Johnson Avenue,SEVEN HILLS,NSW,2147,-33.75889,150.942352,3,2,3,House,House,False,600,m2,False
2017982570,listing,/5-300-seven-hills-road-kings-langley-nsw-2147-2017982570,790000,is-sold,Sold by private treaty 07 Sep 2022,20220907,5/300 Seven Hills Road,KINGS LANGLEY,NSW,2147,-33.7588043,150.95462,3,2,2,Townhouse,Townhouse,False,0,m2,False
2018003686,listing,/9-11-third-avenue-seven-hills-nsw-2147-2018003686,Price Withheld,is-sold,Sold by private treaty 12 Sep 2022,20220912,9-11. Third Avenue,SEVEN HILLS,NSW,2147,-33.77703,150.938477,2,2,2,House,House,False,0,m2,False
2018007340,listing,/16-dalray-street-lalor-park-nsw-2147-2018007340,900000,is-sold,Sold by private treaty 07 Sep 2022,20220907,16 Dalray Street,LALOR PARK,NSW,2147,-33.75427,150.929169,3,1,1,House,House,False,556,m2,False
2018018717,listing,/9-kempe-parade-kings-langley-nsw-2147-2018018717,1240000,is-sold,Sold by private treaty 16 Sep 2022,20220916,9 Kempe Parade,KINGS LANGLEY,NSW,2147,-33.75998,150.950165,4,2,2,House,House,False,721,m2,False
2018019237,listing,/51-australorp-avenue-seven-hills-nsw-2147-2018019237,904000,is-sold,Sold by private treaty 09 Sep 2022,20220909,51 Australorp Avenue,SEVEN HILLS,NSW,2147,-33.7824974,150.931168,4,2,2,House,House,False,553,m2,False
2018024804,listing,/55-himalaya-crescent-seven-hills-nsw-2147-2018024804,900000,is-sold,Sold by private treaty 07 Sep 2022,20220907,55 Himalaya Crescent,SEVEN HILLS,NSW,2147,-33.7920151,150.92189,4,1,3,House,House,False,689,m2,False
2018025758,listing,/43-christine-crescent-lalor-park-nsw-2147-2018025758,800000,is-sold,Sold by private treaty 07 Sep 2022,20220907,43 Christine Crescent,LALOR PARK,NSW,2147,-33.7637558,150.937027,3,1,1,House,House,False,638,m2,False
2018034687,listing,/10-pineleigh-road-lalor-park-nsw-2147-2018034687,693000,is-sold,Sold at auction 24 Sep 2022,20220924,10 Pineleigh Road,LALOR PARK,NSW,2147,-33.76406,150.9418,3,1,-,House,House,False,562,m2,False
2018036896,listing,/11-snowy-street-seven-hills-nsw-2147-2018036896,1600000,is-sold,Sold by private treaty 26 Sep 2022,20220926,11 Snowy Street,SEVEN HILLS,NSW,2147,-33.79411,150.928482,5,3,2,House,House,False,556,m2,False
2018038542,listing,/36-molyneaux-avenue-kings-langley-nsw-2147-2018038542,1380000,is-sold,Sold prior to auction 17 Sep 2022,20220917,36 Molyneaux Avenue,KINGS LANGLEY,NSW,2147,-33.75115,150.941437,4,3,4,House,House,False,690,m2,False
2018040126,listing,/10-athabaska-avenue-seven-hills-nsw-2147-2018040126,920000,is-sold,Sold by private treaty 20 Sep 2022,20220920,10 Athabaska Avenue,SEVEN HILLS,NSW,2147,-33.7866859,150.940048,3,1,1,House,House,False,556,m2,False
2018040785,listing,/13-rosina-crescent-kings-langley-nsw-2147-2018040785,1555000,is-sold,Sold by private treaty 08 Sep 2022,20220908,13 Rosina Crescent,KINGS LANGLEY,NSW,2147,-33.7446136,150.934341,4,2,2,House,House,False,702,m2,False
2018064383,listing,/62-australorp-avenue-seven-hills-nsw-2147-2018064383,901000,is-sold,Sold by private treaty 23 Sep 2022,20220923,62 Australorp Avenue,SEVEN HILLS,NSW,2147,-33.7819,150.932327,3,1,1,House,House,False,462,m2,False
2018068584,listing,/36-madeira-avenue-kings-langley-nsw-2147-2018068584,1250000,is-sold,Sold by private treaty 26 Sep 2022,20220926,36 Madeira Avenue,KINGS LANGLEY,NSW,2147,-33.7527847,150.929626,4,2,-,House,House,False,697,m2,False
2017494315,listing,/117-abbott-road-seven-hills-nsw-2147-2017494315,860000,is-sold,Sold by private treaty 04 Sep 2022,20220904,117 Abbott Road,SEVEN HILLS,NSW,2147,-33.76585,150.95607,3,1,3,House,House,False,563,m2,False
2017838392,listing,/7-duggan-place-lalor-park-nsw-2147-2017838392,750000,is-sold,Sold by private treaty 01 Sep 2022,20220901,7 Duggan Place,LALOR PARK,NSW,2147,-33.76558,150.928574,2,1,2,House,House,False,733,m2,False
2017862876,listing,/36-gallop-grove-lalor-park-nsw-2147-2017862876,840000,is-sold,Sold by private treaty 31 Aug 2022,20220831,36 Gallop Grove,LALOR PARK,NSW,2147,-33.7600327,150.933258,3,1,2,House,House,False,651,m2,False
2017874225,listing,/39-joseph-banks-drive-kings-langley-nsw-2147-2017874225,1380000,is-sold,Sold at auction 06 Sep 2022,20220906,39 Joseph Banks Drive,KINGS LANGLEY,NSW,2147,-33.7571831,150.9508,5,3,1,House,House,False,695,m2,False
2017886012,listing,/29-geneva-crescent-seven-hills-nsw-2147-2017886012,870000,is-sold,Sold by private treaty 29 Aug 2022,20220829,29 Geneva Crescent,SEVEN HILLS,NSW,2147,-33.7875633,150.9358,3,1,1,House,House,False,556,m2,False
2017899921,listing,/39-myuna-crescent-seven-hills-nsw-2147-2017899921,932000,is-sold,Sold by private treaty 05 Sep 2022,20220905,39 Myuna Crescent,SEVEN HILLS,NSW,2147,-33.7874527,150.9237,3,1,3,House,House,False,556,m2,False
2017912933,listing,/59-mississippi-road-seven-hills-nsw-2147-2017912933,950000,is-sold,Sold by private treaty 02 Sep 2022,20220902,59 Mississippi Road,SEVEN HILLS,NSW,2147,-33.7907181,150.928177,4,1,3,House,House,False,556,m2,False
2017936850,listing,/7-wyandotte-place-seven-hills-nsw-2147-2017936850,900000,is-sold,Sold by private treaty 01 Sep 2022,20220901,7 Wyandotte Place,SEVEN HILLS,NSW,2147,-33.78339,150.930756,4,1,2,House,House,False,435,m2,False
2017939823,listing,/23-oldfield-road-seven-hills-nsw-2147-2017939823,1050000,is-sold,Sold by private treaty 03 Sep 2022,20220903,23 Oldfield Road,SEVEN HILLS,NSW,2147,-33.7787323,150.9274,3,2,2,House,House,False,638,m2,False
2017942667,listing,/12-nattai-street-seven-hills-nsw-2147-2017942667,1028000,is-sold,Sold by private treaty 06 Sep 2022,20220906,12 Nattai Street,SEVEN HILLS,NSW,2147,-33.76487,150.950073,3,1,2,House,House,False,689,m2,False
2017955105,listing,/17-ashcott-street-kings-langley-nsw-2147-2017955105,1180000,is-sold,Sold by private treaty 01 Sep 2022,20220901,17 Ashcott Street,KINGS LANGLEY,NSW,2147,-33.7533646,150.931259,4,2,2,House,House,False,691,m2,False
2017984033,listing,/21-pioneer-street-seven-hills-nsw-2147-2017984033,902800,is-sold,Sold at auction 03 Sep 2022,20220903,21 Pioneer Street,SEVEN HILLS,NSW,2147,-33.7700462,150.934616,3,2,-,House,House,False,740,m2,False
2017990093,listing,/30-lawson-street-lalor-park-nsw-2147-2017990093,701000,is-sold,Sold at auction 03 Sep 2022,20220903,30 Lawson Street,LALOR PARK,NSW,2147,-33.7608566,150.922165,3,1,-,House,House,False,556,m2,False
2017994779,listing,/5-ravel-street-seven-hills-nsw-2147-2017994779,950000,is-sold,Sold by private treaty 02 Sep 2022,20220902,5 Ravel Street,SEVEN HILLS,NSW,2147,-33.763092,150.954208,4,1,4,House,House,False,556,m2,False
2017998544,listing,/87-joseph-banks-dr-kings-langley-nsw-2147-2017998544,1200000,is-sold,Sold by private treaty 05 Sep 2022,20220905,87 Joseph Banks Dr,KINGS LANGLEY,NSW,2147,-33.7538071,150.948074,4,3,2,House,House,False,0,m2,False
2018001116,listing,/21-yvonne-street-seven-hills-nsw-2147-2018001116,1035000,is-sold,Sold by private treaty 02 Sep 2022,20220902,21 Yvonne Street,SEVEN HILLS,NSW,2147,-33.76204,150.947113,3,2,1,House,House,False,557,m2,False
2018017510,listing,/17-4-nolan-place-seven-hills-nsw-2147-2018017510,630000,is-sold,Sold by private treaty 31 Aug 2022,20220831,17/4 Nolan Place,SEVEN HILLS,NSW,2147,-33.7668343,150.941772,2,1,1,Townhouse,Townhouse,False,160,m2,False
2018023058,listing,/4-hargrave-road-lalor-park-nsw-2147-2018023058,835000,is-sold,Sold by private treaty 31 Aug 2022,20220831,4 Hargrave Road,LALOR PARK,NSW,2147,-33.7628479,150.924515,3,1,1,House,House,False,639,m2,False
2018040019,listing,/7-exeter-grove-kings-langley-nsw-2147-2018040019,1500000,is-sold,Sold by private treaty 02 Sep 2022,20220902,7 Exeter Grove,KINGS LANGLEY,NSW,2147,-33.74521,150.934036,4,2,2,House,House,False,845,m2,False
2018058615,listing,/56-deptford-avenue-kings-langley-nsw-2147-2018058615,1460000,is-sold,Sold by private treaty 06 Sep 2022,20220906,56 Deptford Avenue,KINGS LANGLEY,NSW,2147,-33.7461433,150.935867,5,2,2,House,House,False,697,m2,False
2017750432,listing,/417-7c-olive-st-seven-hills-nsw-2147-2017750432,570000,is-sold,Sold by private treaty 27 Aug 2022,20220827,417/7C Olive St,SEVEN HILLS,NSW,2147,-33.7775345,150.934464,2,2,2,ApartmentUnitFlat,Apartment / Unit / Flat,False,0,m2,False
2017873923,listing,/3-landy-road-lalor-park-nsw-2147-2017873923,915000,is-sold,Sold by private treaty 19 Aug 2022,20220819,3 Landy Road,LALOR PARK,NSW,2147,-33.7576828,150.92894,4,2,2,House,House,False,701,m2,False
2017882599,listing,/12-francine-street-seven-hills-nsw-2147-2017882599,970000,is-sold,Sold by private treaty 25 Aug 2022,20220825,12 Francine Street,SEVEN HILLS,NSW,2147,-33.7673264,150.935532,3,1,1,House,House,False,765,m2,False
2017885203,listing,/11-mitchell-street-lalor-park-nsw-2147-2017885203,995000,is-sold,Sold by private treaty 18 Aug 2022,20220818,11 MITCHELL STREET,LALOR PARK,NSW,2147,-33.7651,150.92453,4,2,2,House,House,False,556,m2,False
2017911101,listing,/14-northcott-road-lalor-park-nsw-2147-2017911101,825000,is-sold,Sold by private treaty 26 Aug 2022,20220826,14 Northcott Road,LALOR PARK,NSW,2147,-33.7628,150.941391,3,1,1,House,House,False,632,m2,False
2017919429,listing,/2-54-nowland-street-seven-hills-nsw-2147-2017919429,735000,is-sold,Sold by private treaty 19 Aug 2022,20220819,2/54 Nowland Street,SEVEN HILLS,NSW,2147,-33.76718,150.945709,3,1,2,Townhouse,Townhouse,False,242,m2,False
2017932646,listing,/3-dawn-drive-seven-hills-nsw-2147-2017932646,815000,is-sold,Sold by private treaty 26 Aug 2022,20220826,3 Dawn Drive,SEVEN HILLS,NSW,2147,-33.7675056,150.921616,3,1,2,House,House,False,695,m2,False
2017933189,listing,/5-howe-place-kings-langley-nsw-2147-2017933189,1200000,is-sold,Sold by private treaty 19 Aug 2022,20220819,5 Howe Place,KINGS LANGLEY,NSW,2147,-33.74765,150.9387,4,2,1,House,House,False,703,m2,False
2017944423,listing,/9-14-18-george-street-seven-hills-nsw-2147-2017944423,858000,is-sold,Sold by private treaty 26 Aug 2022,20220826,9/14-18 George Street,SEVEN HILLS,NSW,2147,-33.776825,150.935715,4,2,2,Townhouse,Townhouse,False,239,m2,False
2017948724,listing,/2-eighth-avenue-seven-hills-nsw-2147-2017948724,840000,is-sold,Sold by private treaty 16 Aug 2022,20220816,2 Eighth Avenue,SEVEN HILLS,NSW,2147,-33.77955,150.9399,3,1,2,House,House,False,600,m2,False
2017954733,listing,/45-fuller-street-seven-hills-nsw-2147-2017954733,860000,is-sold,Sold at auction 20 Aug 2022,20220820,45 Fuller Street,SEVEN HILLS,NSW,2147,-33.78121,150.945435,2,1,1,House,House,False,632,m2,False
2017956172,listing,/35-anderson-road-kings-langley-nsw-2147-2017956172,1350000,is-sold,Sold at auction 20 Aug 2022,20220820,35 Anderson Road,KINGS LANGLEY,NSW,2147,-33.7589951,150.951172,4,2,2,House,House,False,696,m2,False
2017957319,listing,/19-australorp-avenue-seven-hills-nsw-2147-2017957319,1211000,is-sold,Sold by private treaty 19 Aug 2022,20220819,19 Australorp Avenue,SEVEN HILLS,NSW,2147,-33.7819557,150.928436,4,2,3,House,House,False,651,m2,False
2017957490,listing,/14-hartam-street-kings-langley-nsw-2147-2017957490,1286000,is-sold,Sold at auction 18 Aug 2022,20220818,14 Hartam Street,KINGS LANGLEY,NSW,2147,-33.744915,150.931168,4,3,2,House,House,False,723,m2,False
2017965742,listing,/24-patterson-road-lalor-park-nsw-2147-2017965742,850000,is-sold,Sold by private treaty 26 Aug 2022,20220826,24 Patterson Road,LALOR PARK,NSW,2147,-33.75901,150.929443,3,2,4,House,House,False,537,m2,False
2017971773,listing,/117-whitby-road-kings-langley-nsw-2147-2017971773,1275000,is-sold,Sold by private treaty 26 Aug 2022,20220826,117 Whitby Road,KINGS LANGLEY,NSW,2147,-33.7517433,150.9338,4,2,4,House,House,False,690,m2,False
2017975810,listing,/12-sanders-crescent-kings-langley-nsw-2147-2017975810,1100000,is-sold,Sold at auction 27 Aug 2022,20220827,12 Sanders Crescent,KINGS LANGLEY,NSW,2147,-33.74806,150.93959,5,3,3,House,House,False,768,m2,False
2017979158,listing,/53-lucretia-road-seven-hills-nsw-2147-2017979158,1070000,is-sold,Sold at auction 27 Aug 2022,20220827,53 Lucretia Road,SEVEN HILLS,NSW,2147,-33.7915039,150.934982,4,2,2,House,House,False,301,m2,False
2017982932,listing,/42-johnson-avenue-seven-hills-nsw-2147-2017982932,1050000,is-sold,Sold by private treaty 29 Aug 2022,20220829,42 Johnson Avenue,SEVEN HILLS,NSW,2147,-33.7620354,150.942627,6,3,4,House,House,False,575,m2,False
2017998982,listing,/156-joseph-banks-drive-kings-langley-nsw-2147-2017998982,1030000,is-sold,Sold at auction 28 Aug 2022,20220828,156 Joseph Banks Drive,KINGS LANGLEY,NSW,2147,-33.7530365,150.938522,3,2,2,House,House,False,0,m2,False
2017775874,listing,/54-hope-street-seven-hills-nsw-2147-2017775874,905000,is-sold,Sold at auction 31 Jul 2022,20220731,54 Hope Street,SEVEN HILLS,NSW,2147,-33.76951,150.934387,2,1,1,House,House,False,729,m2,False
2017811817,listing,/8-lawson-street-lalor-park-nsw-2147-2017811817,750000,is-sold,Sold by private treaty 08 Aug 2022,20220808,8 Lawson Street,LALOR PARK,NSW,2147,-33.7622,150.924118,2,1,2,House,House,False,575,m2,False
2017829411,listing,/14-daisy-place-lalor-park-nsw-2147-2017829411,810000,is-sold,Sold by private treaty 08 Aug 2022,20220808,14 Daisy Place,LALOR PARK,NSW,2147,-33.76046,150.9228,4,1,1,House,House,False,581,m2,False
2017835185,listing,/lg02-21a-alice-street-seven-hills-nsw-2147-2017835185,570000,is-sold,Sold by private treaty 09 Aug 2022,20220809,LG02/21a Alice Street,SEVEN HILLS,NSW,2147,-33.7759247,150.935257,2,2,1,ApartmentUnitFlat,Apartment / Unit / Flat,False,0,m2,False
2017838229,listing,/31-johnson-avenue-seven-hills-nsw-2147-2017838229,700000,is-sold,Sold by private treaty 09 Aug 2022,20220809,31 Johnson Avenue,SEVEN HILLS,NSW,2147,-33.76046,150.942749,3,1,2,House,House,False,512,m2,False
2017856106,listing,/11-sparman-crescent-kings-langley-nsw-2147-2017856106,1200000,is-sold,Sold by private treaty 08 Aug 2022,20220808,11 Sparman Crescent,KINGS LANGLEY,NSW,2147,-33.75541,150.93959,5,2,4,House,House,False,698,m2,False
2017871035,listing,/32-mitchell-street-lalor-park-nsw-2147-2017871035,820000,is-sold,Sold by private treaty 02 Aug 2022,20220802,32 Mitchell Street,LALOR PARK,NSW,2147,-33.7651062,150.923172,3,2,1,House,House,False,338,m2,False
2017888829,listing,/7-2a-federal-road-seven-hills-nsw-2147-2017888829,800500,is-sold,Sold by private treaty 02 Aug 2022,20220802,7/2A Federal Road,SEVEN HILLS,NSW,2147,-33.7769,150.9326,4,2,2,House,House,False,0,m2,False
2017895997,listing,/6-mamie-avenue-seven-hills-nsw-2147-2017895997,770000,is-sold,Sold by private treaty 15 Aug 2022,20220815,6 Mamie Avenue,SEVEN HILLS,NSW,2147,-33.76913,150.92157,3,1,1,House,House,False,739,m2,False
2017904127,listing,/1-sloop-street-seven-hills-nsw-2147-2017904127,940000,is-sold,Sold by private treaty 08 Aug 2022,20220808,1 Sloop Street,SEVEN HILLS,NSW,2147,-33.78138,150.9223,4,2,4,House,House,False,581,m2,False
2017905519,listing,/69-johnson-avenue-seven-hills-nsw-2147-2017905519,845000,is-sold,Sold by private treaty 29 Jul 2022,20220729,69 Johnson Avenue,SEVEN HILLS,NSW,2147,-33.76546,150.9432,3,1,3,House,House,False,556,m2,False
2017906223,listing,/166-joseph-banks-drive-kings-langley-nsw-2147-2017906223,1201000,is-sold,Sold by private treaty 29 Jul 2022,20220729,166 Joseph Banks Drive,KINGS LANGLEY,NSW,2147,-33.7524948,150.937668,4,3,2,House,House,False,697,m2,False
2017906983,listing,/76-barbara-boulevard-seven-hills-nsw-2147-2017906983,800000,is-sold,Sold by private treaty 12 Aug 2022,20220812,76 Barbara Boulevard,SEVEN HILLS,NSW,2147,-33.77114,150.92334,7,2,2,House,House,False,196,m2,False
2017925721,listing,/25-shannon-street-lalor-park-nsw-2147-2017925721,750000,is-sold,Sold by private treaty 04 Aug 2022,20220804,25 Shannon Street,LALOR PARK,NSW,2147,-33.7558975,150.934891,2,1,2,House,House,False,556,m2,False
2017930984,listing,/28-margaret-street-seven-hills-nsw-2147-2017930984,865000,is-sold,Sold at auction 06 Aug 2022,20220806,28 Margaret Street,SEVEN HILLS,NSW,2147,-33.7805443,150.932571,3,1,2,House,House,False,581,m2,False
2017933608,listing,/50-dalray-street-lalor-park-nsw-2147-2017933608,895000,is-sold,Sold by private treaty 29 Jul 2022,20220729,50 Dalray Street,LALOR PARK,NSW,2147,-33.75461,150.9319,3,1,2,House,House,False,556,m2,False
2017936160,listing,/3-santiago-place-seven-hills-nsw-2147-2017936160,920000,is-sold,Sold by private treaty 10 Aug 2022,20220810,3 Santiago Place,SEVEN HILLS,NSW,2147,-33.7791977,150.938217,3,1,1,House,House,False,561,m2,False
2017942998,listing,/6-lowry-road-lalor-park-nsw-2147-2017942998,665000,is-sold,Sold at auction 13 Aug 2022,20220813,6 Lowry Road,LALOR PARK,NSW,2147,-33.7578735,150.940262,3,1,-,House,House,False,562,m2,False
2017971292,listing,/10-gunn-road-lalor-park-nsw-2147-2017971292,800000,is-sold,Sold by private treaty 10 Aug 2022,20220810,10 Gunn Road,LALOR PARK,NSW,2147,-33.7581673,150.930664,3,1,2,House,House,False,556,m2,False
2017995688,listing,/39-james-street-seven-hills-nsw-2147-2017995688,840000,is-sold,Sold by private treaty 15 Aug 2022,20220815,39 James Street,SEVEN HILLS,NSW,2147,-33.7804375,150.922531,3,1,3,House,House,False,613,m2,False
2017696695,listing,/13-hayes-road-seven-hills-nsw-2147-2017696695,835000,is-sold,Sold by private treaty 22 Jul 2022,20220722,13 Hayes Road,SEVEN HILLS,NSW,2147,-33.7794037,150.923935,3,1,1,House,House,False,562,m2,False
2017719067,listing,/10-parkinson-street-kings-langley-nsw-2147-2017719067,1420000,is-sold,Sold by private treaty 15 Jul 2022,20220715,10 Parkinson Street,KINGS LANGLEY,NSW,2147,-33.749176,150.92894,4,2,2,House,House,False,696,m2,False
2017722752,listing,/3-20-wheeler-street-lalor-park-nsw-2147-2017722752,471500,is-sold,Sold by private treaty 10 Jul 2022,20220710,3/20 Wheeler Street,LALOR PARK,NSW,2147,-33.7627373,150.925446,2,1,1,Villa,Villa,False,202,m2,False
2017778190,listing,/30-lowry-road-lalor-park-nsw-2147-2017778190,815000,is-sold,Sold by private treaty 08 Jul 2022,20220708,30 Lowry Road,LALOR PARK,NSW,2147,-33.75956,150.939987,3,2,2,House,House,False,638,m2,False
2017791170,listing,/7-o-neill-street-lalor-park-nsw-2147-2017791170,1050000,is-sold,Sold by private treaty 15 Jul 2022,20220715,7 O'Neill Street,LALOR PARK,NSW,2147,-33.76431,150.93576,5,3,1,House,House,False,313,m2,False
2017796800,listing,/7-lawson-street-lalor-park-nsw-2147-2017796800,885000,is-sold,Sold by private treaty 21 Jul 2022,20220721,7 Lawson Street,LALOR PARK,NSW,2147,-33.76226,150.924988,3,1,1,House,House,False,657,m2,False
2017841793,listing,/4-13-15-alice-street-seven-hills-nsw-2147-2017841793,850000,is-sold,Sold by private treaty 14 Jul 2022,20220714,4/13-15 Alice Street,SEVEN HILLS,NSW,2147,-33.77699,150.934784,4,3,2,Townhouse,Townhouse,False,213,m2,False
2017842495,listing,/17-zambesi-road-seven-hills-nsw-2147-2017842495,1015000,is-sold,Sold by private treaty 15 Jul 2022,20220715,17 Zambesi Road,SEVEN HILLS,NSW,2147,-33.7901039,150.9303,3,1,2,House,House,False,556,m2,False
2017845021,listing,/122-mississippi-road-seven-hills-nsw-2147-2017845021,1085000,is-sold,Sold prior to auction 08 Jul 2022,20220708,122 Mississippi Road,SEVEN HILLS,NSW,2147,-33.79187,150.9326,4,2,1,House,House,False,556,m2,False
2017856647,listing,/47-christine-crescent-lalor-park-nsw-2147-2017856647,860000,is-sold,Sold by private treaty 20 Jul 2022,20220720,47 Christine Crescent,LALOR PARK,NSW,2147,-33.76395,150.936783,5,2,4,House,House,False,562,m2,False
2017875371,listing,/267-prospect-highway-seven-hills-nsw-2147-2017875371,1025000,is-sold,Sold by private treaty 13 Jul 2022,20220713,267 Prospect Highway,SEVEN HILLS,NSW,2147,-33.778244,150.932159,3,2,1,House,House,False,841,m2,False
2017882061,listing,/43-myuna-crescent-seven-hills-nsw-2147-2017882061,950000,is-sold,Sold prior to auction 12 Jul 2022,20220712,43 Myuna Crescent,SEVEN HILLS,NSW,2147,-33.78716,150.92366,4,2,3,House,House,False,578,m2,False
2017883638,listing,/35a-hope-street-seven-hills-nsw-2147-2017883638,928500,is-sold,Sold by private treaty 19 Jul 2022,20220719,35A Hope Street,SEVEN HILLS,NSW,2147,-33.76876,150.931946,3,1,1,House,House,False,600,m2,False
2017884616,listing,/3-ontario-close-seven-hills-nsw-2147-2017884616,1008000,is-sold,Sold prior to auction 08 Jul 2022,20220708,3 Ontario Close,SEVEN HILLS,NSW,2147,-33.7852135,150.930069,4,2,2,House,House,False,632,m2,False
2017884936,listing,/6-fowler-street-seven-hills-nsw-2147-2017884936,830000,is-sold,Sold by private treaty 29 Jul 2022,20220729,6 Fowler Street,SEVEN HILLS,NSW,2147,-33.7802544,150.924759,3,1,4,House,House,False,556,m2,False
2017887085,listing,/21-moncrieff-road-lalor-park-nsw-2147-2017887085,885000,is-sold,Sold by private treaty 25 Jul 2022,20220725,21 Moncrieff Road,LALOR PARK,NSW,2147,-33.75517,150.924438,3,3,4,House,House,False,556,m2,False
2017914148,listing,/2-thomas-kelly-crescent-lalor-park-nsw-2147-2017914148,920000,is-sold,Sold by private treaty 22 Jul 2022,20220722,2 Thomas Kelly Crescent,LALOR PARK,NSW,2147,-33.7631149,150.9367,4,3,2,House,House,False,613,m2,False
2017914611,listing,/71-solander-road-kings-langley-nsw-2147-2017914611,1075000,is-sold,Sold prior to auction 20 Jul 2022,20220720,71 Solander Road,KINGS LANGLEY,NSW,2147,-33.75953,150.948257,4,2,2,House,House,False,745,m2,False
2017917423,listing,/2-may-walk-lalor-park-nsw-2147-2017917423,800000,is-sold,Sold by private treaty 25 Jul 2022,20220725,2 May Walk,LALOR PARK,NSW,2147,-33.7604828,150.935165,3,1,2,House,House,False,600,m2,False
2017956250,listing,/76-sporing-avenue-kings-langley-nsw-2147-2017956250,1200000,is-sold,Sold by private treaty 25 Jul 2022,20220725,76 Sporing Avenue,KINGS LANGLEY,NSW,2147,-33.7449226,150.936417,3,2,2,House,House,False,824,m2,False
2017618395,listing,/24-haynes-avenue-seven-hills-nsw-2147-2017618395,815000,is-sold,Sold by private treaty 23 Jun 2022,20220623,24 Haynes Avenue,SEVEN HILLS,NSW,2147,-33.7678871,150.926529,2,1,1,House,House,False,556,m2,False
2017696987,listing,/35-nevis-crescent-seven-hills-nsw-2147-2017696987,930000,is-sold,Sold by private treaty 01 Jul 2022,20220701,35 Nevis Crescent,SEVEN HILLS,NSW,2147,-33.7913361,150.924072,3,1,1,House,House,False,581,m2,False
2017712126,listing,/44-kennedy-parade-lalor-park-nsw-2147-2017712126,850000,is-sold,Sold by private treaty 24 Jun 2022,20220624,44 Kennedy Parade,LALOR PARK,NSW,2147,-33.76494,150.938522,3,1,3,House,House,False,588,m2,False
2017730921,listing,/20-fowler-street-seven-hills-nsw-2147-2017730921,817000,is-sold,Sold by private treaty 29 Jun 2022,20220629,20 Fowler Street,SEVEN HILLS,NSW,2147,-33.7812424,150.924576,3,2,2,House,House,False,556,m2,False
2017734392,listing,/15-ibis-road-lalor-park-nsw-2147-2017734392,1135000,is-sold,Sold by private treaty 21 Jun 2022,20220621,15 Ibis Road,LALOR PARK,NSW,2147,-33.75875,150.941727,5,2,2,House,House,False,746,m2,False
2017748669,listing,/14-radley-road-seven-hills-nsw-2147-2017748669,880000,is-sold,Sold by private treaty 15 Jun 2022,20220615,14 Radley Road,SEVEN HILLS,NSW,2147,-33.7720871,150.920486,3,1,1,House,House,False,670,m2,False
2017781167,listing,/58-mississippi-road-seven-hills-nsw-2147-2017781167,1200000,is-sold,Sold at auction 21 Jun 2022,20220621,58 Mississippi Road,SEVEN HILLS,NSW,2147,-33.7910347,150.926941,5,2,6,House,House,False,854,m2,False
2017782863,listing,/19-gallop-grove-lalor-park-nsw-2147-2017782863,850000,is-sold,Sold by private treaty 23 Jun 2022,20220623,19 Gallop Grove,LALOR PARK,NSW,2147,-33.7592773,150.9342,4,1,1,House,House,False,631,m2,False
2017792222,listing,/12-vienna-street-seven-hills-nsw-2147-2017792222,1045000,is-sold,Sold by private treaty 17 Jun 2022,20220617,12 Vienna Street,SEVEN HILLS,NSW,2147,-33.782032,150.92485,5,2,2,House,House,False,556,m2,False
2017803018,listing,/51-isaac-smith-parade-kings-langley-nsw-2147-2017803018,1165000,is-sold,Sold by private treaty 24 Jun 2022,20220624,51 Isaac Smith Parade,KINGS LANGLEY,NSW,2147,-33.7469864,150.926483,4,2,1,House,House,False,698,m2,False
2017814897,listing,/6-cacia-avenue-seven-hills-nsw-2147-2017814897,880000,is-sold,Sold by private treaty 20 Jun 2022,20220620,6 Cacia Avenue,SEVEN HILLS,NSW,2147,-33.76803,150.938889,2,1,4,House,House,False,645,m2,False
2017837345,listing,/36-rosina-crescent-kings-langley-nsw-2147-2017837345,1410000,is-sold,Sold by private treaty 21 Jun 2022,20220621,36 Rosina Crescent,KINGS LANGLEY,NSW,2147,-33.7437248,150.933533,4,3,2,House,House,False,727,m2,False
2017849916,listing,/28-leichhardt-street-lalor-park-nsw-2147-2017849916,725000,is-sold,Sold at auction 25 Jun 2022,20220625,28 Leichhardt Street,LALOR PARK,NSW,2147,-33.7667046,150.927673,3,1,-,House,House,False,556,m2,False
2017853609,listing,/11-banksia-close-kings-langley-nsw-2147-2017853609,1480000,is-sold,Sold by private treaty 24 Jun 2022,20220624,11 Banksia Close,KINGS LANGLEY,NSW,2147,-33.75647,150.941483,5,2,2,House,House,False,685,m2,False
2017854743,listing,/80-whitby-road-kings-langley-nsw-2147-2017854743,1380000,is-sold,Sold at auction 03 Jul 2022,20220703,80 Whitby Road,KINGS LANGLEY,NSW,2147,-33.749054,150.937485,4,2,1,House,House,False,714,m2,False
2017857542,listing,/51-shannon-st-lalor-park-nsw-2147-2017857542,840000,is-sold,Sold by private treaty 21 Jun 2022,20220621,51 Shannon St,LALOR PARK,NSW,2147,-33.7565536,150.936981,4,1,1,House,House,False,556,m2,False
2017874577,listing,/31-botany-boulevard-seven-hills-nsw-2147-2017874577,1300000,is-sold,Sold by private treaty 01 Jul 2022,20220701,31 Botany Boulevard,SEVEN HILLS,NSW,2147,-33.7591858,150.94342,5,2,2,House,House,False,556,m2,False
2017875668,listing,/8-mozart-street-seven-hills-nsw-2147-2017875668,920000,is-sold,Sold by private treaty 01 Jul 2022,20220701,8 Mozart Street,SEVEN HILLS,NSW,2147,-33.7644577,150.956253,3,1,4,House,House,False,556,m2,False
2017908902,listing,/102-james-cook-dr-kings-langley-nsw-2147-2017908902,1265000,is-sold,Sold by private treaty 01 Jul 2022,20220701,102 James Cook Dr,KINGS LANGLEY,NSW,2147,-33.7436371,150.926346,3,2,1,House,House,False,700,m2,False
2017912915,listing,/510-8-george-street-seven-hills-nsw-2147-2017912915,465000,is-sold,Sold by private treaty 04 Jul 2022,20220704,510/8 George Street,SEVEN HILLS,NSW,2147,-33.7773438,150.935349,-,-,-,ApartmentUnitFlat,Apartment / Unit / Flat,False,0,m2,False
2017518102,listing,/506-124-best-road-seven-hills-nsw-2147-2017518102,430000,is-sold,Sold by private treaty 03 Jun 2022,20220603,506/124 Best Road,SEVEN HILLS,NSW,2147,-33.7771149,150.936844,1,1,1,ApartmentUnitFlat,Apartment / Unit / Flat,False,0,m2,False
2017646870,listing,/10-gavin-place-kings-langley-nsw-2147-2017646870,1670000,is-sold,Sold by private treaty 31 May 2022,20220531,10 Gavin Place,KINGS LANGLEY,NSW,2147,-33.7493019,150.9453,4,2,6,House,House,False,697,m2,False
2017657085,listing,/4-trinity-place-kings-langley-nsw-2147-2017657085,1340000,is-sold,Sold by private treaty 02 Jun 2022,20220602,4 Trinity Place,KINGS LANGLEY,NSW,2147,-33.7471161,150.937256,4,2,2,House,House,False,714,m2,False
2017731116,listing,/1a-barbara-boulevarde-seven-hills-nsw-2147-2017731116,1120000,is-sold,Sold by private treaty 03 Jun 2022,20220603,1A Barbara Boulevarde,SEVEN HILLS,NSW,2147,-33.7702751,150.928986,4,2,2,House,House,False,322,m2,False
2017740091,listing,/6-narva-place-seven-hills-nsw-2147-2017740091,1065000,is-sold,Sold by private treaty 03 Jun 2022,20220603,6 Narva Place,SEVEN HILLS,NSW,2147,-33.7843552,150.9339,3,2,4,House,House,False,556,m2,False
2017759490,listing,/13-crestbrook-street-seven-hills-nsw-2147-2017759490,900000,is-sold,Sold by private treaty 10 Jun 2022,20220610,13 Crestbrook Street,SEVEN HILLS,NSW,2147,-33.7681236,150.924026,4,2,1,House,House,False,689,m2,False
2017761451,listing,/7-adam-place-lalor-park-nsw-2147-2017761451,840000,is-sold,Sold by private treaty 01 Jun 2022,20220601,7 Adam Place,LALOR PARK,NSW,2147,-33.75843,150.929672,3,1,2,House,House,False,575,m2,False
2017775471,listing,/36-36a-dawn-drive-seven-hills-nsw-2147-2017775471,1210000,is-sold,Sold by private treaty 03 Jun 2022,20220603,36 & 36A Dawn Drive,SEVEN HILLS,NSW,2147,-33.7696381,150.919342,7,4,5,House,House,False,768,m2,False
2017784444,listing,/61-best-road-seven-hills-nsw-2147-2017784444,890000,is-sold,Sold by private treaty 14 Jun 2022,20220614,61 Best Road,SEVEN HILLS,NSW,2147,-33.78085,150.94017,3,1,2,House,House,False,427,m2,False
2017796880,listing,/63-solander-road-kings-langley-nsw-2147-2017796880,1250000,is-sold,Sold by private treaty 02 Jun 2022,20220602,63 Solander Road,KINGS LANGLEY,NSW,2147,-33.75875,150.94725,4,2,2,House,House,False,731,m2,False
2017798346,listing,/20-hodges-street-kings-langley-nsw-2147-2017798346,1315000,is-sold,Sold at auction 02 Jun 2022,20220602,20 Hodges Street,KINGS LANGLEY,NSW,2147,-33.7409859,150.919754,4,2,2,House,House,False,694,m2,False
2017808537,listing,/2-himalaya-crescent-seven-hills-nsw-2147-2017808537,1060000,is-sold,Sold by private treaty 10 Jun 2022,20220610,2 Himalaya Crescent,SEVEN HILLS,NSW,2147,-33.78982,150.92067,3,2,2,House,House,False,556,m2,False
2017811066,listing,/42-lowry-road-lalor-park-nsw-2147-2017811066,880000,is-sold,Sold by private treaty 03 Jun 2022,20220603,42 Lowry Road,LALOR PARK,NSW,2147,-33.76031,150.941467,2,2,2,House,House,False,588,m2,False
2017814563,listing,/10-tupia-place-kings-langley-nsw-2147-2017814563,1420000,is-sold,Sold at auction 12 Jun 2022,20220612,10 Tupia Place,KINGS LANGLEY,NSW,2147,-33.7477646,150.937439,4,3,2,House,House,False,0,m2,False
2017819133,listing,/7-77-plymouth-crescent-kings-langley-nsw-2147-2017819133,775000,is-sold,Sold by private treaty 01 Jun 2022,20220601,7/77 Plymouth Crescent,KINGS LANGLEY,NSW,2147,-33.75917,150.954285,2,1,2,Townhouse,Townhouse,False,281,m2,False
2017820612,listing,/4-morton-road-lalor-park-nsw-2147-2017820612,1270000,is-sold,Sold by private treaty 07 Jun 2022,20220607,4 Morton Road,LALOR PARK,NSW,2147,-33.76359,150.927536,5,2,2,House,House,False,638,m2,False
2017823636,listing,/9-leichhardt-street-lalor-park-nsw-2147-2017823636,1200000,is-sold,Sold by private treaty 01 Jun 2022,20220601,9 Leichhardt Street,LALOR PARK,NSW,2147,-33.76643,150.928619,4,2,2,House,House,False,569,m2,False
2017829023,listing,/28-ellam-drive-seven-hills-nsw-2147-2017829023,1070000,is-sold,Sold at auction 11 Jun 2022,20220611,28 Ellam Drive,SEVEN HILLS,NSW,2147,-33.7879143,150.925659,4,2,2,House,House,False,657,m2,False
2017830386,listing,/13-radley-road-seven-hills-nsw-2147-2017830386,910000,is-sold,Sold by private treaty 06 Jun 2022,20220606,13 Radley Road,SEVEN HILLS,NSW,2147,-33.77194,150.920532,3,1,3,House,House,False,822,m2,False
2017865030,listing,/78-lavinia-street-seven-hills-nsw-2147-2017865030,1020000,is-sold,Sold by private treaty 10 Jun 2022,20220610,78 Lavinia Street,SEVEN HILLS,NSW,2147,-33.79036,150.936127,3,1,1,House,House,False,556,m2,False
2017661424,listing,/12-endeavour-street-seven-hills-nsw-2147-2017661424,1000000,is-sold,Sold by private treaty 31 May 2022,20220531,12 Endeavour Street,SEVEN HILLS,NSW,2147,-33.7771454,150.931625,4,1,1,House,House,False,556,m2,False
2017695610,listing,/14-ennis-place-lalor-park-nsw-2147-2017695610,925000,is-sold,Sold by private treaty 25 May 2022,20220525,14 Ennis Place,LALOR PARK,NSW,2147,-33.76403,150.933121,3,1,3,House,House,False,569,m2,False
2017736863,listing,/9-caird-place-seven-hills-nsw-2147-2017736863,950000,is-sold,Sold by private treaty 18 May 2022,20220518,9 Caird Place,SEVEN HILLS,NSW,2147,-33.7679329,150.94194,3,1,1,House,House,False,604,m2,False
2017746962,listing,/7-collins-street-seven-hills-nsw-2147-2017746962,1400000,is-sold,Sold by private treaty 20 May 2022,20220520,7 Collins Street,SEVEN HILLS,NSW,2147,-33.7711067,150.935486,3,1,1,House,House,False,689,m2,False
2017750443,listing,/38-capricorn-road-kings-langley-nsw-2147-2017750443,1160000,is-sold,Sold prior to auction 22 May 2022,20220522,38 Capricorn Road,KINGS LANGLEY,NSW,2147,-33.75111,150.93103,4,2,1,House,House,False,690,m2,False
2017750714,listing,/16-marnie-grove-kings-langley-nsw-2147-2017750714,1212000,is-sold,Sold at auction 18 May 2022,20220518,16 Marnie Grove,KINGS LANGLEY,NSW,2147,-33.75332,150.941345,3,1,2,House,House,False,670,m2,False
2017755071,listing,/19-chopin-street-seven-hills-nsw-2147-2017755071,1090000,is-sold,Sold by private treaty 17 May 2022,20220517,19 Chopin Street,SEVEN HILLS,NSW,2147,-33.765686,150.953888,3,1,2,House,House,False,556,m2,False
2017757501,listing,/12-sparman-crescent-kings-langley-nsw-2147-2017757501,1220000,is-sold,Sold at auction 21 May 2022,20220521,12 Sparman Crescent,KINGS LANGLEY,NSW,2147,-33.7549362,150.939392,3,2,1,House,House,False,650,m2,False
2017764639,listing,/74-lucas-road-seven-hills-nsw-2147-2017764639,750000,is-sold,Sold by private treaty 28 May 2022,20220528,74 Lucas Road,SEVEN HILLS,NSW,2147,-33.7678566,150.9289,2,1,3,House,House,False,600,m2,False
2017768692,listing,/46-knight-avenue-kings-langley-nsw-2147-2017768692,1257500,is-sold,Sold at auction 21 May 2022,20220521,46 Knight Avenue,KINGS LANGLEY,NSW,2147,-33.7423019,150.925659,3,1,1,House,House,False,690,m2,False
2017770972,listing,/1-elgar-place-seven-hills-nsw-2147-2017770972,1070000,is-sold,Sold prior to auction 20 May 2022,20220520,1 Elgar Place,SEVEN HILLS,NSW,2147,-33.7605438,150.95549,4,1,2,House,House,False,560,m2,False
2017770973,listing,/21-francine-street-seven-hills-nsw-2147-2017770973,1900000,is-sold,Sold prior to auction 20 May 2022,20220520,21 Francine Street,SEVEN HILLS,NSW,2147,-33.7665024,150.936142,5,4,4,House,House,False,1208,m2,False
2017773032,listing,/12-australorp-ave-seven-hills-nsw-2147-2017773032,1180000,is-sold,Sold by private treaty 17 May 2022,20220517,12 Australorp Ave,SEVEN HILLS,NSW,2147,-33.7825623,150.9283,4,2,4,House,House,False,667,m2,False
2017777879,listing,/28-pretoria-road-seven-hills-nsw-2147-2017777879,981000,is-sold,Sold by private treaty 28 May 2022,20220528,28 Pretoria Road,SEVEN HILLS,NSW,2147,-33.78121,150.936264,3,1,4,House,House,False,570,m2,False
2017781829,listing,/43-winnipeg-street-seven-hills-nsw-2147-2017781829,1035000,is-sold,Sold by private treaty 30 May 2022,20220530,43 Winnipeg Street,SEVEN HILLS,NSW,2147,-33.7854233,150.934937,3,1,1,House,House,False,556,m2,False
2017789417,listing,/157-james-cook-drive-kings-langley-nsw-2147-2017789417,1388800,is-sold,Sold by private treaty 30 May 2022,20220530,157 James Cook Drive,KINGS LANGLEY,NSW,2147,-33.7420769,150.921219,4,2,2,House,House,False,697,m2,False
2017793451,listing,/84-lavinia-street-seven-hills-nsw-2147-2017793451,1059000,is-sold,Sold by private treaty 17 May 2022,20220517,84 Lavinia Street,SEVEN HILLS,NSW,2147,-33.7906151,150.935715,3,1,4,House,House,False,556,m2,False
2017811837,listing,/10-hartam-street-kings-langley-nsw-2147-2017811837,1455000,is-sold,Sold by private treaty 26 May 2022,20220526,10 Hartam Street,KINGS LANGLEY,NSW,2147,-33.74486,150.9315,4,2,1,House,House,False,703,m2,False
2017820613,listing,/5-butler-place-lalor-park-nsw-2147-2017820613,970000,is-sold,Sold by private treaty 29 May 2022,20220529,5 Butler Place,LALOR PARK,NSW,2147,-33.7654228,150.934036,3,1,2,House,House,False,708,m2,False
2017821110,listing,/307-8-george-street-seven-hills-nsw-2147-2017821110,595000,is-sold,Sold by private treaty 20 May 2022,20220520,307/8 George Street,SEVEN HILLS,NSW,2147,-33.7773438,150.935349,2,2,1,ApartmentUnitFlat,Apartment / Unit / Flat,False,0,m2,False
2017527747,listing,/49-kennedy-parade-lalor-park-nsw-2147-2017527747,850000,is-sold,Sold by private treaty 05 May 2022,20220505,49 Kennedy Parade,LALOR PARK,NSW,2147,-33.7645378,150.937866,2,1,1,House,House,False,632,m2,False
2017622431,listing,/3-erie-place-seven-hills-nsw-2147-2017622431,1040000,is-sold,Sold by private treaty 09 May 2022,20220509,3 Erie Place,SEVEN HILLS,NSW,2147,-33.7838745,150.927673,3,1,1,House,House,False,556,m2,False
2017625120,listing,/17-haynes-avenue-seven-hills-nsw-2147-2017625120,1017000,is-sold,Sold by private treaty 28 Apr 2022,20220428,17 Haynes Avenue,SEVEN HILLS,NSW,2147,-33.7684631,150.9276,4,1,3,House,House,False,777,m2,False
2017632898,listing,/2a-williamson-avenue-seven-hills-nsw-2147-2017632898,1075000,is-sold,Sold by private treaty 28 Apr 2022,20220428,2a Williamson Avenue,SEVEN HILLS,NSW,2147,-33.7701569,150.939285,3,1,2,House,House,False,727,m2,False
2017644356,listing,/6-hawkesworth-parade-kings-langley-nsw-2147-2017644356,1120000,is-sold,Sold by private treaty 11 May 2022,20220511,6 Hawkesworth Parade,KINGS LANGLEY,NSW,2147,-33.7460976,150.917572,3,1,1,House,House,False,691,m2,False
2017670523,listing,/265-prospect-highway-seven-hills-nsw-2147-2017670523,1160000,is-sold,Sold by private treaty 28 Apr 2022,20220428,265 Prospect Highway,SEVEN HILLS,NSW,2147,-33.7781067,150.932251,5,2,1,House,House,False,841,m2,False
2017699026,listing,/62-gilbert-crescent-kings-langley-nsw-2147-2017699026,1400000,is-sold,Sold at auction 30 Apr 2022,20220430,62 Gilbert Crescent,KINGS LANGLEY,NSW,2147,-33.74547,150.9177,4,2,1,House,House,False,711,m2,False
2017699935,listing,/149-frederick-street-lalor-park-nsw-2147-2017699935,864000,is-sold,Sold by private treaty 29 Apr 2022,20220429,149 Frederick Street,LALOR PARK,NSW,2147,-33.755043,150.9283,3,1,2,House,House,False,556,m2,False
2017712063,listing,/67-barbara-boulevard-seven-hills-nsw-2147-2017712063,935000,is-sold,Sold by private treaty 29 Apr 2022,20220429,67 Barbara Boulevard,SEVEN HILLS,NSW,2147,-33.76908,150.922623,3,1,2,House,House,False,619,m2,False
2017720906,listing,/10-mitumba-road-seven-hills-nsw-2147-2017720906,960000,is-sold,Sold by private treaty 13 May 2022,20220513,10 Mitumba Road,SEVEN HILLS,NSW,2147,-33.79415,150.9243,3,1,2,House,House,False,575,m2,False
2017722573,listing,/13-simpson-place-kings-langley-nsw-2147-2017722573,1314000,is-sold,Sold by private treaty 05 May 2022,20220505,13 Simpson Place,KINGS LANGLEY,NSW,2147,-33.7446022,150.926529,3,2,2,House,House,False,697,m2,False
2017729910,listing,/9-ian-street-lalor-park-nsw-2147-2017729910,815000,is-sold,Sold by private treaty 16 May 2022,20220516,9 Ian Street,LALOR PARK,NSW,2147,-33.7662,150.932388,3,1,2,House,House,False,581,m2,False
2017739577,listing,/5-ponto-place-kings-langley-nsw-2147-2017739577,1710000,is-sold,Sold prior to auction 27 Apr 2022,20220427,5 Ponto Place,KINGS LANGLEY,NSW,2147,-33.75232,150.9407,5,3,1,House,House,False,690,m2,False
2017741883,listing,/14-carter-street-seven-hills-nsw-2147-2017741883,895000,is-sold,Sold at auction 07 May 2022,20220507,14 Carter Street,SEVEN HILLS,NSW,2147,-33.7810249,150.9458,3,1,1,House,House,False,556,m2,False
2017749037,listing,/1-margaret-street-seven-hills-nsw-2147-2017749037,1150000,is-sold,Sold prior to auction 29 Apr 2022,20220429,1 Margaret Street,SEVEN HILLS,NSW,2147,-33.7807,150.9338,4,2,1,House,House,False,556,m2,False
2017754379,listing,/161-seven-hills-road-south-seven-hills-nsw-2147-2017754379,800000,is-sold,Sold at auction 14 May 2022,20220514,161 Seven Hills Road South,SEVEN HILLS,NSW,2147,-33.7839928,150.926254,3,1,2,House,House,False,556,m2,False
2017756956,listing,/42-shanke-crescent-kings-langley-nsw-2147-2017756956,1250000,is-sold,Sold at auction 14 May 2022,20220514,42 Shanke Crescent,KINGS LANGLEY,NSW,2147,-33.7423,150.929855,4,2,3,House,House,False,0,m2,False
2017764353,listing,/94-94a-barbara-boulevard-seven-hills-nsw-2147-2017764353,Price Withheld,is-sold,Sold by private treaty 17 May 2022,20220517,94 & 94A Barbara Boulevard,SEVEN HILLS,NSW,2147,-33.77089,150.922348,6,2,3,House,House,False,770,m2,False
2017767969,listing,/3-54-nowland-street-seven-hills-nsw-2147-2017767969,750000,is-sold,Sold by private treaty 02 May 2022,20220502,3/54 Nowland Street,SEVEN HILLS,NSW,2147,-33.76718,150.945709,3,1,1,Townhouse,Townhouse,False,0,m2,False
2017770988,listing,/6-kalang-road-seven-hills-nsw-2147-2017770988,1257000,is-sold,Sold by private treaty 15 May 2022,20220515,6 Kalang Road,SEVEN HILLS,NSW,2147,-33.77947,150.93399,6,3,2,House,House,False,569,m2,False
2017043433,listing,/49-hayes-road-seven-hills-nsw-2147-2017043433,786000,is-sold,Sold by private treaty 19 Apr 2022,20220419,49 Hayes Road,SEVEN HILLS,NSW,2147,-33.7798042,150.92691,-,-,-,VacantLand,Vacant land,False,556,m2,False
2017590991,listing,/4-veronica-crescent-seven-hills-nsw-2147-2017590991,1100000,is-sold,Sold by private treaty 14 Apr 2022,20220414,4 Veronica Crescent,SEVEN HILLS,NSW,2147,-33.7588844,150.946365,4,2,-,House,House,False,0,m2,False
2017598744,listing,/37-himalaya-crescent-seven-hills-nsw-2147-2017598744,1150000,is-sold,Sold by private treaty 19 Apr 2022,20220419,37 Himalaya Crescent,SEVEN HILLS,NSW,2147,-33.79066,150.922211,4,2,3,House,House,False,543,m2,False
2017657571,listing,/22-marnpar-road-seven-hills-nsw-2147-2017657571,1350000,is-sold,Sold by private treaty 12 Apr 2022,20220412,22 Marnpar Road,SEVEN HILLS,NSW,2147,-33.76404,150.946075,7,3,2,House,House,False,809,m2,False
2017659486,listing,/1-5-7-fuller-street-seven-hills-nsw-2147-2017659486,840000,is-sold,Sold by private treaty 13 Apr 2022,20220413,1/5-7 Fuller Street,SEVEN HILLS,NSW,2147,-33.7826538,150.94165,4,2,2,Townhouse,Townhouse,False,0,m2,False
2017661461,listing,/5-chile-place-seven-hills-nsw-2147-2017661461,960000,is-sold,Sold at auction 09 Apr 2022,20220409,5 Chile Place,SEVEN HILLS,NSW,2147,-33.77909,150.937027,4,1,1,House,House,False,904,m2,False
2017666417,listing,/4-sewell-avenue-seven-hills-nsw-2147-2017666417,880000,is-sold,Sold by private treaty 22 Apr 2022,20220422,4 Sewell Avenue,SEVEN HILLS,NSW,2147,-33.76624,150.944977,3,1,1,House,House,False,758,m2,False
2017669290,listing,/43-brahms-street-seven-hills-nsw-2147-2017669290,1015000,is-sold,Sold by private treaty 14 Apr 2022,20220414,43 Brahms Street,SEVEN HILLS,NSW,2147,-33.7646523,150.954208,3,1,5,House,House,False,556,m2,False
2017674536,listing,/28-molyneaux-avenue-kings-langley-nsw-2147-2017674536,1345500,is-sold,Sold by private treaty 11 Apr 2022,20220411,28 Molyneaux Avenue,KINGS LANGLEY,NSW,2147,-33.7504349,150.940842,3,1,2,House,House,False,690,m2,False
2017678692,listing,/5-shanke-crescent-kings-langley-nsw-2147-2017678692,1180000,is-sold,Sold by private treaty 11 Apr 2022,20220411,5 Shanke Crescent,KINGS LANGLEY,NSW,2147,-33.74583,150.930527,4,2,3,House,House,False,697,m2,False
2017679578,listing,/25-francine-street-seven-hills-nsw-2147-2017679578,1139000,is-sold,Sold by private treaty 10 Apr 2022,20220410,25 Francine Street,SEVEN HILLS,NSW,2147,-33.7661476,150.936081,3,1,2,House,House,False,815,m2,False
2017681610,listing,/41-solander-road-kings-langley-nsw-2147-2017681610,1565000,is-sold,Sold at auction 09 Apr 2022,20220409,41 Solander Road,KINGS LANGLEY,NSW,2147,-33.7564278,150.945984,4,2,3,House,House,False,717,m2,False
2017683219,listing,/47-garonne-street-seven-hills-nsw-2147-2017683219,996000,is-sold,Sold by private treaty 14 Apr 2022,20220414,47 Garonne Street,SEVEN HILLS,NSW,2147,-33.7881737,150.934677,3,1,1,House,House,False,556,m2,False
2017685020,listing,/24-vesuvius-street-seven-hills-nsw-2147-2017685020,1605000,is-sold,Sold at auction 09 Apr 2022,20220409,24 Vesuvius Street,SEVEN HILLS,NSW,2147,-33.78924,150.92244,5,3,2,House,House,False,556,m2,False
2017696662,listing,/13-rae-street-seven-hills-nsw-2147-2017696662,630000,is-sold,Sold at auction 23 Apr 2022,20220423,13 Rae Street,SEVEN HILLS,NSW,2147,-33.7689667,150.926529,4,1,2,House,House,False,638,m2,False
2017697024,listing,/21-burke-road-lalor-park-nsw-2147-2017697024,807000,is-sold,Sold at auction 23 Apr 2022,20220423,21 Burke Road,LALOR PARK,NSW,2147,-33.76402,150.934937,2,1,-,House,House,False,600,m2,False
2017721052,listing,/14-kempe-parade-kings-langley-nsw-2147-2017721052,1335000,is-sold,Sold at auction 23 Apr 2022,20220423,14 Kempe Parade,KINGS LANGLEY,NSW,2147,-33.7593155,150.9504,4,3,5,House,House,False,828,m2,False
2017730700,listing,/44-nowland-street-seven-hills-nsw-2147-2017730700,1105305,is-sold,Sold by private treaty 21 Apr 2022,20220421,44 Nowland Street,SEVEN HILLS,NSW,2147,-33.7667847,150.946808,3,1,4,House,House,False,569,m2,False
2017735640,listing,/17-sanders-crescent-kings-langley-nsw-2147-2017735640,1235000,is-sold,Sold prior to auction 22 Apr 2022,20220422,17 Sanders Crescent,KINGS LANGLEY,NSW,2147,-33.7484741,150.938354,3,1,1,House,House,False,698,m2,False
2017739774,listing,/5-mitchell-street-lalor-park-nsw-2147-2017739774,945000,is-sold,Sold by private treaty 22 Apr 2022,20220422,5 Mitchell Street,LALOR PARK,NSW,2147,-33.76516,150.925079,4,1,1,House,House,False,670,m2,False
2017457921,listing,/6-carter-street-seven-hills-nsw-2147-2017457921,1345000,is-sold,Sold by private treaty 29 Mar 2022,20220329,6 Carter Street,SEVEN HILLS,NSW,2147,-33.7801743,150.945435,4,2,1,House,House,False,808,m2,False
2017575463,listing,/26-terry-ave-seven-hills-nsw-2147-2017575463,1050000,is-sold,Sold by private treaty 29 Mar 2022,20220329,26 Terry Ave,SEVEN HILLS,NSW,2147,-33.76838,150.920837,3,1,5,House,House,False,737,m2,False
2017590468,listing,/16a-lowana-crescent-seven-hills-nsw-2147-2017590468,1310000,is-sold,Sold by private treaty 18 Mar 2022,20220318,16A Lowana Crescent,SEVEN HILLS,NSW,2147,-33.7639,150.951752,5,3,2,House,House,False,349,m2,False
2017591722,listing,/12-hodges-street-kings-langley-nsw-2147-2017591722,1350000,is-sold,Sold by private treaty 16 Mar 2022,20220316,12 Hodges Street,KINGS LANGLEY,NSW,2147,-33.7408676,150.918991,4,2,2,House,House,False,694,m2,False
2017600854,listing,/10-wyandotte-place-seven-hills-nsw-2147-2017600854,1100000,is-sold,Sold at auction 20 Mar 2022,20220320,10 Wyandotte Place,SEVEN HILLS,NSW,2147,-33.78341,150.9302,6,3,2,House,House,False,0,m2,False
2017624755,listing,/6-francine-street-seven-hills-nsw-2147-2017624755,1025000,is-sold,Sold by private treaty 05 Apr 2022,20220405,6 Francine Street,SEVEN HILLS,NSW,2147,-33.7677155,150.93544,3,1,2,House,House,False,670,m2,False
2017625971,listing,/28-carole-street-seven-hills-nsw-2147-2017625971,1050000,is-sold,Sold by private treaty 15 Mar 2022,20220315,28 Carole Street,SEVEN HILLS,NSW,2147,-33.7613335,150.947342,3,1,2,House,House,False,556,m2,False
2017629377,listing,/8-dawn-drive-seven-hills-nsw-2147-2017629377,865000,is-sold,Sold at auction 26 Mar 2022,20220326,8 Dawn Drive,SEVEN HILLS,NSW,2147,-33.7675552,150.920456,3,1,1,House,House,False,0,m2,False
2017630191,listing,/12-phillip-street-seven-hills-nsw-2147-2017630191,1331000,is-sold,Sold prior to auction 23 Mar 2022,20220323,12 Phillip Street,SEVEN HILLS,NSW,2147,-33.77042,150.9294,5,3,1,House,House,False,344,m2,False
2017630204,listing,/23-thomas-kelly-crescent-lalor-park-nsw-2147-2017630204,920000,is-sold,Sold by private treaty 05 Apr 2022,20220405,23 Thomas Kelly Crescent,LALOR PARK,NSW,2147,-33.7619057,150.934479,3,1,3,House,House,False,676,m2,False
2017633681,listing,/4-fannin-place-kings-langley-nsw-2147-2017633681,1471000,is-sold,Sold at auction 24 Mar 2022,20220324,4 Fannin Place,KINGS LANGLEY,NSW,2147,-33.74046,150.919968,4,2,2,House,House,False,691,m2,False
2017638399,listing,/307-7b-olive-street-seven-hills-nsw-2147-2017638399,650000,is-sold,Sold by private treaty 07 Apr 2022,20220407,307/7B Olive Street,SEVEN HILLS,NSW,2147,-33.77758,150.9343,3,2,2,ApartmentUnitFlat,Apartment / Unit / Flat,False,0,m2,False
2017638642,listing,/8-johnson-avenue-seven-hills-nsw-2147-2017638642,875000,is-sold,Sold by private treaty 29 Mar 2022,20220329,8 Johnson Avenue,SEVEN HILLS,NSW,2147,-33.75932,150.9423,3,1,2,House,House,False,600,m2,False
2017639458,listing,/49-melba-road-lalor-park-nsw-2147-2017639458,955000,is-sold,Sold by private treaty 30 Mar 2022,20220330,49 Melba Road,LALOR PARK,NSW,2147,-33.75625,150.925537,4,1,6,House,House,False,556,m2,False
2017642328,listing,/153-joseph-banks-drive-kings-langley-nsw-2147-2017642328,1268000,is-sold,Sold by private treaty 17 Mar 2022,20220317,153 Joseph Banks Drive,KINGS LANGLEY,NSW,2147,-33.75361,150.9385,3,1,2,House,House,False,697,m2,False
2017645508,listing,/46-moffatt-drive-lalor-park-nsw-2147-2017645508,960000,is-sold,Sold at auction 02 Apr 2022,20220402,46 Moffatt Drive,LALOR PARK,NSW,2147,-33.7603,150.937576,3,1,2,House,House,False,632,m2,False
2017655088,listing,/1-viola-place-lalor-park-nsw-2147-2017655088,860000,is-sold,Sold by private treaty 31 Mar 2022,20220331,1 Viola Place,LALOR PARK,NSW,2147,-33.7582321,150.9244,3,1,1,House,House,False,670,m2,False
2017674211,listing,/8-conway-place-kings-langley-nsw-2147-2017674211,1500000,is-sold,Sold by private treaty 29 Mar 2022,20220329,8 Conway Place,KINGS LANGLEY,NSW,2147,-33.7493248,150.932159,4,2,1,House,House,False,700,m2,False
2017682967,listing,/54-joseph-banks-drive-kings-langley-nsw-2147-2017682967,1410000,is-sold,Sold by private treaty 29 Mar 2022,20220329,54 Joseph Banks Drive,KINGS LANGLEY,NSW,2147,-33.7562447,150.950714,5,2,2,House,House,False,695,m2,False
2017689328,listing,/29-thomas-kelly-crescent-lalor-park-nsw-2147-2017689328,951000,is-sold,Sold by private treaty 01 Apr 2022,20220401,29 Thomas Kelly Crescent,LALOR PARK,NSW,2147,-33.7618446,150.933945,3,1,2,House,House,False,632,m2,False
2017211788,listing,/207-140b-best-road-seven-hills-nsw-2147-2017211788,515000,is-sold,Sold by private treaty 11 Mar 2022,20220311,207/140B Best Road,SEVEN HILLS,NSW,2147,-33.7764969,150.936066,2,2,1,ApartmentUnitFlat,Apartment / Unit / Flat,False,0,m2,False
2017458075,listing,/3-athabaska-avenue-seven-hills-nsw-2147-2017458075,975000,is-sold,Sold by private treaty 08 Mar 2022,20220308,3 Athabaska Avenue,SEVEN HILLS,NSW,2147,-33.786644,150.940933,3,1,3,House,House,False,556,m2,False
2017545351,listing,/10-bogan-place-seven-hills-nsw-2147-2017545351,996000,is-sold,Sold by private treaty 11 Mar 2022,20220311,10 Bogan Place,SEVEN HILLS,NSW,2147,-33.7931137,150.932266,3,1,2,House,House,False,581,m2,False
2017546383,listing,/1-wills-street-lalor-park-nsw-2147-2017546383,915000,is-sold,Sold by private treaty 07 Mar 2022,20220307,1 Wills Street,LALOR PARK,NSW,2147,-33.7622375,150.9212,4,2,1,House,House,False,575,m2,False
2017569087,listing,/301-3-first-avenue-seven-hills-nsw-2147-2017569087,683000,is-sold,Sold by private treaty 09 Mar 2022,20220309,301/3 First Avenue,SEVEN HILLS,NSW,2147,-33.7758026,150.9362,3,2,2,ApartmentUnitFlat,Apartment / Unit / Flat,False,0,m2,False
2017575659,listing,/49-briscoe-crescent-kings-langley-nsw-2147-2017575659,1305000,is-sold,Sold by private treaty 04 Mar 2022,20220304,49 Briscoe Crescent,KINGS LANGLEY,NSW,2147,-33.74563,150.922058,3,1,3,House,House,False,721,m2,False
2017577792,listing,/129-whitby-road-kings-langley-nsw-2147-2017577792,1285000,is-sold,Sold at auction 05 Mar 2022,20220305,129 Whitby Road,KINGS LANGLEY,NSW,2147,-33.7527466,150.93399,3,1,1,House,House,False,712,m2,False
2017578516,listing,/15-anne-avenue-seven-hills-nsw-2147-2017578516,960000,is-sold,Sold by private treaty 11 Mar 2022,20220311,15 Anne Avenue,SEVEN HILLS,NSW,2147,-33.772274,150.920441,3,1,2,House,House,False,595,m2,False
2017582287,listing,/32-whitby-road-kings-langley-nsw-2147-2017582287,1230000,is-sold,Sold at auction 05 Mar 2022,20220305,32 Whitby Road,KINGS LANGLEY,NSW,2147,-33.7502556,150.943573,4,4,2,House,House,False,690,m2,False
2017585291,listing,/20-jean-street-seven-hills-nsw-2147-2017585291,1050000,is-sold,Sold at auction 07 Mar 2022,20220307,20 Jean Street,SEVEN HILLS,NSW,2147,-33.7727127,150.930069,3,2,1,House,House,False,653,m2,False
2017591678,listing,/37-kennedy-parade-lalor-park-nsw-2147-2017591678,940000,is-sold,Sold by private treaty 07 Mar 2022,20220307,37 Kennedy Parade,LALOR PARK,NSW,2147,-33.7636528,150.937714,4,2,2,House,House,False,575,m2,False
2017595173,listing,/10-ennis-place-lalor-park-nsw-2147-2017595173,756000,is-sold,Sold at auction 12 Mar 2022,20220312,10 Ennis Place,LALOR PARK,NSW,2147,-33.7642555,150.932434,3,1,-,House,House,False,531,m2,False
2017596394,listing,/32-everest-street-seven-hills-nsw-2147-2017596394,1265000,is-sold,Sold at auction 12 Mar 2022,20220312,32 Everest Street,SEVEN HILLS,NSW,2147,-33.7910576,150.920029,7,3,2,House,House,False,613,m2,False
2017605501,listing,/15-perry-street-kings-langley-nsw-2147-2017605501,1322000,is-sold,Sold by private treaty 09 Mar 2022,20220309,15 Perry Street,KINGS LANGLEY,NSW,2147,-33.7528419,150.939865,5,2,2,House,House,False,695,m2,False
2017605780,listing,/3-celia-place-kings-langley-nsw-2147-2017605780,1370000,is-sold,Sold at auction 12 Mar 2022,20220312,3 Celia Place,KINGS LANGLEY,NSW,2147,-33.75413,150.935486,4,2,1,House,House,False,691,m2,False
2017607836,listing,/38-pineleigh-road-lalor-park-nsw-2147-2017607836,970750,is-sold,Sold by private treaty 10 Mar 2022,20220310,38 Pineleigh Road,LALOR PARK,NSW,2147,-33.7664337,150.941711,3,1,2,House,House,False,885,m2,False
2017610932,listing,/26-oxley-street-lalor-park-nsw-2147-2017610932,910000,is-sold,Sold by private treaty 08 Mar 2022,20220308,26 Oxley Street,LALOR PARK,NSW,2147,-33.7662621,150.923309,4,1,2,House,House,False,581,m2,False
2017618473,listing,/8-ravenhill-street-kings-langley-nsw-2147-2017618473,1525000,is-sold,Sold by private treaty 07 Mar 2022,20220307,8 Ravenhill Street,KINGS LANGLEY,NSW,2147,-33.7425957,150.921982,4,2,1,House,House,False,697,m2,False
2017630603,listing,/5-simmonds-street-kings-langley-nsw-2147-2017630603,1450000,is-sold,Sold prior to auction 11 Mar 2022,20220311,5 Simmonds Street,KINGS LANGLEY,NSW,2147,-33.75425,150.9466,3,2,2,House,House,False,696,m2,False
2017954095,listing,/3-athabaska-avenue-seven-hills-nsw-2147-2017954095,975000,is-sold,Sold by private treaty 08 Mar 2022,20220308,3 Athabaska Avenue,SEVEN HILLS,NSW,2147,-33.786644,150.940933,3,1,3,House,House,False,556,m2,False
2017360961,listing,/47-orlando-crescent-seven-hills-nsw-2147-2017360961,890000,is-sold,Sold by private treaty 19 Feb 2022,20220219,47 Orlando Crescent,SEVEN HILLS,NSW,2147,-33.777874,150.927933,3,1,2,House,House,False,563,m2,False
2017425567,listing,/104-21a-alice-street-seven-hills-nsw-2147-2017425567,568000,is-sold,Sold by private treaty 02 Mar 2022,20220302,104/21A Alice Street,SEVEN HILLS,NSW,2147,-33.7772446,150.9344,2,2,1,ApartmentUnitFlat,Apartment / Unit / Flat,False,0,m2,False
2017465384,listing,/125-vardys-road-lalor-park-nsw-2147-2017465384,871000,is-sold,Sold by private treaty 18 Feb 2022,20220218,125 Vardys Road,LALOR PARK,NSW,2147,-33.7542572,150.9313,4,1,2,House,House,False,556,m2,False
2017537306,listing,/g10-7b-olive-street-seven-hills-nsw-2147-2017537306,570000,is-sold,Sold by private treaty 19 Feb 2022,20220219,G10/7B Olive Street,SEVEN HILLS,NSW,2147,-33.77758,150.9343,2,2,2,ApartmentUnitFlat,Apartment / Unit / Flat,False,0,m2,False
2017539346,listing,/41-northcott-road-lalor-park-nsw-2147-2017539346,840000,is-sold,Sold by private treaty 02 Mar 2022,20220302,41 Northcott Road,LALOR PARK,NSW,2147,-33.76094,150.934937,3,2,2,House,House,False,613,m2,False
2017551851,listing,/25-columbia-road-seven-hills-nsw-2147-2017551851,1303000,is-sold,Sold prior to auction 18 Feb 2022,20220218,25 Columbia Road,SEVEN HILLS,NSW,2147,-33.7931023,150.922775,5,3,6,House,House,False,551,m2,False
2017559466,listing,/seven-hills-nsw-2147-2017559466,1010000,is-sold,Sold by private treaty 27 Feb 2022,20220227,,SEVEN HILLS,NSW,2147,-33.78395,150.926712,3,1,1,House,House,False,695,m2,False
2017560136,listing,/17-17a-patterson-road-lalor-park-nsw-2147-2017560136,1475000,is-sold,Sold by private treaty 18 Feb 2022,20220218,17 & 17A Patterson Road,LALOR PARK,NSW,2147,-33.75884,150.930161,8,6,4,House,House,False,550,m2,False
2017564040,listing,/3-wonga-road-lalor-park-nsw-2147-2017564040,925000,is-sold,Sold by private treaty 18 Feb 2022,20220218,3 Wonga Road,LALOR PARK,NSW,2147,-33.76054,150.940842,3,1,1,House,House,False,569,m2,False
2017566499,listing,/70-lucas-road-seven-hills-nsw-2147-2017566499,940000,is-sold,Sold by private treaty 03 Mar 2022,20220303,70 Lucas Road,SEVEN HILLS,NSW,2147,-33.76792,150.9293,2,1,-,House,House,False,765,m2,False
2017577226,listing,/12-rearden-avenue-kings-langley-nsw-2147-2017577226,1212000,is-sold,Sold by private treaty 28 Feb 2022,20220228,12 Rearden Avenue,KINGS LANGLEY,NSW,2147,-33.75651,150.943573,3,1,3,House,House,False,0,m2,False
2017577334,listing,/24-yvonne-street-seven-hills-nsw-2147-2017577334,900000,is-sold,Sold prior to auction 17 Feb 2022,20220217,24 Yvonne Street,SEVEN HILLS,NSW,2147,-33.76125,150.946259,3,1,2,House,House,False,556,m2,False
2017577716,listing,/17-anne-avenue-seven-hills-nsw-2147-2017577716,1120000,is-sold,Sold by private treaty 25 Feb 2022,20220225,17 Anne Avenue,SEVEN HILLS,NSW,2147,-33.7721748,150.920212,4,2,2,House,House,False,602,m2,False
2017580454,listing,/19-blaxland-street-lalor-park-nsw-2147-2017580454,841000,is-sold,Sold by private treaty 03 Mar 2022,20220303,19 Blaxland Street,LALOR PARK,NSW,2147,-33.76421,150.927444,3,1,2,House,House,False,588,m2,False
2017589331,listing,/6-dulcie-street-seven-hills-nsw-2147-2017589331,1140000,is-sold,Sold by private treaty 19 Feb 2022,20220219,6 Dulcie Street,SEVEN HILLS,NSW,2147,-33.77085,150.92157,3,1,-,House,House,False,0,m2,False
2017602223,listing,/18-orana-avenue-seven-hills-nsw-2147-2017602223,960000,is-sold,Sold prior to auction 25 Feb 2022,20220225,18 Orana Avenue,SEVEN HILLS,NSW,2147,-33.7768555,150.923035,3,1,3,House,House,False,556,m2,False
2017608806,listing,/11-jura-place-seven-hills-nsw-2147-2017608806,1145000,is-sold,Sold by private treaty 01 Mar 2022,20220301,11 Jura Place,SEVEN HILLS,NSW,2147,-33.7898254,150.924255,3,1,1,House,House,False,556,m2,False
2017615068,listing,/13-15-carter-street-seven-hills-nsw-2147-2017615068,920000,is-sold,Sold by private treaty 04 Mar 2022,20220304,13/15 Carter Street,SEVEN HILLS,NSW,2147,-33.7804337,150.9463,5,3,2,Townhouse,Townhouse,False,0,m2,False
2017911352,listing,/125-vardys-road-lalor-park-nsw-2147-2017911352,871000,is-sold,Sold by private treaty 18 Feb 2022,20220218,125 Vardys Road,LALOR PARK,NSW,2147,-33.7542572,150.9313,4,1,2,House,House,False,556,m2,False
2017986826,listing,/11-jura-place-seven-hills-nsw-2147-2017986826,1145000,is-sold,Sold by private treaty 01 Mar 2022,20220301,11 Jura Place,SEVEN HILLS,NSW,2147,-33.7898254,150.924255,3,1,1,House,House,False,556,m2,False
2017043421,listing,/lot-51-cooinda-street-seven-hills-nsw-2147-2017043421,960000,is-sold,Sold at auction 09 Feb 2022,20220209,Lot 51 Cooinda Street,SEVEN HILLS,NSW,2147,-33.7661171,150.944244,-,-,-,VacantLand,Vacant land,False,556,m2,False
2017425710,listing,/25-wills-street-lalor-park-nsw-2147-2017425710,850000,is-sold,Sold by private treaty 05 Feb 2022,20220205,25 Wills Street,LALOR PARK,NSW,2147,-33.7637978,150.92157,4,1,2,House,House,False,524,m2,False
2017426122,listing,/50-australorp-avenue-seven-hills-nsw-2147-2017426122,945000,is-sold,Sold by private treaty 15 Feb 2022,20220215,50 Australorp Avenue,SEVEN HILLS,NSW,2147,-33.78257,150.931763,3,1,1,House,House,False,450,m2,False
2017469369,listing,/15-harwood-street-seven-hills-nsw-2147-2017469369,1255000,is-sold,Sold by private treaty 11 Feb 2022,20220211,15 Harwood Street,SEVEN HILLS,NSW,2147,-33.7848549,150.9398,4,3,6,House,House,False,556,m2,False
2017486558,listing,/72-sutherland-avenue-kings-langley-nsw-2147-2017486558,1500000,is-sold,Sold by private treaty 04 Feb 2022,20220204,72 Sutherland Avenue,KINGS LANGLEY,NSW,2147,-33.7480927,150.929077,5,3,1,House,House,False,697,m2,False
2017503304,listing,/40-molyneaux-avenue-kings-langley-nsw-2147-2017503304,1400000,is-sold,Sold by private treaty 08 Feb 2022,20220208,40 Molyneaux Avenue,KINGS LANGLEY,NSW,2147,-33.75157,150.941772,4,1,2,House,House,False,690,m2,False
2017504654,listing,/15-katrina-street-seven-hills-nsw-2147-2017504654,1130000,is-sold,Sold by private treaty 10 Feb 2022,20220210,15 Katrina Street,SEVEN HILLS,NSW,2147,-33.76048,150.944809,4,1,3,House,House,False,608,m2,False
2017513734,listing,/3-molyneaux-avenue-kings-langley-nsw-2147-2017513734,1460000,is-sold,Sold by private treaty 04 Feb 2022,20220204,3 Molyneaux Avenue,KINGS LANGLEY,NSW,2147,-33.7496223,150.938614,4,2,2,House,House,False,696,m2,False
2017521966,listing,/54-northcott-road-lalor-park-nsw-2147-2017521966,820000,is-sold,Sold by private treaty 09 Feb 2022,20220209,54 Northcott Road,LALOR PARK,NSW,2147,-33.7613831,150.93634,2,1,-,House,House,False,581,m2,False
2017523962,listing,/17-burke-road-lalor-park-nsw-2147-2017523962,1042000,is-sold,Sold by private treaty 16 Feb 2022,20220216,17 Burke Road,LALOR PARK,NSW,2147,-33.7643242,150.935989,5,2,1,House,House,False,607,m2,False
2017527438,listing,/8-ellis-place-kings-langley-nsw-2147-2017527438,1261000,is-sold,Sold at auction 12 Feb 2022,20220212,8 Ellis Place,KINGS LANGLEY,NSW,2147,-33.7496452,150.944183,3,2,1,House,House,False,690,m2,False
2017528326,listing,/66-james-cook-drive-kings-langley-nsw-2147-2017528326,1175000,is-sold,Sold at auction 09 Feb 2022,20220209,66 James Cook Drive,KINGS LANGLEY,NSW,2147,-33.7450523,150.929214,3,1,1,House,House,False,698,m2,False
2017530204,listing,/5-maughan-street-lalor-park-nsw-2147-2017530204,710000,is-sold,Sold by private treaty 10 Feb 2022,20220210,5 Maughan Street,LALOR PARK,NSW,2147,-33.764473,150.930023,2,1,1,House,House,False,556,m2,False
2017536778,listing,/15-kennedy-parade-lalor-park-nsw-2147-2017536778,845000,is-sold,Sold by private treaty 11 Feb 2022,20220211,15 Kennedy Parade,LALOR PARK,NSW,2147,-33.76212,150.938431,3,1,-,House,House,False,619,m2,False
2017543817,listing,/77-mississippi-road-seven-hills-nsw-2147-2017543817,877250,is-sold,Sold by private treaty 16 Feb 2022,20220216,77 Mississippi Road,SEVEN HILLS,NSW,2147,-33.7909431,150.929535,3,1,2,House,House,False,556,m2,False
2017549303,listing,/14-funda-crescent-lalor-park-nsw-2147-2017549303,817000,is-sold,Sold by private treaty 11 Feb 2022,20220211,14 Funda Crescent,LALOR PARK,NSW,2147,-33.76437,150.931488,2,1,2,House,House,False,562,m2,False
2017555545,listing,/24-katrina-street-seven-hills-nsw-2147-2017555545,1050000,is-sold,Sold by private treaty 07 Feb 2022,20220207,24 Katrina Street,SEVEN HILLS,NSW,2147,-33.760994,150.94487,4,2,2,House,House,False,578,m2,False
2017581647,listing,/5-pineleigh-road-lalor-park-nsw-2147-2017581647,920000,is-sold,Sold by private treaty 12 Feb 2022,20220212,5 Pineleigh Road,LALOR PARK,NSW,2147,-33.76406,150.942261,3,1,2,House,House,False,575,m2,False
2017581716,listing,/502-8-george-street-seven-hills-nsw-2147-2017581716,Price Withheld,is-sold,Sold by private treaty 09 Feb 2022,20220209,502/8 George Street,SEVEN HILLS,NSW,2147,-33.7773438,150.935349,-,-,-,ApartmentUnitFlat,Apartment / Unit / Flat,False,0,m2,False
2017597838,listing,/19-williamson-avenue-seven-hills-nsw-2147-2017597838,Price Withheld,is-sold,Sold by private treaty 15 Feb 2022,20220215,19 Williamson Avenue,SEVEN HILLS,NSW,2147,-33.7685738,150.9393,3,1,-,House,House,False,645,m2,False
2017452119,listing,/32-katrina-street-seven-hills-nsw-2147-2017452119,1130000,is-sold,Sold by private treaty 24 Jan 2022,20220124,32 Katrina Street,SEVEN HILLS,NSW,2147,-33.760807,150.945618,4,2,2,House,House,False,681,m2,False
2017465027,listing,/4-112-seven-hills-road-seven-hills-nsw-2147-2017465027,700000,is-sold,Sold by private treaty 23 Jan 2022,20220123,4/112 Seven Hills Road,SEVEN HILLS,NSW,2147,-33.7825737,150.9261,3,2,1,Villa,Villa,False,307,m2,False
2017468550,listing,/10-hugh-place-kings-langley-nsw-2147-2017468550,1470000,is-sold,Sold by private treaty 02 Feb 2022,20220202,10 Hugh Place,KINGS LANGLEY,NSW,2147,-33.7521629,150.93248,5,3,2,House,House,False,691,m2,False
2017475529,listing,/54-lawson-street-lalor-park-nsw-2147-2017475529,1160000,is-sold,Sold by private treaty 21 Jan 2022,20220121,54 Lawson Street,LALOR PARK,NSW,2147,-33.7604141,150.920578,5,3,1,House,House,False,301,m2,False
2017478155,listing,/16-john-dwyer-road-lalor-park-nsw-2147-2017478155,1150000,is-sold,Sold by private treaty 28 Jan 2022,20220128,16 John Dwyer Road,LALOR PARK,NSW,2147,-33.76246,150.933136,4,2,2,House,House,False,594,m2,False
2017503311,listing,/4-gathrey-crescent-kings-langley-nsw-2147-2017503311,1540000,is-sold,Sold at auction 29 Jan 2022,20220129,4 Gathrey Crescent,KINGS LANGLEY,NSW,2147,-33.74715,150.929764,4,2,2,House,House,False,715,m2,False
2017503313,listing,/26-kennedy-parade-lalor-park-nsw-2147-2017503313,900000,is-sold,Sold prior to auction 27 Jan 2022,20220127,26 Kennedy Parade,LALOR PARK,NSW,2147,-33.76378,150.938217,3,1,1,House,House,False,562,m2,False
2017503317,listing,/34-gathrey-crescent-kings-langley-nsw-2147-2017503317,1275000,is-sold,Sold at auction 29 Jan 2022,20220129,34 Gathrey Crescent,KINGS LANGLEY,NSW,2147,-33.7452736,150.927887,3,1,2,House,House,False,864,m2,False
2017503318,listing,/31-oldfield-road-seven-hills-nsw-2147-2017503318,980000,is-sold,Sold prior to auction 25 Jan 2022,20220125,31 Oldfield Road,SEVEN HILLS,NSW,2147,-33.7790451,150.9283,5,2,2,House,House,False,556,m2,False
2017503355,listing,/34-mississippi-road-seven-hills-nsw-2147-2017503355,1000000,is-sold,Sold by private treaty 28 Jan 2022,20220128,34 Mississippi Road,SEVEN HILLS,NSW,2147,-33.78938,150.926712,4,1,1,House,House,False,556,m2,False
2017505664,listing,/38-shannon-street-lalor-park-nsw-2147-2017505664,880000,is-sold,Sold by private treaty 25 Jan 2022,20220125,38 Shannon Street,LALOR PARK,NSW,2147,-33.75644,150.93576,3,1,2,House,House,False,556,m2,False
2017506745,listing,/57-solander-road-kings-langley-nsw-2147-2017506745,1288500,is-sold,Sold at auction 31 Jan 2022,20220131,57 Solander Road,KINGS LANGLEY,NSW,2147,-33.7582436,150.946991,3,1,2,House,House,False,929,m2,False
2017509569,listing,/59-sporing-avenue-kings-langley-nsw-2147-2017509569,1590000,is-sold,Sold at auction 29 Jan 2022,20220129,59 Sporing Avenue,KINGS LANGLEY,NSW,2147,-33.7457123,150.936691,5,4,2,House,House,False,697,m2,False
2017518067,listing,/9-funda-crescent-lalor-park-nsw-2147-2017518067,820000,is-sold,Sold by private treaty 01 Feb 2022,20220201,9 Funda Crescent,LALOR PARK,NSW,2147,-33.76409,150.932114,2,1,2,House,House,False,581,m2,False
2017518534,listing,/24-williamson-avenue-seven-hills-nsw-2147-2017518534,1120000,is-sold,Sold by private treaty 28 Jan 2022,20220128,24 Williamson Avenue,SEVEN HILLS,NSW,2147,-33.7687,150.9387,3,1,2,House,House,False,695,m2,False
2017520882,listing,/6-banksia-close-kings-langley-nsw-2147-2017520882,1600000,is-sold,Sold prior to auction 03 Feb 2022,20220203,"6 Banksia Close,",KINGS LANGLEY,NSW,2147,-33.7567825,150.9413,5,3,4,House,House,False,706,m2,False
2017524041,listing,/14-dorlton-street-kings-langley-nsw-2147-2017524041,1510000,is-sold,Sold by private treaty 03 Feb 2022,20220203,14 Dorlton Street,KINGS LANGLEY,NSW,2147,-33.74975,150.931168,5,2,2,House,House,False,714,m2,False
2017533775,listing,/5-gilmore-road-lalor-park-nsw-2147-2017533775,1055000,is-sold,Sold by private treaty 25 Jan 2022,20220125,5 Gilmore Road,LALOR PARK,NSW,2147,-33.7569923,150.931534,2,1,2,House,House,False,619,m2,False
