id,listingType,url,price,tagClassName,tagText,date,street,suburb,state,postcode,lat,lng,beds,baths,parking,propertyType,propertyTypeFormatted,isRural,landSize,landUnit,isRetirement
2017989358,listing,/106-1a-mills-road-glenhaven-nsw-2156-2017989358,,is-sold,Sold by private treaty 16 Dec 2022,20221216,106/1a Mills Road,GLENHAVEN,NSW,2156,-33.6975822,150.989624,3,3,3,Villa,Villa,False,0.0,m2,True
2018031608,listing,/10-o-keefe-road-annangrove-nsw-2156-2018031608,3225000,is-sold,Sold by private treaty 06 Feb 2023,20230206,10 O'Keefe Road,ANNANGROVE,NSW,2156,-33.6533775,150.951324,7,7,7,House,House,True,2.02,ha,False
2018035322,listing,/6-sylvan-grove-glenhaven-nsw-2156-2018035322,,is-sold,Sold by private treaty 30 Nov 2022,20221130,6 Sylvan Grove,GLENHAVEN,NSW,2156,-33.7009,151.000427,4,4,4,House,House,False,3647.0,m2,False
2018055702,listing,/31-sandhurst-crescent-glenhaven-nsw-2156-2018055702,3200000,is-sold,Sold by private treaty 23 Dec 2022,20221223,31 Sandhurst Crescent,GLENHAVEN,NSW,2156,-33.7106476,151.008453,5,5,5,House,House,False,885.0,m2,False
2018148855,listing,/404a-old-northern-road-glenhaven-nsw-2156-2018148855,,is-sold,Sold by private treaty 22 Dec 2022,20221222,404A Old Northern Road,GLENHAVEN,NSW,2156,-33.7126274,151.01207,5,5,5,House,House,False,2137.0,m2,False
2018161708,listing,/4-fuggles-road-kenthurst-nsw-2156-2018161708,,is-sold,Sold by private treaty 01 Feb 2023,20230201,4 Fuggles Road,KENTHURST,NSW,2156,-33.6519661,150.981567,8,8,8,House,House,True,2.02,ha,False
2018170400,listing,/7-binet-way-glenhaven-nsw-2156-2018170400,3850000,is-sold,Sold by private treaty 16 Dec 2022,20221216,7 Binet Way,GLENHAVEN,NSW,2156,-33.71022,151.009979,5,5,5,House,House,False,2575.0,m2,False
2018170703,listing,/161-annangrove-road-annangrove-nsw-2156-2018170703,8200000,is-sold,Sold by private treaty 23 Feb 2023,20230223,161 Annangrove Road,ANNANGROVE,NSW,2156,-33.6723,150.958755,5,5,5,AcreageSemiRural,Acreage / Semi-Rural,True,9.57,ha,False
2018183232,listing,/5-smerdon-place-kenthurst-nsw-2156-2018183232,2900000,is-sold,Sold by private treaty 09 Feb 2023,20230209,5 Smerdon Place,KENTHURST,NSW,2156,-33.6255,150.9646,5,5,5,House,House,True,1.01,ha,False
2018184504,listing,/14-robson-road-kenthurst-nsw-2156-2018184504,3000000,is-sold,Sold at auction 03 Dec 2022,20221203,14 Robson Road,KENTHURST,NSW,2156,-33.6896,150.9709,4,4,4,AcreageSemiRural,Acreage / Semi-Rural,True,2.16,ha,False
2018210839,listing,/20-mills-road-glenhaven-nsw-2156-2018210839,2500000,is-sold,Sold by private treaty 22 Feb 2023,20230222,20 Mills Road,GLENHAVEN,NSW,2156,-33.7001534,150.989624,5,5,5,House,House,False,1017.0,m2,False
2018216060,listing,/149-kenthurst-road-kenthurst-nsw-2156-2018216060,,is-sold,Sold by private treaty 20 Dec 2022,20221220,149 Kenthurst Road,KENTHURST,NSW,2156,-33.65768,151.005386,3,3,3,House,House,True,2.0,ha,False
2018245293,listing,/23-25-porters-road-kenthurst-nsw-2156-2018245293,,is-sold,Sold by private treaty 02 Feb 2023,20230202,23-25 Porters Road,KENTHURST,NSW,2156,-33.6472855,151.001663,8,8,8,AcreageSemiRural,Acreage / Semi-Rural,True,2.0,ha,False
2018266309,listing,/8-carnarvon-avenue-glenhaven-nsw-2156-2018266309,3255000,is-sold,Sold by private treaty 14 Dec 2022,20221214,8 Carnarvon Avenue,GLENHAVEN,NSW,2156,-33.71075,151.006424,4,4,4,House,House,False,0.0,m2,False
2018288045,listing,/16-blaxland-place-glenhaven-nsw-2156-2018288045,,is-sold,Sold by private treaty 03 Feb 2023,20230203,16 Blaxland Place,GLENHAVEN,NSW,2156,-33.707325,151.004684,4,4,4,House,House,False,919.0,m2,False
2018309589,listing,/13-araluen-place-glenhaven-nsw-2156-2018309589,2725000,is-sold,Sold at auction 18 Feb 2023,20230218,13 Araluen Place,GLENHAVEN,NSW,2156,-33.7030067,150.991089,6,6,6,House,House,False,3612.0,m2,False
2018316065,listing,/22-fullers-road-glenhaven-nsw-2156-2018316065,2050000,is-sold,Sold by private treaty 10 Feb 2023,20230210,22 Fullers Road,GLENHAVEN,NSW,2156,-33.706955,151.007767,3,3,3,House,House,False,928.0,m2,False
2018322985,listing,/15-camille-place-glenhaven-nsw-2156-2018322985,1835000,is-sold,Sold at auction 25 Feb 2023,20230225,15 Camille Place,GLENHAVEN,NSW,2156,-33.69789,150.998138,4,4,4,House,House,False,971.0,m2,False
2018340492,listing,/7-davis-place-glenhaven-nsw-2156-2018340492,1800000,is-sold,Sold by private treaty 08 Feb 2023,20230208,7 Davis Place,GLENHAVEN,NSW,2156,-33.7021179,150.99527,,,,VacantLand,Vacant land,False,1097.0,m2,False
2018357083,listing,/46a-old-glenhaven-road-glenhaven-nsw-2156-2018357083,2425000,is-sold,Sold prior to auction 01 Mar 2023,20230301,46a Old Glenhaven Road,GLENHAVEN,NSW,2156,-33.6960258,150.995682,5,5,5,House,House,False,1031.0,m2,False
2017625333,listing,/5-and-5a-lisbon-road-kenthurst-nsw-2156-2017625333,9500000,is-sold,Sold by private treaty 07 Nov 2022,20221107,5 and 5A Lisbon Road,KENTHURST,NSW,2156,-33.6575661,150.993973,7,7,7,House,House,True,2.02,ha,False
2017849168,listing,/172-glenhaven-road-glenhaven-nsw-2156-2017849168,4350000,is-sold,Sold by private treaty 30 Sep 2022,20220930,172 Glenhaven Road,GLENHAVEN,NSW,2156,-33.69609,150.979858,4,4,4,AcreageSemiRural,Acreage / Semi-Rural,True,1.18,ha,False
2017869321,listing,/166-glenhaven-road-glenhaven-nsw-2156-2017869321,3200000,is-sold,Sold by private treaty 25 Nov 2022,20221125,166 Glenhaven Road,GLENHAVEN,NSW,2156,-33.69597,150.982483,3,3,3,House,House,True,2.19,ha,False
2017932900,listing,/11-binalong-road-kenthurst-nsw-2156-2017932900,2660000,is-sold,Sold by private treaty 14 Nov 2022,20221114,11 Binalong Road,KENTHURST,NSW,2156,-33.6430855,150.967758,5,5,5,House,House,True,2.26,ha,False
2017985577,listing,/annangrove-nsw-2156-2017985577,,is-sold,Sold by private treaty 09 Nov 2022,20221109,,ANNANGROVE,NSW,2156,-33.65788,150.942047,8,8,8,House,House,True,2.0,ha,False
2018037554,listing,/16-lang-road-kenthurst-nsw-2156-2018037554,3525000,is-sold,Sold by private treaty 08 Oct 2022,20221008,16 Lang Road,KENTHURST,NSW,2156,-33.6394157,150.948959,4,4,4,House,House,True,2.02,ha,False
2018062458,listing,/46-colbran-avenue-kenthurst-nsw-2156-2018062458,3200000,is-sold,Sold at auction 05 Oct 2022,20221005,46 Colbran Avenue,KENTHURST,NSW,2156,-33.6830444,150.965118,5,5,5,AcreageSemiRural,Acreage / Semi-Rural,True,2.0,ha,False
2018077984,listing,/179-179a-annangrove-road-annangrove-nsw-2156-2018077984,,is-sold,Sold at auction 20 Oct 2022,20221020,179-179a Annangrove Road,ANNANGROVE,NSW,2156,-33.6686745,150.953812,9,9,9,House,House,True,2.23,ha,False
2018078857,listing,/13a-campbell-road-kenthurst-nsw-2156-2018078857,4700000,is-sold,Sold by private treaty 02 Nov 2022,20221102,13a Campbell Road,KENTHURST,NSW,2156,-33.6601334,150.969147,6,6,6,House,House,True,1.73,ha,False
2018096827,listing,/61-carinda-drive-glenhaven-nsw-2156-2018096827,3780000,is-sold,Sold by private treaty 16 Nov 2022,20221116,61 Carinda Drive,GLENHAVEN,NSW,2156,-33.70156,150.988327,6,6,6,House,House,False,1304.0,m2,False
2018098533,listing,/48-doherty-avenue-glenhaven-nsw-2156-2018098533,2750000,is-sold,Sold at auction 29 Oct 2022,20221029,48 Doherty Avenue,GLENHAVEN,NSW,2156,-33.70561,151.009232,5,5,5,House,House,False,907.0,m2,False
2018099237,listing,/1b-fullers-road-glenhaven-nsw-2156-2018099237,2800000,is-sold,Sold prior to auction 25 Oct 2022,20221025,1B Fullers Road,GLENHAVEN,NSW,2156,-33.70723,151.0104,4,4,4,House,House,False,700.0,m2,False
2018130099,listing,/33-linksley-avenue-glenhaven-nsw-2156-2018130099,2147000,is-sold,Sold at auction 12 Nov 2022,20221112,33 Linksley Avenue,GLENHAVEN,NSW,2156,-33.71049,150.9994,4,4,4,House,House,False,1409.0,m2,False
2018153670,listing,/19-burrell-road-kenthurst-nsw-2156-2018153670,3146500,is-sold,Sold by private treaty 18 Nov 2022,20221118,19 Burrell Road,KENTHURST,NSW,2156,-33.64777,150.9516,5,5,5,House,House,True,2.02,ha,False
2018159856,listing,/13-sylvan-grove-glenhaven-nsw-2156-2018159856,,is-sold,Sold by private treaty 22 Nov 2022,20221122,13 Sylvan Grove,GLENHAVEN,NSW,2156,-33.7000656,150.998428,5,5,5,House,House,False,1018.0,m2,False
2018175247,listing,/68-porters-road-kenthurst-nsw-2156-2018175247,,is-sold,Sold at auction 27 Nov 2022,20221127,68 Porters Road,KENTHURST,NSW,2156,-33.6410141,150.981537,4,4,4,House,House,True,2.02,ha,False
2018182517,listing,/21-grange-road-glenhaven-nsw-2156-2018182517,2010000,is-sold,Sold by private treaty 25 Nov 2022,20221125,21 Grange Road,GLENHAVEN,NSW,2156,-33.7073479,151.00618,4,4,4,House,House,False,952.0,m2,False
2018186259,listing,/50-sandhurst-crescent-glenhaven-nsw-2156-2018186259,3255000,is-sold,Sold prior to auction 27 Nov 2022,20221127,50 Sandhurst Crescent,GLENHAVEN,NSW,2156,-33.7136536,151.008316,7,7,7,House,House,False,1102.0,m2,False
2018198092,listing,/5-hafey-road-kenthurst-nsw-2156-2018198092,3150000,is-sold,Sold by private treaty 23 Nov 2022,20221123,5 Hafey Road,KENTHURST,NSW,2156,-33.6388969,150.9964,4,4,4,House,House,True,2.0,ha,False
2018222783,listing,/7-glenhaven-road-glenhaven-nsw-2156-2018222783,6800000,is-sold,Sold by private treaty 16 Nov 2022,20221116,7 Glenhaven Road,GLENHAVEN,NSW,2156,-33.7024765,151.00914,4,4,4,House,House,True,2.0,ha,False
2017757785,listing,/93-pitt-town-road-kenthurst-nsw-2156-2017757785,5480000,is-sold,Sold by private treaty 26 Aug 2022,20220826,93 Pitt Town Road,KENTHURST,NSW,2156,-33.6551476,150.967545,9,9,9,House,House,True,2.02,ha,False
2017813768,listing,/9-sandhurst-crescent-glenhaven-nsw-2156-2017813768,2610000,is-sold,Sold by private treaty 18 Aug 2022,20220818,9 Sandhurst Crescent,GLENHAVEN,NSW,2156,-33.7095528,151.006424,5,5,5,House,House,False,1010.0,m2,False
2017821775,listing,/52-annangrove-road-kenthurst-nsw-2156-2017821775,4900000,is-sold,Sold prior to auction 31 Aug 2022,20220831,52 Annangrove Road,KENTHURST,NSW,2156,-33.6820374,150.99559,5,5,5,House,House,False,5716.0,m2,False
2017825370,listing,/1a-timber-grove-glenhaven-nsw-2156-2017825370,1490000,is-sold,Sold by private treaty 29 Sep 2022,20220929,1A Timber Grove,GLENHAVEN,NSW,2156,-33.7108765,150.99762,,,,VacantLand,Vacant land,False,700.0,m2,False
2017884222,listing,/71-fingal-avenue-glenhaven-nsw-2156-2017884222,2399760,is-sold,Sold by private treaty 11 Aug 2022,20220811,71 Fingal Avenue,GLENHAVEN,NSW,2156,-33.7046432,150.997238,,,,VacantLand,Vacant land,False,4000.0,m2,False
2017887420,listing,/7-lisbon-road-kenthurst-nsw-2156-2017887420,4055000,is-sold,Sold by private treaty 11 Aug 2022,20220811,7 Lisbon Road,KENTHURST,NSW,2156,-33.65866,150.993835,6,6,6,House,House,True,2.02,ha,False
2017911200,listing,/119-pitt-town-road-kenthurst-nsw-2156-2017911200,2600000,is-sold,Sold by private treaty 29 Sep 2022,20220929,119 Pitt Town Road,KENTHURST,NSW,2156,-33.648983,150.960419,6,6,6,House,House,True,3.3,ha,False
2017933961,listing,/21-parkcrest-place-kenthurst-nsw-2156-2017933961,2815000,is-sold,Sold by private treaty 09 Sep 2022,20220909,21 Parkcrest Place,KENTHURST,NSW,2156,-33.6320839,150.969,5,5,5,House,House,True,1.09,ha,False
2017938246,listing,/109-1a-mills-road-glenhaven-nsw-2156-2017938246,745000,is-sold,Sold by private treaty 08 Sep 2022,20220908,109/1a Mills Road,GLENHAVEN,NSW,2156,-33.6972122,150.989838,2,2,2,Villa,Villa,False,0.0,m2,True
2017941394,listing,/194a-annangrove-road-annangrove-nsw-2156-2017941394,4020000,is-sold,Sold at auction 13 Aug 2022,20220813,194a Annangrove Road,ANNANGROVE,NSW,2156,-33.6700249,150.953018,3,3,3,House,House,True,2.82,ha,False
2017958743,listing,/6-marieba-road-kenthurst-nsw-2156-2017958743,3450000,is-sold,Sold by private treaty 29 Aug 2022,20220829,6 Marieba Road,KENTHURST,NSW,2156,-33.64173,150.980515,4,4,4,House,House,True,2.02,ha,False
2017958868,listing,/2-davis-place-glenhaven-nsw-2156-2017958868,2005000,is-sold,Sold by private treaty 26 Aug 2022,20220826,2 Davis Place,GLENHAVEN,NSW,2156,-33.7031326,150.996262,6,6,6,House,House,False,909.0,m2,False
2017959597,listing,/42-sandhurst-crescent-glenhaven-nsw-2156-2017959597,2750000,is-sold,Sold by private treaty 06 Sep 2022,20220906,42 Sandhurst Crescent,GLENHAVEN,NSW,2156,-33.713295,151.008957,5,5,5,House,House,False,1387.0,m2,False
2017973828,listing,/22-marieba-road-kenthurst-nsw-2156-2017973828,3642500,is-sold,Sold by private treaty 10 Aug 2022,20220810,22 Marieba Road,KENTHURST,NSW,2156,-33.6406364,150.97641,6,6,6,House,House,True,2.02,ha,False
2017974744,listing,/19-natalie-court-glenhaven-nsw-2156-2017974744,1850000,is-sold,Sold at auction 27 Aug 2022,20220827,19 Natalie Court,GLENHAVEN,NSW,2156,-33.7036819,151.0066,4,4,4,House,House,False,743.0,m2,False
2018018013,listing,/57-greenbank-drive-glenhaven-nsw-2156-2018018013,1850000,is-sold,Sold by private treaty 20 Sep 2022,20220920,57 Greenbank Drive,GLENHAVEN,NSW,2156,-33.7082634,150.99913,4,4,4,House,House,False,1209.0,m2,False
2018028345,listing,/11-roughley-road-kenthurst-nsw-2156-2018028345,2200000,is-sold,Sold by private treaty 11 Aug 2022,20220811,11 Roughley Road,KENTHURST,NSW,2156,-33.6354179,150.99733,3,3,3,House,House,True,2.02,ha,False
2018061170,listing,/12-fuggles-road-kenthurst-nsw-2156-2018061170,4950000,is-sold,Sold by private treaty 27 Sep 2022,20220927,12 Fuggles Road,KENTHURST,NSW,2156,-33.6505,150.979309,6,6,6,House,House,True,2.02,ha,False
2018063166,listing,/kenthurst-nsw-2156-2018063166,,is-sold,Sold by private treaty 09 Sep 2022,20220909,,KENTHURST,NSW,2156,-33.66583,151.003571,5,5,5,House,House,True,2.02,ha,False
2018075478,listing,/26-mills-road-glenhaven-nsw-2156-2018075478,2600000,is-sold,Sold by private treaty 30 Sep 2022,20220930,26 Mills Road,GLENHAVEN,NSW,2156,-33.70105,150.989212,5,5,5,House,House,False,974.0,m2,False
2017652156,listing,/48-annangrove-road-kenthurst-nsw-2156-2017652156,2280000,is-sold,Sold by private treaty 13 Jul 2022,20220713,48 Annangrove Road,KENTHURST,NSW,2156,-33.68213,150.996552,4,4,4,House,House,True,2.44,ha,False
2017744379,listing,/5-blaxland-place-glenhaven-nsw-2156-2017744379,2840000,is-sold,Sold by private treaty 08 Jul 2022,20220708,5 Blaxland Place,GLENHAVEN,NSW,2156,-33.7068558,151.003632,4,4,4,House,House,False,4032.0,m2,False
2017757355,listing,/167-annangrove-road-annangrove-nsw-2156-2017757355,,is-sold,Sold by private treaty 29 Jul 2022,20220729,167 Annangrove Road,ANNANGROVE,NSW,2156,-33.669445,150.9566,4,4,4,House,House,True,1.66,ha,False
2017762835,listing,/22-fingal-avenue-glenhaven-nsw-2156-2017762835,2300000,is-sold,Sold by private treaty 22 Jul 2022,20220722,22 Fingal Avenue,GLENHAVEN,NSW,2156,-33.7019463,150.994125,4,4,4,House,House,False,966.0,m2,False
2017802364,listing,/2-blaxland-place-glenhaven-nsw-2156-2017802364,1830000,is-sold,Sold by private treaty 21 Jun 2022,20220621,2 Blaxland Place,GLENHAVEN,NSW,2156,-33.706356,151.004242,4,4,4,House,House,False,902.0,m2,False
2017817217,listing,/5-viria-court-glenhaven-nsw-2156-2017817217,2250000,is-sold,Sold at auction 22 Jul 2022,20220722,5 Viria Court,GLENHAVEN,NSW,2156,-33.7078438,151.007248,5,5,5,House,House,False,916.0,m2,False
2017831546,listing,/24-greenbank-drive-glenhaven-nsw-2156-2017831546,2375000,is-sold,Sold by private treaty 22 Jul 2022,20220722,24 Greenbank Drive,GLENHAVEN,NSW,2156,-33.7089958,151.00206,4,4,4,House,House,False,1044.0,m2,False
2017848176,listing,/18-greenbank-drive-glenhaven-nsw-2156-2017848176,1800000,is-sold,Sold by private treaty 15 Jul 2022,20220715,18 Greenbank Drive,GLENHAVEN,NSW,2156,-33.709156,151.0027,4,4,4,House,House,False,1062.0,m2,False
2017869030,listing,/8-dural-street-kenthurst-nsw-2156-2017869030,1625000,is-sold,Sold by private treaty 07 Jul 2022,20220707,8 Dural Street,KENTHURST,NSW,2156,-33.6643829,151.0049,5,5,5,House,House,False,961.0,m2,False
2017874211,listing,/400a-old-northern-road-glenhaven-nsw-2156-2017874211,3300000,is-sold,Sold prior to auction 28 Jun 2022,20220628,400A Old Northern Road,GLENHAVEN,NSW,2156,-33.71319,151.012909,4,4,4,House,House,False,3.0,m2,False
2017880205,listing,/162a-annangrove-road-annangrove-nsw-2156-2017880205,3100000,is-sold,Sold prior to auction 08 Aug 2022,20220808,162A Annangrove Road,ANNANGROVE,NSW,2156,-33.6744,150.961655,5,5,5,AcreageSemiRural,Acreage / Semi-Rural,True,0.0,m2,False
2017887010,listing,/8-golders-green-way-glenhaven-nsw-2156-2017887010,3050000,is-sold,Sold by private treaty 24 Jun 2022,20220624,8 Golders Green Way,GLENHAVEN,NSW,2156,-33.7117462,151.008362,5,5,5,House,House,False,999.0,m2,False
2017893026,listing,/31-hyde-avenue-glenhaven-nsw-2156-2017893026,1990000,is-sold,Sold by private treaty 27 Jul 2022,20220727,31 Hyde Avenue,GLENHAVEN,NSW,2156,-33.70284,151.00058,5,5,5,House,House,False,1052.0,m2,False
2017895524,listing,/9-araluen-place-glenhaven-nsw-2156-2017895524,4000000,is-sold,Sold by private treaty 25 Jul 2022,20220725,9 Araluen Place,GLENHAVEN,NSW,2156,-33.7036133,150.991577,4,4,4,House,House,False,2597.0,m2,False
2017897005,listing,/581-old-northern-road-glenhaven-nsw-2156-2017897005,5460000,is-sold,Sold at auction 30 Jul 2022,20220730,581 Old Northern Road,GLENHAVEN,NSW,2156,-33.7133522,151.016022,5,5,5,House,House,True,1.77,ha,False
2017901005,listing,/6-mitchell-place-kenthurst-nsw-2156-2017901005,2700000,is-sold,Sold by private treaty 25 Jul 2022,20220725,6 Mitchell Place,KENTHURST,NSW,2156,-33.67647,151.0124,6,6,6,House,House,True,2.02,ha,False
2017911257,listing,/102-annangrove-road-annangrove-nsw-2156-2017911257,5300000,is-sold,Sold at auction 30 Jul 2022,20220730,102 Annangrove Road,ANNANGROVE,NSW,2156,-33.681488,150.979034,4,4,4,House,House,True,1.87,ha,False
2017913688,listing,/10-grange-road-glenhaven-nsw-2156-2017913688,1515000,is-sold,Sold at auction 28 Jul 2022,20220728,10 Grange Road,GLENHAVEN,NSW,2156,-33.70392,151.0038,4,4,4,House,House,False,1124.0,m2,False
2017918644,listing,/72-evans-road-glenhaven-nsw-2156-2017918644,2700000,is-sold,Sold by private treaty 20 Jul 2022,20220720,72 Evans Road,GLENHAVEN,NSW,2156,-33.70326,150.996521,5,5,5,House,House,False,936.0,m2,False
2017999415,listing,/7-adam-place-glenhaven-nsw-2156-2017999415,1815000,is-sold,Sold by private treaty 27 Jul 2022,20220727,7 Adam Place,GLENHAVEN,NSW,2156,-33.7043724,150.992355,4,4,4,House,House,False,0.0,m2,False
2017654915,listing,/55-hyde-avenue-glenhaven-nsw-2156-2017654915,1350000,is-sold,Sold by private treaty 02 May 2022,20220502,55 Hyde Avenue,GLENHAVEN,NSW,2156,-33.698822,151.000031,4,4,4,House,House,False,0.0,m2,False
2017680098,listing,/15-lang-road-kenthurst-nsw-2156-2017680098,2780000,is-sold,Sold by private treaty 19 May 2022,20220519,15 Lang Road,KENTHURST,NSW,2156,-33.6376724,150.947937,5,5,5,House,House,True,2.02,ha,False
2017703178,listing,/44-glenhaven-road-glenhaven-nsw-2156-2017703178,2160000,is-sold,Sold by private treaty 28 Apr 2022,20220428,44 Glenhaven Road,GLENHAVEN,NSW,2156,-33.7033958,151.006226,4,4,4,House,House,False,1028.0,m2,False
2017710421,listing,/1-carinda-drive-glenhaven-nsw-2156-2017710421,2300000,is-sold,Sold prior to auction 30 Apr 2022,20220430,1 Carinda Drive,GLENHAVEN,NSW,2156,-33.6969528,150.995087,4,4,4,House,House,False,906.0,m2,False
2017710905,listing,/1-camille-place-glenhaven-nsw-2156-2017710905,2200000,is-sold,Sold at auction 28 Apr 2022,20220428,1 Camille Place,GLENHAVEN,NSW,2156,-33.69791,150.999741,4,4,4,House,House,False,900.0,m2,False
2017737327,listing,/8-blaxland-place-glenhaven-nsw-2156-2017737327,2270000,is-sold,Sold by private treaty 17 Jun 2022,20220617,8 Blaxland Place,GLENHAVEN,NSW,2156,-33.7069626,151.004364,4,4,4,House,House,False,901.0,m2,False
2017760304,listing,/20-jones-road-kenthurst-nsw-2156-2017760304,3000000,is-sold,Sold prior to auction 20 May 2022,20220520,20 Jones Road,KENTHURST,NSW,2156,-33.6670036,150.996323,6,6,6,House,House,True,2.02,ha,False
2017769244,listing,/57-grange-road-glenhaven-nsw-2156-2017769244,2400000,is-sold,Sold by private treaty 14 Jun 2022,20220614,57 Grange Road,GLENHAVEN,NSW,2156,-33.7111244,151.004684,6,6,6,House,House,False,1107.0,m2,False
2017772818,listing,/1a-1b-fuggles-road-kenthurst-nsw-2156-2017772818,5000000,is-sold,Sold by private treaty 10 May 2022,20220510,1a & 1b Fuggles Road,KENTHURST,NSW,2156,-33.65262,150.983276,7,7,7,House,House,True,2.02,ha,False
2017780419,listing,/28-greenbank-drive-glenhaven-nsw-2156-2017780419,1540000,is-sold,Sold at auction 28 May 2022,20220528,28 Greenbank Drive,GLENHAVEN,NSW,2156,-33.7090149,151.001526,4,4,4,House,House,False,900.0,m2,False
2017787121,listing,/12-binalong-road-kenthurst-nsw-2156-2017787121,3600000,is-sold,Sold by private treaty 09 Jun 2022,20220609,12 Binalong Road,KENTHURST,NSW,2156,-33.644722,150.966873,6,6,6,House,House,True,2.02,ha,False
2017795216,listing,/12-williamtown-court-glenhaven-nsw-2156-2017795216,2780000,is-sold,Sold by private treaty 03 Jun 2022,20220603,12 Williamtown Court,GLENHAVEN,NSW,2156,-33.7131081,151.0104,4,4,4,House,House,False,2362.0,m2,False
2017801701,listing,/16-18-colbran-avenue-kenthurst-nsw-2156-2017801701,6230000,is-sold,Sold at auction 11 Jun 2022,20220611,16-18 Colbran Avenue,KENTHURST,NSW,2156,-33.68568,150.977188,,,,VacantLand,Vacant land,True,2.02,ha,False
2017807046,listing,/24-mills-road-glenhaven-nsw-2156-2017807046,3800000,is-sold,Sold by private treaty 30 May 2022,20220530,24 Mills Road,GLENHAVEN,NSW,2156,-33.7006035,150.989044,5,5,5,House,House,False,1800.0,m2,False
2017816637,listing,/kenthurst-nsw-2156-2017816637,,is-sold,Sold by private treaty 21 Jun 2022,20220621,,KENTHURST,NSW,2156,-33.66583,151.003571,7,7,7,House,House,True,2.35,ha,False
2017824191,listing,/2-amelia-godbee-avenue-glenhaven-nsw-2156-2017824191,2245000,is-sold,Sold by private treaty 20 Jun 2022,20220620,2 Amelia Godbee Avenue,GLENHAVEN,NSW,2156,-33.70271,151.004456,4,4,4,House,House,False,929.0,m2,False
2017834976,listing,/38a-hyde-avenue-glenhaven-nsw-2156-2017834976,1530000,is-sold,Sold by private treaty 27 May 2022,20220527,38A Hyde Avenue,GLENHAVEN,NSW,2156,-33.700222,151.000183,3,3,3,House,House,False,510.0,m2,False
2017839344,listing,/61-sandhurst-crescent-glenhaven-nsw-2156-2017839344,3950000,is-sold,Sold by private treaty 20 Jun 2022,20220620,61 Sandhurst Crescent,GLENHAVEN,NSW,2156,-33.71276,151.006165,4,4,4,House,House,False,2406.0,m2,False
2017873306,listing,/50-doherty-street-glenhaven-nsw-2156-2017873306,2110000,is-sold,Sold prior to auction 03 Jun 2022,20220603,50 Doherty Street,GLENHAVEN,NSW,2156,-33.7057076,151.00946,3,3,3,House,House,False,0.0,m2,False
2017898588,listing,/92-greenbank-drive-glenhaven-nsw-2156-2017898588,2995000,is-sold,Sold by private treaty 18 May 2022,20220518,92 Greenbank Drive,GLENHAVEN,NSW,2156,-33.7061729,150.996979,4,4,4,House,House,False,0.0,m2,False
2017512942,listing,/135-pitt-town-road-kenthurst-nsw-2156-2017512942,2600000,is-sold,Sold by private treaty 25 Mar 2022,20220325,135 Pitt Town Road,KENTHURST,NSW,2156,-33.6456223,150.957962,4,4,4,AcreageSemiRural,Acreage / Semi-Rural,True,2.02,ha,False
2017531279,listing,/17-lang-road-kenthurst-nsw-2156-2017531279,2650000,is-sold,Sold by private treaty 17 Mar 2022,20220317,17 Lang Road,KENTHURST,NSW,2156,-33.63684,150.9475,4,4,4,House,House,True,2.02,ha,False
2017569429,listing,/5-craigton-place-glenhaven-nsw-2156-2017569429,2200000,is-sold,Sold by private treaty 23 Mar 2022,20220323,5 Craigton Place,GLENHAVEN,NSW,2156,-33.7136345,151.010025,4,4,4,House,House,False,886.0,m2,False
2017606335,listing,/5-porters-road-kenthurst-nsw-2156-2017606335,2862000,is-sold,Sold at auction 26 Mar 2022,20220326,5 Porters Road,KENTHURST,NSW,2156,-33.65217,151.003723,4,4,4,House,House,True,1.62,ha,False
2017610259,listing,/67-annangrove-road-kenthurst-nsw-2156-2017610259,4350000,is-sold,Sold at auction 26 Mar 2022,20220326,67 Annangrove Road,KENTHURST,NSW,2156,-33.68177,150.985916,4,4,4,AcreageSemiRural,Acreage / Semi-Rural,True,2.02,ha,False
2017623343,listing,/8-logie-road-kenthurst-nsw-2156-2017623343,2800000,is-sold,Sold at auction 17 Mar 2022,20220317,8 Logie Road,KENTHURST,NSW,2156,-33.6865273,150.971329,4,4,4,House,House,True,2.0,ha,False
2017627195,listing,/68a-pitt-town-road-kenthurst-nsw-2156-2017627195,4055000,is-sold,Sold prior to auction 23 Mar 2022,20220323,68a Pitt Town Road,KENTHURST,NSW,2156,-33.6546059,150.9792,4,4,4,AcreageSemiRural,Acreage / Semi-Rural,True,0.0,m2,False
2017627337,listing,/9-blaxland-place-glenhaven-nsw-2156-2017627337,3120000,is-sold,Sold prior to auction 18 Mar 2022,20220318,9 Blaxland Place,GLENHAVEN,NSW,2156,-33.7075653,151.003967,5,5,5,House,House,False,2341.0,m2,False
2017635389,listing,/7-araluen-place-glenhaven-nsw-2156-2017635389,4210000,is-sold,Sold at auction 29 Mar 2022,20220329,7 Araluen Place,GLENHAVEN,NSW,2156,-33.7031746,150.9919,4,4,4,House,House,False,4966.0,m2,False
2017638151,listing,/61-carinda-drive-glenhaven-nsw-2156-2017638151,3055000,is-sold,Sold at auction 26 Mar 2022,20220326,61 Carinda Drive,GLENHAVEN,NSW,2156,-33.70156,150.988327,6,6,6,House,House,False,1304.0,m2,False
2017650566,listing,/11-hidden-valley-lane-kenthurst-nsw-2156-2017650566,2500000,is-sold,Sold by private treaty 30 Mar 2022,20220330,11 Hidden Valley Lane,KENTHURST,NSW,2156,-33.60325,150.9419,5,5,5,House,House,True,2.02,ha,False
2017657900,listing,/35-carinda-drive-glenhaven-nsw-2156-2017657900,1980000,is-sold,Sold by private treaty 31 Mar 2022,20220331,35 Carinda Drive,GLENHAVEN,NSW,2156,-33.698307,150.991623,4,4,4,House,House,False,900.0,m2,False
2017663276,listing,/24-26-crego-road-glenhaven-nsw-2156-2017663276,4710000,is-sold,Sold by private treaty 26 Mar 2022,20220326,24 - 26 Crego Road,GLENHAVEN,NSW,2156,-33.7085648,151.010376,5,5,5,House,House,False,2398.0,m2,False
2017665405,listing,/9-amelia-godbee-avenue-glenhaven-nsw-2156-2017665405,1900000,is-sold,Sold at auction 22 Apr 2022,20220422,9 Amelia Godbee Avenue,GLENHAVEN,NSW,2156,-33.7021523,151.003677,4,4,4,House,House,False,937.0,m2,False
2017672725,listing,/1-doherty-avenue-glenhaven-nsw-2156-2017672725,3015000,is-sold,Sold prior to auction 06 Apr 2022,20220406,1 Doherty Avenue,GLENHAVEN,NSW,2156,-33.70346,151.004761,5,5,5,House,House,False,716.0,m2,False
2017676331,listing,/20-woodburn-place-glenhaven-nsw-2156-2017676331,1990000,is-sold,Sold by private treaty 01 Apr 2022,20220401,20 Woodburn Place,GLENHAVEN,NSW,2156,-33.6973038,150.991455,4,4,4,House,House,False,981.0,m2,False
2017689037,listing,/40-evans-road-glenhaven-nsw-2156-2017689037,2030000,is-sold,Sold by private treaty 19 Apr 2022,20220419,40 Evans Road,GLENHAVEN,NSW,2156,-33.70395,151.001175,4,4,4,House,House,False,1399.0,m2,False
2017716076,listing,/8-araluen-road-glenhaven-nsw-2156-2017716076,2400000,is-sold,Sold by private treaty 05 Apr 2022,20220405,8 Araluen Road,GLENHAVEN,NSW,2156,-33.7041168,150.991989,4,4,4,House,House,False,931.0,m2,False
2017719814,listing,/10-natalie-court-glenhaven-nsw-2156-2017719814,1950000,is-sold,Sold by private treaty 01 Apr 2022,20220401,10 Natalie Court,GLENHAVEN,NSW,2156,-33.7047844,151.0074,4,4,4,House,House,False,0.0,m2,False
2017731615,listing,/1a-doherty-avenue-glenhaven-nsw-2156-2017731615,3150000,is-sold,Sold prior to auction 27 Apr 2022,20220427,1A Doherty Avenue,GLENHAVEN,NSW,2156,-33.70346,151.004761,5,5,5,House,House,False,705.0,m2,False
2017024621,listing,/11-rivendell-way-glenhaven-nsw-2156-2017024621,3100000,is-sold,Sold by private treaty 01 Feb 2022,20220201,11 Rivendell Way,GLENHAVEN,NSW,2156,-33.7099075,150.998749,5,5,5,House,House,False,750.0,m2,False
2017278861,listing,/108-116-pitt-town-road-kenthurst-nsw-2156-2017278861,4220000,is-sold,Sold by private treaty 11 Feb 2022,20220211,108-116 Pitt Town Road,KENTHURST,NSW,2156,-33.65287,150.962524,5,5,5,AcreageSemiRural,Acreage / Semi-Rural,True,2.33,ha,False
2017298235,listing,/17-lillian-road-annangrove-nsw-2156-2017298235,3560000,is-sold,Sold by private treaty 09 Feb 2022,20220209,17 Lillian Road,ANNANGROVE,NSW,2156,-33.6300545,150.927414,4,4,4,House,House,True,2.0,ha,False
2017423125,listing,/96-gilbert-road-glenhaven-nsw-2156-2017423125,3400000,is-sold,Sold by private treaty 25 Jan 2022,20220125,96 Gilbert Road,GLENHAVEN,NSW,2156,-33.71418,151.005219,5,5,5,House,House,False,0.0,m2,False
2017431140,listing,/162-pitt-town-road-kenthurst-nsw-2156-2017431140,2835000,is-sold,Sold by private treaty 02 Feb 2022,20220202,162 Pitt Town Road,KENTHURST,NSW,2156,-33.64136,150.953049,3,3,3,House,House,True,2.02,ha,False
2017495858,listing,/17-porters-road-kenthurst-nsw-2156-2017495858,2880000,is-sold,Sold at auction 19 Feb 2022,20220219,17 Porters Road,KENTHURST,NSW,2156,-33.6482925,151.002182,8,8,8,House,House,False,9712.0,m2,False
2017520996,listing,/12-hyde-avenue-glenhaven-nsw-2156-2017520996,3725000,is-sold,Sold prior to auction 29 Jan 2022,20220129,12 Hyde Avenue,GLENHAVEN,NSW,2156,-33.70189,150.998581,5,5,5,House,House,False,5001.0,m2,False
2017522576,listing,/21-glenhaven-road-glenhaven-nsw-2156-2017522576,4908000,is-sold,Sold prior to auction 03 Feb 2022,20220203,21 Glenhaven Road,GLENHAVEN,NSW,2156,-33.69904,151.006638,,,,VacantLand,Vacant land,True,2.24,ha,False
2017557499,listing,/4-banksia-place-kenthurst-nsw-2156-2017557499,3415000,is-sold,Sold by private treaty 09 Feb 2022,20220209,4 Banksia Place,KENTHURST,NSW,2156,-33.6628342,150.969345,4,4,4,House,House,True,2.02,ha,False
2017560336,listing,/4-temora-road-glenhaven-nsw-2156-2017560336,1875000,is-sold,Sold by private treaty 24 Jan 2022,20220124,4 Temora Road,GLENHAVEN,NSW,2156,-33.69851,150.99054,4,4,4,House,House,False,908.0,m2,False
2017560413,listing,/13-13a-parkcrest-place-kenthurst-nsw-2156-2017560413,3100000,is-sold,Sold at auction 23 Feb 2022,20220223,13 & 13A Parkcrest Place,KENTHURST,NSW,2156,-33.6308136,150.965561,8,8,8,House,House,False,8000.0,m2,False
2017583263,listing,/2-112-glenhaven-road-glenhaven-nsw-2156-2017583263,820000,is-sold,Sold by private treaty 09 Feb 2022,20220209,2/112 Glenhaven Road,GLENHAVEN,NSW,2156,-33.6969223,150.994156,2,2,2,Villa,Villa,False,0.0,m2,False
2017584167,listing,/10-cromerty-place-glenhaven-nsw-2156-2017584167,4500000,is-sold,Sold prior to auction 19 Feb 2022,20220219,10 Cromerty Place,GLENHAVEN,NSW,2156,-33.7119827,151.010544,6,6,6,House,House,False,978.0,m2,False
2017596215,listing,/13-hyde-ave-glenhaven-nsw-2156-2017596215,2115000,is-sold,Sold prior to auction 04 Mar 2022,20220304,13 Hyde Ave,GLENHAVEN,NSW,2156,-33.7025032,150.999313,6,6,6,House,House,False,900.0,m2,False
2017596496,listing,/4-natalie-court-glenhaven-nsw-2156-2017596496,1849000,is-sold,Sold prior to auction 05 Mar 2022,20220305,4 Natalie Court,GLENHAVEN,NSW,2156,-33.70504,151.00795,3,3,3,House,House,False,0.0,m2,False
2017602741,listing,/39-sandhurst-crescent-glenhaven-nsw-2156-2017602741,3050000,is-sold,Sold at auction 01 Mar 2022,20220301,39 Sandhurst Crescent,GLENHAVEN,NSW,2156,-33.7115059,151.009064,5,5,5,House,House,False,775.0,m2,False
2017602789,listing,/6-whites-ridge-road-annangrove-nsw-2156-2017602789,3150000,is-sold,Sold by private treaty 22 Feb 2022,20220222,6 Whites Ridge Road,ANNANGROVE,NSW,2156,-33.6585922,150.9516,5,5,5,AcreageSemiRural,Acreage / Semi-Rural,True,2.02,ha,False
2017604698,listing,/71-greenbank-drive-glenhaven-nsw-2156-2017604698,2260000,is-sold,Sold at auction 04 Mar 2022,20220304,71 Greenbank Drive,GLENHAVEN,NSW,2156,-33.7090378,150.997314,4,4,4,House,House,False,903.0,m2,False
2017608681,listing,/203-203a-annangrove-road-annangrove-nsw-2156-2017608681,4380000,is-sold,Sold at auction 11 Mar 2022,20220311,203-203A Annangrove Road,ANNANGROVE,NSW,2156,-33.66256,150.9501,6,6,6,House,House,True,2.24,ha,False
2017615731,listing,/36-fingal-ave-glenhaven-nsw-2156-2017615731,2960000,is-sold,Sold by private treaty 03 Mar 2022,20220303,36 Fingal Ave,GLENHAVEN,NSW,2156,-33.70379,150.993683,5,5,5,House,House,False,902.0,m2,False
2009168854,listing,/71a-pitt-town-road-kenthurst-nsw-2156-2009168854,2865000,is-sold,Sold at auction 11 Dec 2021,20211211,71a Pitt Town Road,KENTHURST,NSW,2156,-33.65436,150.976669,5,5,5,House,House,False,4047.0,m2,False
2016928828,listing,/22-shoplands-road-annangrove-nsw-2156-2016928828,3750000,is-sold,Sold by private treaty 14 Dec 2021,20211214,22 Shoplands Road,ANNANGROVE,NSW,2156,-33.6484528,150.943375,6,6,6,House,House,True,2.02,ha,False
2017352933,listing,/281-pitt-town-road-kenthurst-nsw-2156-2017352933,5300000,is-sold,Sold by private treaty 20 Dec 2021,20211220,281 Pitt Town Road,KENTHURST,NSW,2156,-33.6053848,150.941452,7,7,7,House,House,True,10.12,ha,False
2017389654,listing,/lot-4-309-pitt-town-rd-kenthurst-nsw-2156-2017389654,,is-sold,Sold by private treaty 15 Dec 2021,20211215,Lot 4/309 Pitt Town Rd,KENTHURST,NSW,2156,-33.60325,150.939484,,,,VacantLand,Vacant land,False,4500.0,m2,False
2017393512,listing,/28-pitt-town-road-kenthurst-nsw-2156-2017393512,1805000,is-sold,Sold at auction 11 Dec 2021,20211211,28 Pitt Town Road,KENTHURST,NSW,2156,-33.6546631,150.993454,5,5,5,House,House,False,1214.0,m2,False
2017395631,listing,/36-greenbank-drive-glenhaven-nsw-2156-2017395631,1950000,is-sold,Sold by private treaty 14 Jan 2022,20220114,36 Greenbank Drive,GLENHAVEN,NSW,2156,-33.709156,151.00058,4,4,4,House,House,False,900.0,m2,False
2017406416,listing,/6-pitt-town-road-kenthurst-nsw-2156-2017406416,4000000,is-sold,Sold at auction 20 Dec 2021,20211220,6 Pitt Town Road,KENTHURST,NSW,2156,-33.6577072,151.002686,8,8,8,House,House,True,2.02,ha,False
2017408380,listing,/25-binalong-road-kenthurst-nsw-2156-2017408380,2200000,is-sold,Sold at auction 11 Dec 2021,20211211,25 Binalong Road,KENTHURST,NSW,2156,-33.6395073,150.96907,4,4,4,House,House,True,2.32,ha,False
2017422046,listing,/4-orange-grove-kenthurst-nsw-2156-2017422046,1960000,is-sold,Sold by private treaty 17 Dec 2021,20211217,4 Orange Grove,KENTHURST,NSW,2156,-33.6088524,150.944748,,,,House,House,False,10000.0,m2,False
2017431136,listing,/12-whites-ridge-road-annangrove-nsw-2156-2017431136,2450000,is-sold,Sold by private treaty 24 Dec 2021,20211224,12 Whites Ridge Road,ANNANGROVE,NSW,2156,-33.6598244,150.95311,5,5,5,House,House,True,3.1,ha,False
2017443910,listing,/66-fingal-avenue-glenhaven-nsw-2156-2017443910,2300000,is-sold,Sold at auction 13 Dec 2021,20211213,66 Fingal Avenue,GLENHAVEN,NSW,2156,-33.7038422,150.997238,4,4,4,House,House,False,1001.0,m2,False
2017449162,listing,/10-fingal-avenue-glenhaven-nsw-2156-2017449162,2660000,is-sold,Sold at auction 18 Dec 2021,20211218,10 Fingal Avenue,GLENHAVEN,NSW,2156,-33.7019844,150.995621,6,6,6,House,House,False,1166.0,m2,False
2017451824,listing,/12-crego-road-glenhaven-nsw-2156-2017451824,3550000,is-sold,Sold at auction 19 Dec 2021,20211219,12 Crego Road,GLENHAVEN,NSW,2156,-33.70881,151.00853,7,7,7,House,House,False,4046.0,m2,False
2017477699,listing,/kenthurst-nsw-2156-2017477699,3700000,is-sold,Sold by private treaty 18 Jan 2022,20220118,,KENTHURST,NSW,2156,-33.6693,151.001587,4,4,4,House,House,True,2.02,ha,False
2017481154,listing,/4-roughley-road-kenthurst-nsw-2156-2017481154,4225000,is-sold,Sold by private treaty 09 Dec 2021,20211209,4 Roughley Road,KENTHURST,NSW,2156,-33.6379433,150.998978,5,5,5,House,House,True,2.02,ha,False
2017484551,listing,/88-greenbank-drive-glenhaven-nsw-2156-2017484551,2935000,is-sold,Sold at auction 22 Jan 2022,20220122,88 GREENBANK DRIVE,GLENHAVEN,NSW,2156,-33.70623,150.99617,5,5,5,House,House,False,4000.0,m2,False
2017489991,listing,/12-glenhaven-road-glenhaven-nsw-2156-2017489991,2250000,is-sold,Sold by private treaty 16 Dec 2021,20211216,12 Glenhaven Road,GLENHAVEN,NSW,2156,-33.7053528,151.009323,4,4,4,House,House,False,0.0,m2,False
2017492125,listing,/27-doherty-avenue-glenhaven-nsw-2156-2017492125,2176000,is-sold,Sold by private treaty 17 Dec 2021,20211217,27 Doherty Avenue,GLENHAVEN,NSW,2156,-33.7055473,151.006638,4,4,4,House,House,False,907.0,m2,False
2017496326,listing,/214-annangrove-road-annangrove-nsw-2156-2017496326,5500000,is-sold,Sold by private treaty 14 Dec 2021,20211214,214 Annangrove Road,ANNANGROVE,NSW,2156,-33.6662865,150.949387,5,5,5,AcreageSemiRural,Acreage / Semi-Rural,True,2.02,ha,False
2017498157,listing,/12-grange-road-glenhaven-nsw-2156-2017498157,2150000,is-sold,Sold by private treaty 20 Dec 2021,20211220,12 Grange Road,GLENHAVEN,NSW,2156,-33.7041855,151.004135,5,5,5,House,House,False,1056.0,m2,False
2016704141,listing,/96-kenthurst-road-kenthurst-nsw-2156-2016704141,3300000,is-sold,Sold at auction 06 Dec 2021,20211206,96 Kenthurst Road,KENTHURST,NSW,2156,-33.67785,151.007248,4,4,4,House,House,False,8093.0,m2,False
2016941223,listing,/319-pitt-town-road-kenthurst-nsw-2156-2016941223,4500000,is-sold,Sold by private treaty 19 Nov 2021,20211119,319 Pitt Town Road,KENTHURST,NSW,2156,-33.59965,150.93248,5,5,5,AcreageSemiRural,Acreage / Semi-Rural,True,5.75,ha,False
2017266477,listing,/184-glenhaven-road-glenhaven-nsw-2156-2017266477,4750000,is-sold,Sold by private treaty 03 Dec 2021,20211203,184 Glenhaven Road,GLENHAVEN,NSW,2156,-33.69539,150.977615,5,5,5,House,House,True,2.02,ha,False
2017295883,listing,/80-greenbank-drive-glenhaven-nsw-2156-2017295883,3100000,is-sold,Sold by private treaty 06 Nov 2021,20211106,80 Greenbank Drive,GLENHAVEN,NSW,2156,-33.7074852,150.994614,6,6,6,House,House,False,4010.0,m2,False
2017312809,listing,/6-binet-way-glenhaven-nsw-2156-2017312809,3400000,is-sold,Sold by private treaty 29 Nov 2021,20211129,6 Binet Way,GLENHAVEN,NSW,2156,-33.7098351,151.009567,5,5,5,House,House,False,2156.0,m2,False
2017317223,listing,/47-greenbank-drive-glenhaven-nsw-2156-2017317223,2180000,is-sold,Sold by private treaty 09 Nov 2021,20211109,47 Greenbank Drive,GLENHAVEN,NSW,2156,-33.7086372,150.999817,5,5,5,House,House,False,921.0,m2,False
2017319498,listing,/50-sandhurst-crescent-glenhaven-nsw-2156-2017319498,3125000,is-sold,Sold by private treaty 19 Nov 2021,20211119,50 Sandhurst Crescent,GLENHAVEN,NSW,2156,-33.7136879,151.008316,7,7,7,House,House,False,1102.0,m2,False
2017326076,listing,/10-clegg-place-glenhaven-nsw-2156-2017326076,2020000,is-sold,Sold prior to auction 05 Nov 2021,20211105,10 Clegg Place,GLENHAVEN,NSW,2156,-33.708313,150.996674,5,5,5,House,House,False,900.0,m2,False
2017327998,listing,/14-cromerty-place-glenhaven-nsw-2156-2017327998,2700000,is-sold,Sold by private treaty 16 Nov 2021,20211116,14 Cromerty Place,GLENHAVEN,NSW,2156,-33.7121544,151.010971,5,5,5,House,House,False,952.0,m2,False
2017337636,listing,/72a-annangrove-road-kenthurst-nsw-2156-2017337636,3870000,is-sold,Sold at auction 13 Nov 2021,20211113,72a Annangrove Road,KENTHURST,NSW,2156,-33.685215,150.98999,5,5,5,AcreageSemiRural,Acreage / Semi-Rural,True,2.02,ha,False
2017383880,listing,/4-sedger-road-kenthurst-nsw-2156-2017383880,4550000,is-sold,Sold by private treaty 09 Nov 2021,20211109,4 Sedger Road,KENTHURST,NSW,2156,-33.6792259,150.996674,5,5,5,House,House,True,2.02,ha,False
2017384821,listing,/100a-grange-road-glenhaven-nsw-2156-2017384821,1235000,is-sold,Sold at auction 20 Nov 2021,20211120,100a Grange Road,GLENHAVEN,NSW,2156,-33.71421,151.006348,3,3,3,SemiDetached,Semi-Detached,False,0.0,m2,False
2017404466,listing,/7-doherty-avenue-glenhaven-nsw-2156-2017404466,2860000,is-sold,Sold at auction 04 Dec 2021,20211204,7 Doherty Avenue,GLENHAVEN,NSW,2156,-33.703907,151.005219,4,4,4,House,House,False,890.0,m2,False
2017404797,listing,/2-58-glenhaven-road-glenhaven-nsw-2156-2017404797,1610000,is-sold,Sold prior to auction 01 Dec 2021,20211201,2/58 Glenhaven Road,GLENHAVEN,NSW,2156,-33.7023621,151.005676,3,3,3,House,House,False,0.0,m2,False
2017418108,listing,/35b-fullers-road-glenhaven-nsw-2156-2017418108,1435000,is-sold,Sold at auction 02 Dec 2021,20211202,35B Fullers Road,GLENHAVEN,NSW,2156,-33.7062874,151.0065,3,3,3,House,House,False,0.0,m2,False
2017420277,listing,/48-hyde-avenue-glenhaven-nsw-2156-2017420277,2550000,is-sold,Sold at auction 01 Dec 2021,20211201,48 Hyde Avenue,GLENHAVEN,NSW,2156,-33.699192,150.999573,4,4,4,House,House,False,910.0,m2,False
2017422849,listing,/3-luss-court-glenhaven-nsw-2156-2017422849,3150000,is-sold,Sold at auction 05 Dec 2021,20211205,3 Luss Court,GLENHAVEN,NSW,2156,-33.71475,151.0108,5,5,5,House,House,False,1550.0,m2,False
2017423415,listing,/126-kenthurst-road-kenthurst-nsw-2156-2017423415,1650000,is-sold,Sold at auction 08 Dec 2021,20211208,126 Kenthurst Road,KENTHURST,NSW,2156,-33.6647,151.003448,5,5,5,House,House,False,695.0,m2,False
2017432643,listing,/123-glenhaven-road-glenhaven-nsw-2156-2017432643,,is-sold,Sold by private treaty 15 Nov 2021,20211115,123 Glenhaven Road,GLENHAVEN,NSW,2156,-33.695282,150.9835,4,4,4,House,House,True,1.01,ha,False
2017439105,listing,/44-evans-road-glenhaven-nsw-2156-2017439105,2000000,is-sold,Sold by private treaty 19 Nov 2021,20211119,44 Evans Road,GLENHAVEN,NSW,2156,-33.70367,151.000931,4,4,4,House,House,False,1115.0,m2,False
2017094071,listing,/120-1a-mills-road-glenhaven-nsw-2156-2017094071,820000,is-sold,Sold by private treaty 02 Nov 2021,20211102,120/1a Mills Road,GLENHAVEN,NSW,2156,-33.6969261,150.989258,3,3,3,Villa,Villa,False,0.0,m2,True
2017119910,listing,/14-gibber-place-annangrove-nsw-2156-2017119910,4500000,is-sold,Sold by private treaty 16 Oct 2021,20211016,14 Gibber Place,ANNANGROVE,NSW,2156,-33.66904,150.964264,7,7,7,Rural,Rural,True,4.45,ha,False
2017204697,listing,/4-bushland-place-kenthurst-nsw-2156-2017204697,2500000,is-sold,Sold by private treaty 05 Nov 2021,20211105,4 Bushland Place,KENTHURST,NSW,2156,-33.6736679,151.011383,4,4,4,House,House,True,2.02,ha,False
2017213038,listing,/52-pitt-town-road-kenthurst-nsw-2156-2017213038,4000000,is-sold,Sold at auction 09 Oct 2021,20211009,52 Pitt Town Road,KENTHURST,NSW,2156,-33.6539421,150.98526,4,4,4,House,House,True,2.02,ha,False
2017219079,listing,/14-gibber-place-annangrove-nsw-2156-2017219079,4500000,is-sold,Sold at auction 16 Oct 2021,20211016,14 Gibber Place,ANNANGROVE,NSW,2156,-33.66904,150.964264,7,7,7,House,House,True,4.45,ha,False
2017248535,listing,/11-nicholii-place-kenthurst-nsw-2156-2017248535,2152000,is-sold,Sold by private treaty 20 Oct 2021,20211020,11 Nicholii Place,KENTHURST,NSW,2156,-33.6666527,150.9629,4,4,4,Rural,Rural,True,2.1,ha,False
2017262934,listing,/5-clarke-way-kenthurst-nsw-2156-2017262934,2800000,is-sold,Sold by private treaty 18 Oct 2021,20211018,5 Clarke Way,KENTHURST,NSW,2156,-33.62682,150.947388,6,6,6,AcreageSemiRural,Acreage / Semi-Rural,True,9995.0,m2,False
2017266166,listing,/56-jones-road-kenthurst-nsw-2156-2017266166,2700000,is-sold,Sold prior to auction 06 Oct 2021,20211006,56 Jones Road,KENTHURST,NSW,2156,-33.66554,150.988,4,4,4,AcreageSemiRural,Acreage / Semi-Rural,True,2.23,ha,False
2017273368,listing,/53-grange-road-glenhaven-nsw-2156-2017273368,2100000,is-sold,Sold prior to auction 06 Oct 2021,20211006,53 Grange Road,GLENHAVEN,NSW,2156,-33.7107658,151.004608,5,5,5,House,House,False,1020.0,m2,False
2017298933,listing,/12-16-kingcott-place-annangrove-nsw-2156-2017298933,4030000,is-sold,Sold by private treaty 11 Oct 2021,20211011,12 - 16 Kingcott Place,ANNANGROVE,NSW,2156,-33.67308,150.96814,8,8,8,House,House,True,2.95,ha,False
2017302139,listing,/56-shoplands-road-annangrove-nsw-2156-2017302139,,is-sold,Sold by private treaty 06 Oct 2021,20211006,56 Shoplands Road,ANNANGROVE,NSW,2156,-33.6314659,150.937927,5,5,5,House,House,True,2.02,ha,False
2017303686,listing,/73-greenbank-drive-glenhaven-nsw-2156-2017303686,1900000,is-sold,Sold prior to auction 22 Oct 2021,20211022,73 Greenbank Drive,GLENHAVEN,NSW,2156,-33.70902,150.997147,4,4,4,House,House,False,904.0,m2,False
2017307332,listing,/58-evans-road-glenhaven-nsw-2156-2017307332,3000000,is-sold,Sold at auction 31 Oct 2021,20211031,58 Evans Road,GLENHAVEN,NSW,2156,-33.70467,150.998413,5,5,5,House,House,False,700.0,m2,False
2017319013,listing,/34-fuggles-road-kenthurst-nsw-2156-2017319013,4410000,is-sold,Sold at auction 30 Oct 2021,20211030,34 Fuggles Road,KENTHURST,NSW,2156,-33.6487656,150.97142,5,5,5,House,House,False,4047.0,m2,False
2017322527,listing,/10-woodburn-place-glenhaven-nsw-2156-2017322527,2001000,is-sold,Sold by private treaty 26 Oct 2021,20211026,10 Woodburn Place,GLENHAVEN,NSW,2156,-33.6979,150.991684,4,4,4,House,House,False,921.0,m2,False
2017323537,listing,/4-wandarri-road-kenthurst-nsw-2156-2017323537,4100000,is-sold,Sold by private treaty 14 Oct 2021,20211014,4 Wandarri Road,KENTHURST,NSW,2156,-33.649086,150.98468,4,4,4,House,House,False,0.0,m2,False
2017332585,listing,/64-grange-road-glenhaven-nsw-2156-2017332585,2150000,is-sold,Sold at auction 29 Oct 2021,20211029,64 Grange Road,GLENHAVEN,NSW,2156,-33.710453,151.00589,4,4,4,House,House,False,1209.0,m2,False
2017339239,listing,/7-renee-close-glenhaven-nsw-2156-2017339239,1850000,is-sold,Sold by private treaty 19 Oct 2021,20211019,7 Renee Close,GLENHAVEN,NSW,2156,-33.7061844,151.007339,4,4,4,House,House,False,0.0,m2,False
2017366274,listing,/21-grange-road-glenhaven-nsw-2156-2017366274,1900000,is-sold,Sold by private treaty 21 Oct 2021,20211021,21 Grange Road,GLENHAVEN,NSW,2156,-33.7073479,151.00618,4,4,4,House,House,False,0.0,m2,False
2017395260,listing,/39-greenbank-drive-glenhaven-nsw-2156-2017395260,2000000,is-sold,Sold by private treaty 30 Oct 2021,20211030,39 Greenbank Drive,GLENHAVEN,NSW,2156,-33.7085457,151.001251,4,4,4,House,House,False,900.0,m2,False
2016479651,listing,/12-woodland-road-annangrove-nsw-2156-2016479651,4100000,is-sold,Sold by private treaty 07 Sep 2021,20210907,12 Woodland Road,ANNANGROVE,NSW,2156,-33.6606827,150.955231,4,4,4,House,House,True,6.44,ha,False
2016685675,listing,/22-marieba-road-kenthurst-nsw-2156-2016685675,3670000,is-sold,Sold by private treaty 24 Sep 2021,20210924,22 Marieba Road,KENTHURST,NSW,2156,-33.6406364,150.97641,6,6,6,House,House,True,2.02,ha,False
2016918739,listing,/4-crego-road-glenhaven-nsw-2156-2016918739,3150000,is-sold,Sold by private treaty 07 Sep 2021,20210907,4 Crego Road,GLENHAVEN,NSW,2156,-33.7089157,151.007767,4,4,4,House,House,False,2344.0,m2,False
2017063595,listing,/13-grange-road-glenhaven-nsw-2156-2017063595,2715000,is-sold,Sold by private treaty 27 Sep 2021,20210927,13 Grange Road,GLENHAVEN,NSW,2156,-33.7047272,151.003479,4,4,4,House,House,False,4004.0,m2,False
2017189265,listing,/164-glenhaven-road-glenhaven-nsw-2156-2017189265,4726000,is-sold,Sold at auction 11 Sep 2021,20210911,164 Glenhaven Road,GLENHAVEN,NSW,2156,-33.69713,150.98291,6,6,6,House,House,True,2.06,ha,False
2017195359,listing,/17a-natalie-court-glenhaven-nsw-2156-2017195359,1750000,is-sold,Sold at auction 01 Sep 2021,20210901,17a Natalie Court,GLENHAVEN,NSW,2156,-33.70391,151.006882,,,,VacantLand,Vacant land,False,0.0,m2,False
2017196038,listing,/95-pitt-town-road-kenthurst-nsw-2156-2017196038,3950000,is-sold,Sold by private treaty 01 Oct 2021,20211001,95 Pitt Town Road,KENTHURST,NSW,2156,-33.65443,150.967056,7,7,7,House,House,True,2.02,ha,False
2017197986,listing,/22-cadwells-road-kenthurst-nsw-2156-2017197986,3380000,is-sold,Sold by private treaty 31 Aug 2021,20210831,22 Cadwells Road,KENTHURST,NSW,2156,-33.6254234,150.966644,7,7,7,House,House,False,8000.0,m2,False
2017201141,listing,/16-pitt-town-road-kenthurst-nsw-2156-2017201141,3920000,is-sold,Sold at auction 15 Sep 2021,20210915,16 Pitt Town Road,KENTHURST,NSW,2156,-33.6564941,150.999161,7,7,7,House,House,True,2.02,ha,False
2017206235,listing,/3-karma-grove-kenthurst-nsw-2156-2017206235,3410000,is-sold,Sold by private treaty 10 Sep 2021,20210910,3 Karma Grove,KENTHURST,NSW,2156,-33.6950455,151.030884,5,5,5,House,House,False,5000.0,m2,False
2017217214,listing,/8-evans-road-glenhaven-nsw-2156-2017217214,2265000,is-sold,Sold at auction 19 Sep 2021,20210919,8 Evans Road,GLENHAVEN,NSW,2156,-33.7028275,151.005157,4,4,4,House,House,False,934.0,m2,False
2017228830,listing,/4-ivy-place-kenthurst-nsw-2156-2017228830,3200000,is-sold,Sold by private treaty 31 Aug 2021,20210831,4 Ivy Place,KENTHURST,NSW,2156,-33.6634331,150.9945,5,5,5,House,House,False,0.0,m2,False
2017232974,listing,/56-greenbank-drive-glenhaven-nsw-2156-2017232974,2400000,is-sold,Sold at auction 19 Sep 2021,20210919,56 Greenbank Drive,GLENHAVEN,NSW,2156,-33.7094078,150.998138,5,5,5,House,House,False,900.0,m2,False
2017238636,listing,/9-hyde-avenue-glenhaven-nsw-2156-2017238636,2015000,is-sold,Sold prior to auction 14 Sep 2021,20210914,9 Hyde Avenue,GLENHAVEN,NSW,2156,-33.7025223,150.9988,5,5,5,House,House,False,900.0,m2,False
2017239264,listing,/243-pitt-town-road-kenthurst-nsw-2156-2017239264,2125000,is-sold,Sold at auction 02 Oct 2021,20211002,243 Pitt Town Road,KENTHURST,NSW,2156,-33.61525,150.947968,4,4,4,House,House,False,4442.0,m2,False
2017240354,listing,/21-78a-glenhaven-road-glenhaven-nsw-2156-2017240354,1340000,is-sold,Sold by private treaty 05 Oct 2021,20211005,21/78a Glenhaven Road,GLENHAVEN,NSW,2156,-33.69833,151.001236,3,3,3,Townhouse,Townhouse,False,0.0,m2,False
2017269995,listing,/29-fullers-road-glenhaven-nsw-2156-2017269995,2275000,is-sold,Sold prior to auction 02 Oct 2021,20211002,29 Fullers Road,GLENHAVEN,NSW,2156,-33.7063522,151.006821,4,4,4,House,House,False,905.0,m2,False
2017281092,listing,/90-grange-road-glenhaven-nsw-2156-2017281092,2390000,is-sold,Sold prior to auction 23 Sep 2021,20210923,90 Grange Road,GLENHAVEN,NSW,2156,-33.7134666,151.00618,5,5,5,House,House,False,0.0,m2,False
2017308924,listing,/54-linksley-avenue-glenhaven-nsw-2156-2017308924,1825000,is-sold,Sold by private treaty 05 Oct 2021,20211005,54 Linksley Avenue,GLENHAVEN,NSW,2156,-33.71125,150.99588,4,4,4,House,House,False,790.0,m2,False
2017473899,listing,/7-bromley-way-glenhaven-nsw-2156-2017473899,2830000,is-sold,Sold by private treaty 15 Sep 2021,20210915,7 Bromley Way,GLENHAVEN,NSW,2156,-33.71094,151.007721,4,4,4,House,House,False,0.0,m2,False
2016180818,listing,/70-kenthurst-road-kenthurst-nsw-2156-2016180818,6900000,is-sold,Sold at auction 10 Aug 2021,20210810,70 Kenthurst Road,KENTHURST,NSW,2156,-33.6863441,151.011139,3,3,3,AcreageSemiRural,Acreage / Semi-Rural,True,2.3,ha,False
2016785571,listing,/kenthurst-nsw-2156-2016785571,4300000,is-sold,Sold by private treaty 22 Jul 2021,20210722,,KENTHURST,NSW,2156,-33.6693,151.001587,5,5,5,House,House,True,2.02,ha,False
2016946836,listing,/579-old-northern-road-glenhaven-nsw-2156-2016946836,5400000,is-sold,Sold by private treaty 12 Aug 2021,20210812,579 Old Northern Road,GLENHAVEN,NSW,2156,-33.7141876,151.015976,6,6,6,House,House,True,2.18,ha,False
2016947762,listing,/155-pitt-town-road-kenthurst-nsw-2156-2016947762,1750000,is-sold,Sold by private treaty 28 Aug 2021,20210828,155 Pitt Town Road,KENTHURST,NSW,2156,-33.6404037,150.956573,4,4,4,House,House,True,2.02,ha,False
2016979538,listing,/1-pedvin-place-annangrove-nsw-2156-2016979538,3300000,is-sold,Sold by private treaty 21 Jul 2021,20210721,1 Pedvin Place,ANNANGROVE,NSW,2156,-33.6486435,150.9459,4,4,4,House,House,True,2.02,ha,False
2017019121,listing,/43-grange-road-glenhaven-nsw-2156-2017019121,1975000,is-sold,Sold by private treaty 29 Jul 2021,20210729,43 Grange Road,GLENHAVEN,NSW,2156,-33.7094078,151.00531,4,4,4,House,House,False,900.0,m2,False
2017069789,listing,/104-pitt-town-road-kenthurst-nsw-2156-2017069789,3650000,is-sold,Sold by private treaty 11 Aug 2021,20210811,104 Pitt Town Road,KENTHURST,NSW,2156,-33.6549339,150.966141,6,6,6,House,House,True,1.13,ha,False
2017073323,listing,/26-rivendell-way-glenhaven-nsw-2156-2017073323,4200000,is-sold,Sold by private treaty 26 Jul 2021,20210726,26 Rivendell Way,GLENHAVEN,NSW,2156,-33.7099075,150.998749,5,5,5,House,House,False,701.0,m2,False
2017075841,listing,/9-glenhaven-road-glenhaven-nsw-2156-2017075841,5415000,is-sold,Sold at auction 17 Jul 2021,20210717,9 Glenhaven Road,GLENHAVEN,NSW,2156,-33.7022,151.008179,5,5,5,House,House,True,2.02,ha,False
2017088790,listing,/10-lukas-avenue-kenthurst-nsw-2156-2017088790,1235000,is-sold,Sold at auction 17 Jul 2021,20210717,10 Lukas Avenue,KENTHURST,NSW,2156,-33.6637878,151.005051,4,4,4,House,House,False,702.0,m2,False
2017094885,listing,/13-parapet-place-glenhaven-nsw-2156-2017094885,1660000,is-sold,Sold by private treaty 15 Jul 2021,20210715,13 Parapet Place,GLENHAVEN,NSW,2156,-33.71295,150.998535,4,4,4,House,House,False,1101.0,m2,False
2017128489,listing,/35-blue-gum-road-kenthurst-nsw-2156-2017128489,3520000,is-sold,Sold at auction 07 Aug 2021,20210807,35 Blue Gum Road,KENTHURST,NSW,2156,-33.65537,150.960114,5,5,5,House,House,False,0.0,m2,False
2017144501,listing,/5-jersey-place-glenhaven-nsw-2156-2017144501,2040222,is-sold,Sold at auction 14 Aug 2021,20210814,5 Jersey Place,GLENHAVEN,NSW,2156,-33.7029877,151.002075,,,,VacantLand,Vacant land,False,850.0,m2,False
2017147143,listing,/58a-annangrove-road-kenthurst-nsw-2156-2017147143,4158000,is-sold,Sold at auction 07 Aug 2021,20210807,58A Annangrove Road,KENTHURST,NSW,2156,-33.6815643,150.993729,7,7,7,House,House,True,2.1,ha,False
2017157395,listing,/4-highett-place-glenhaven-nsw-2156-2017157395,1728000,is-sold,Sold at auction 14 Aug 2021,20210814,4 Highett Place,GLENHAVEN,NSW,2156,-33.7042732,150.999634,4,4,4,House,House,False,949.0,m2,False
2017158491,listing,/19-sandpiper-place-kenthurst-nsw-2156-2017158491,2810000,is-sold,Sold at auction 28 Aug 2021,20210828,19 Sandpiper Place,KENTHURST,NSW,2156,-33.66106,151.00415,7,7,7,House,House,False,2480.0,m2,False
2017182514,listing,/24-glenshee-place-glenhaven-nsw-2156-2017182514,3250000,is-sold,Sold by private treaty 22 Aug 2021,20210822,24 Glenshee Place,GLENHAVEN,NSW,2156,-33.7135239,151.0125,5,5,5,House,House,False,1016.0,m2,False
2017185595,listing,/71-hyde-ave-glenhaven-nsw-2156-2017185595,1355000,is-sold,Sold by private treaty 14 Aug 2021,20210814,71 Hyde Ave,GLENHAVEN,NSW,2156,-33.6980934,151.000214,3,3,3,Townhouse,Townhouse,False,0.0,m2,False
2017193987,listing,/57-doherty-avenue-glenhaven-nsw-2156-2017193987,2270000,is-sold,Sold by private treaty 25 Aug 2021,20210825,57 Doherty Avenue,GLENHAVEN,NSW,2156,-33.70649,151.010315,4,4,4,House,House,False,900.0,m2,False
2017206775,listing,/172-glenhaven-road-glenhaven-nsw-2156-2017206775,4000000,is-sold,Sold by private treaty 20 Aug 2021,20210820,172 Glenhaven Road,GLENHAVEN,NSW,2156,-33.69616,150.979874,4,4,4,House,House,True,1.18,ha,False
2016087005,listing,/6-roughley-road-kenthurst-nsw-2156-2016087005,2500000,is-sold,Sold by private treaty 31 May 2021,20210531,6 Roughley Road,KENTHURST,NSW,2156,-33.63702,150.998962,4,4,4,House,House,True,2.0,ha,False
2016647837,listing,/2-yeranda-place-kenthurst-nsw-2156-2016647837,3200000,is-sold,Sold by private treaty 29 May 2021,20210529,2 Yeranda Place,KENTHURST,NSW,2156,-33.6837959,150.997971,4,4,4,AcreageSemiRural,Acreage / Semi-Rural,True,1.28,ha,False
2016958716,listing,/10-78a-glenhaven-road-glenhaven-nsw-2156-2016958716,1200000,is-sold,Sold 17 Jun 2021,20210617,10/78A Glenhaven Road,GLENHAVEN,NSW,2156,-33.69833,151.001236,3,3,3,Townhouse,Townhouse,False,0.0,m2,False
2016992699,listing,/10-carnarvon-avenue-glenhaven-nsw-2156-2016992699,2285000,is-sold,Sold at auction 05 Jun 2021,20210605,10 Carnarvon Avenue,GLENHAVEN,NSW,2156,-33.71087,151.0066,4,4,4,House,House,False,909.0,m2,False
2016992993,listing,/1-lawrence-road-kenthurst-nsw-2156-2016992993,3300000,is-sold,Sold by private treaty 09 Jul 2021,20210709,1 Lawrence Road,KENTHURST,NSW,2156,-33.6415176,150.989059,3,3,3,House,House,True,1.66,ha,False
2016993429,listing,/7-sorbello-place-kenthurst-nsw-2156-2016993429,2751000,is-sold,Sold at auction 05 Jun 2021,20210605,7 Sorbello Place,KENTHURST,NSW,2156,-33.659626,150.996475,6,6,6,AcreageSemiRural,Acreage / Semi-Rural,True,0.0,m2,False
2016994002,listing,/3-dole-place-kenthurst-nsw-2156-2016994002,4500000,is-sold,Sold by private treaty 25 Jun 2021,20210625,3 Dole Place,KENTHURST,NSW,2156,-33.64873,150.97023,5,5,5,House,House,False,0.0,m2,False
2016999243,listing,/34-sandhurst-crescent-glenhaven-nsw-2156-2016999243,2950000,is-sold,Sold by private treaty 07 Jun 2021,20210607,34 Sandhurst Crescent,GLENHAVEN,NSW,2156,-33.7126541,151.009354,4,4,4,House,House,False,898.0,m2,False
2016999846,listing,/8-nyari-road-kenthurst-nsw-2156-2016999846,2730000,is-sold,Sold by private treaty 05 Jul 2021,20210705,8 Nyari Road,KENTHURST,NSW,2156,-33.6367,150.967255,7,7,7,House,House,True,2.04,ha,False
2017021223,listing,/7-davis-place-glenhaven-nsw-2156-2017021223,1620000,is-sold,Sold at auction 28 Jun 2021,20210628,7 Davis Place,GLENHAVEN,NSW,2156,-33.7021179,150.99527,4,4,4,House,House,False,1097.0,m2,False
2017035976,listing,/67-fingal-avenue-glenhaven-nsw-2156-2017035976,2775000,is-sold,Sold at auction 20 Jun 2021,20210620,67 Fingal Avenue,GLENHAVEN,NSW,2156,-33.7044334,150.996429,5,5,5,House,House,False,4000.0,m2,False
2017047082,listing,/1-cobblestone-court-glenhaven-nsw-2156-2017047082,1785000,is-sold,Sold prior to auction 16 Jun 2021,20210616,1 Cobblestone Court,GLENHAVEN,NSW,2156,-33.7103462,151.00293,4,4,4,House,House,False,1040.0,m2,False
2017059056,listing,/8-araluen-place-glenhaven-nsw-2156-2017059056,1912000,is-sold,Sold by private treaty 30 Jun 2021,20210630,8 Araluen Place,GLENHAVEN,NSW,2156,-33.7041168,150.991989,4,4,4,House,House,False,931.0,m2,False
2017064927,listing,/62-fingal-avenue-glenhaven-nsw-2156-2017064927,1660000,is-sold,Sold at auction 02 Jul 2021,20210702,62 Fingal Avenue,GLENHAVEN,NSW,2156,-33.7036629,150.996765,4,4,4,House,House,False,937.0,m2,False
2017076354,listing,/26a-grange-road-glenhaven-nsw-2156-2017076354,2285000,is-sold,Sold at auction 11 Jul 2021,20210711,26A Grange Road,GLENHAVEN,NSW,2156,-33.7053223,151.005051,5,5,5,House,House,False,910.0,m2,False
2017104508,listing,/34-mills-road-glenhaven-nsw-2156-2017104508,1500000,is-sold,Sold by private treaty 06 Jul 2021,20210706,34 Mills Road,GLENHAVEN,NSW,2156,-33.7009048,150.9882,,,,VacantLand,Vacant land,False,963.0,m2,False
2017108103,listing,/26a-old-glenhaven-road-glenhaven-nsw-2156-2017108103,1700000,is-sold,Sold by private treaty 14 Jul 2021,20210714,26a Old Glenhaven Road,GLENHAVEN,NSW,2156,-33.695507,150.997757,5,5,5,House,House,False,927.0,m2,False
2017116252,listing,/13-cairngorm-avenue-glenhaven-nsw-2156-2017116252,2150500,is-sold,Sold prior to auction 14 Jul 2021,20210714,13 Cairngorm Avenue,GLENHAVEN,NSW,2156,-33.7130775,151.004044,5,5,5,House,House,False,928.0,m2,False
2017135842,listing,/108-annangrove-road-annangrove-nsw-2156-2017135842,3700000,is-sold,Sold by private treaty 06 Jul 2021,20210706,108 Annangrove Road,ANNANGROVE,NSW,2156,-33.68099,150.976318,5,5,5,House,House,True,2.02,ha,False
2017617721,listing,/10-carnarvon-avenue-glenhaven-nsw-2156-2017617721,2285000,is-sold,Sold at auction 05 Jun 2021,20210605,10 Carnarvon Avenue,GLENHAVEN,NSW,2156,-33.71087,151.0066,4,4,4,House,House,False,909.0,m2,False
2016911319,listing,/131-pitt-town-road-kenthurst-nsw-2156-2016911319,2700000,is-sold,Sold at auction 01 May 2021,20210501,131 Pitt Town Road,KENTHURST,NSW,2156,-33.6463547,150.9584,5,5,5,House,House,False,0.0,m2,False
2016912351,listing,/14-binalong-road-kenthurst-nsw-2156-2016912351,3850000,is-sold,Sold by private treaty 24 May 2021,20210524,14 Binalong Road,KENTHURST,NSW,2156,-33.6434937,150.966843,5,5,5,House,House,True,2.02,ha,False
2016915935,listing,/24-lawrence-road-kenthurst-nsw-2156-2016915935,2650000,is-sold,Sold by private treaty 26 May 2021,20210526,24 Lawrence Road,KENTHURST,NSW,2156,-33.63373,150.982437,4,4,4,House,House,True,2.1,ha,False
2016920681,listing,/55-evans-road-glenhaven-nsw-2156-2016920681,1940000,is-sold,Sold at auction 06 May 2021,20210506,55 Evans Road,GLENHAVEN,NSW,2156,-33.7031326,150.998444,5,5,5,House,House,False,900.0,m2,False
2016922342,listing,/214b-pitt-town-road-kenthurst-nsw-2156-2016922342,3150000,is-sold,Sold by private treaty 24 May 2021,20210524,214B Pitt Town Road,KENTHURST,NSW,2156,-33.6275635,150.951874,5,5,5,House,House,False,6702.0,m2,False
2016923353,listing,/12-fingal-avenue-glenhaven-nsw-2156-2016923353,1760000,is-sold,Sold prior to auction 08 May 2021,20210508,12 Fingal Avenue,GLENHAVEN,NSW,2156,-33.7019,150.995361,4,4,4,House,House,False,911.0,m2,False
2016929158,listing,/30-old-glenhaven-road-glenhaven-nsw-2156-2016929158,1610000,is-sold,Sold at auction 07 May 2021,20210507,30 Old Glenhaven Road,GLENHAVEN,NSW,2156,-33.695755,150.997513,5,5,5,House,House,False,827.0,m2,False
2016933333,listing,/31-sandhurst-crescent-glenhaven-nsw-2156-2016933333,2100000,is-sold,Sold by private treaty 13 May 2021,20210513,31 Sandhurst Crescent,GLENHAVEN,NSW,2156,-33.71069,151.008453,5,5,5,House,House,False,885.0,m2,False
2016940728,listing,/42-old-glenhaven-road-glenhaven-nsw-2156-2016940728,1715000,is-sold,Sold at auction 11 May 2021,20210511,42 Old Glenhaven Road,GLENHAVEN,NSW,2156,-33.6956673,150.9963,4,4,4,House,House,False,900.0,m2,False
2016949324,listing,/7-porters-road-kenthurst-nsw-2156-2016949324,1905000,is-sold,Sold at auction 16 May 2021,20210516,7 Porters Road,KENTHURST,NSW,2156,-33.6512337,151.003036,4,4,4,House,House,False,0.0,m2,False
2016951522,listing,/54b-hyde-avenue-glenhaven-nsw-2156-2016951522,1265000,is-sold,Sold prior to auction 12 May 2021,20210512,54B Hyde Avenue,GLENHAVEN,NSW,2156,-33.6985,150.999557,3,3,3,House,House,False,474.0,m2,False
2016953563,listing,/26-campbell-road-kenthurst-nsw-2156-2016953563,2817000,is-sold,Sold at auction 22 May 2021,20210522,26 Campbell Road,KENTHURST,NSW,2156,-33.6613731,150.967239,6,6,6,House,House,True,2.02,ha,False
2016969700,listing,/18-clegg-place-glenhaven-nsw-2156-2016969700,1800000,is-sold,Sold prior to auction 19 May 2021,20210519,18 Clegg Place,GLENHAVEN,NSW,2156,-33.7081871,150.997589,5,5,5,House,House,False,1225.0,m2,False
2016976868,listing,/100-gilbert-road-glenhaven-nsw-2156-2016976868,2060000,is-sold,Sold by private treaty 23 May 2021,20210523,100 Gilbert Road,GLENHAVEN,NSW,2156,-33.7141647,151.00563,4,4,4,House,House,False,912.0,m2,False
2016988113,listing,/3-woongarra-way-glenhaven-nsw-2156-2016988113,3625000,is-sold,Sold at auction 24 May 2021,20210524,3 Woongarra Way,GLENHAVEN,NSW,2156,-33.70803,151.009232,5,5,5,House,House,False,1912.0,m2,False
2016996960,listing,/28-doherty-avenue-glenhaven-nsw-2156-2016996960,1825000,is-sold,Sold by private treaty 05 May 2021,20210505,28 Doherty Avenue,GLENHAVEN,NSW,2156,-33.7050743,151.006821,4,4,4,House,House,False,927.0,m2,False
2016998550,listing,/18-sandhurst-crescent-glenhaven-nsw-2156-2016998550,2790000,is-sold,Sold prior to auction 27 May 2021,20210527,18 Sandhurst Crescent,GLENHAVEN,NSW,2156,-33.71034,151.008881,4,4,4,House,House,False,855.0,m2,False
2017005868,listing,/6-larapinta-place-glenhaven-nsw-2156-2017005868,2400000,is-sold,Sold by private treaty 14 May 2021,20210514,6 Larapinta Place,GLENHAVEN,NSW,2156,-33.6929245,150.981857,4,4,4,House,House,False,3020.0,m2,False
2017015251,listing,/111-glenhaven-road-glenhaven-nsw-2156-2017015251,4070000,is-sold,Sold by private treaty 06 May 2021,20210506,111 Glenhaven Road,GLENHAVEN,NSW,2156,-33.6942825,150.986923,5,5,5,House,House,True,2.02,ha,False
2017031020,listing,/9-tomintoul-way-glenhaven-nsw-2156-2017031020,2300000,is-sold,Sold prior to auction 25 May 2021,20210525,9 Tomintoul Way,GLENHAVEN,NSW,2156,-33.71354,151.000992,4,4,4,House,House,False,812.0,m2,False
2014570082,listing,/20-lawrence-road-kenthurst-nsw-2156-2014570082,4050000,is-sold,Sold by private treaty 22 Apr 2021,20210422,20 Lawrence Road,KENTHURST,NSW,2156,-33.6337967,150.9834,5,5,5,House,House,True,2.02,ha,False
2014788602,listing,/1-griffin-place-kenthurst-nsw-2156-2014788602,1727500,is-sold,Sold by private treaty 18 Apr 2021,20210418,1 Griffin Place,KENTHURST,NSW,2156,-33.637394,151.003036,5,5,5,AcreageSemiRural,Acreage / Semi-Rural,True,9712.0,m2,False
2015688610,listing,/30-colbran-avenue-kenthurst-nsw-2156-2015688610,3950000,is-sold,Sold by private treaty 29 Apr 2021,20210429,30 Colbran Avenue,KENTHURST,NSW,2156,-33.68447,150.970718,5,5,5,House,House,False,7651.0,m2,False
2016704977,listing,/125-pitt-town-road-kenthurst-nsw-2156-2016704977,3425000,is-sold,Sold by private treaty 12 Apr 2021,20210412,125 Pitt Town Road,KENTHURST,NSW,2156,-33.64795,150.959274,10,10,10,House,House,True,2.02,ha,False
2016802688,listing,/10-nyari-road-kenthurst-nsw-2156-2016802688,2100000,is-sold,Sold by private treaty 17 Apr 2021,20210417,10 Nyari Road,KENTHURST,NSW,2156,-33.6355171,150.9656,4,4,4,House,House,True,1.44,ha,False
2016827319,listing,/18-sandpiper-place-kenthurst-nsw-2156-2016827319,2600000,is-sold,Sold at auction 30 Mar 2021,20210330,18 Sandpiper Place,KENTHURST,NSW,2156,-33.6608963,151.003525,5,5,5,House,House,False,4046.0,m2,False
2016835107,listing,/4-oakridge-place-kenthurst-nsw-2156-2016835107,2500000,is-sold,Sold at auction 31 Mar 2021,20210331,4 Oakridge Place,KENTHURST,NSW,2156,-33.6300964,150.96788,5,5,5,House,House,False,6000.0,m2,False
2016861103,listing,/4-blue-ridge-court-glenhaven-nsw-2156-2016861103,1451000,is-sold,Sold at auction 29 Mar 2021,20210329,4 Blue Ridge Court,GLENHAVEN,NSW,2156,-33.70582,151.010757,4,4,4,House,House,False,0.0,m2,False
2016877231,listing,/39-cairngorm-avenue-glenhaven-nsw-2156-2016877231,2140000,is-sold,Sold at auction 17 Apr 2021,20210417,39 Cairngorm Avenue,GLENHAVEN,NSW,2156,-33.7127838,151.001251,5,5,5,House,House,False,986.0,m2,False
2016879626,listing,/30-cairngorm-avenue-glenhaven-nsw-2156-2016879626,2209000,is-sold,Sold at auction 13 Apr 2021,20210413,30 Cairngorm Avenue,GLENHAVEN,NSW,2156,-33.71337,151.002014,5,5,5,House,House,False,807.0,m2,False
2016884925,listing,/1a-timber-grove-glenhaven-nsw-2156-2016884925,1475000,is-sold,Sold at auction 10 Apr 2021,20210410,1A Timber Grove,GLENHAVEN,NSW,2156,-33.7108765,150.99762,,,,VacantLand,Vacant land,False,700.0,m2,False
2016885238,listing,/5b-blue-ridge-court-glenhaven-nsw-2156-2016885238,1400000,is-sold,Sold by private treaty 09 Apr 2021,20210409,5B Blue Ridge Court,GLENHAVEN,NSW,2156,-33.70579,151.01,4,4,4,House,House,False,404.0,m2,False
2016887956,listing,/10-blaxland-place-glenhaven-nsw-2156-2016887956,2030000,is-sold,Sold at auction 17 Apr 2021,20210417,10 Blaxland Place,GLENHAVEN,NSW,2156,-33.7071457,151.004456,5,5,5,House,House,False,910.0,m2,False
2016892571,listing,/16-sylvan-grove-glenhaven-nsw-2156-2016892571,3155000,is-sold,Sold at auction 24 Apr 2021,20210424,16 Sylvan Grove,GLENHAVEN,NSW,2156,-33.7006,150.99823,6,6,6,House,House,False,0.0,m2,False
2016909060,listing,/25-beacon-avenue-glenhaven-nsw-2156-2016909060,2000000,is-sold,Sold prior to auction 15 Apr 2021,20210415,25 Beacon Avenue,GLENHAVEN,NSW,2156,-33.70847,150.99791,4,4,4,House,House,False,900.0,m2,False
2016911578,listing,/16-badenoch-avenue-glenhaven-nsw-2156-2016911578,2055000,is-sold,Sold prior to auction 17 Apr 2021,20210417,16 Badenoch Avenue,GLENHAVEN,NSW,2156,-33.7142067,151.003128,4,4,4,House,House,False,1000.0,m2,False
2016912831,listing,/21-emperor-place-kenthurst-nsw-2156-2016912831,2550000,is-sold,Sold prior to auction 16 Apr 2021,20210416,21 Emperor Place,KENTHURST,NSW,2156,-33.6596756,150.983429,5,5,5,House,House,True,2.02,ha,False
2016939049,listing,/1-finchley-place-glenhaven-nsw-2156-2016939049,1315000,is-sold,Sold by private treaty 23 Apr 2021,20210423,1 Finchley Place,GLENHAVEN,NSW,2156,-33.7045135,151.00563,3,3,3,House,House,False,316.0,m2,False
2016949697,listing,/7-farmridge-way-glenhaven-nsw-2156-2016949697,2300000,is-sold,Sold by private treaty 22 Apr 2021,20210422,7 Farmridge Way,GLENHAVEN,NSW,2156,-33.7067451,151.005539,6,6,6,House,House,False,700.0,m2,False
2016963403,listing,/15-fullers-road-glenhaven-nsw-2156-2016963403,1650000,is-sold,Sold by private treaty 15 Apr 2021,20210415,15 Fullers Road,GLENHAVEN,NSW,2156,-33.70659,151.008682,3,3,3,House,House,False,910.0,m2,False
2016555309,listing,/6-hill-climb-drive-annangrove-nsw-2156-2016555309,5000000,is-sold,Sold by private treaty 19 Mar 2021,20210319,6 Hill Climb Drive,ANNANGROVE,NSW,2156,-33.6520424,150.941208,4,4,4,House,House,True,2.02,ha,False
2016557352,listing,/6-sandhurst-crescent-glenhaven-nsw-2156-2016557352,2460000,is-sold,Sold at auction 27 Feb 2021,20210227,6 Sandhurst Crescent,GLENHAVEN,NSW,2156,-33.7092323,151.007446,4,4,4,House,House,False,2000.0,m2,False
2016614785,listing,/89-greenbank-drive-glenhaven-nsw-2156-2016614785,2030000,is-sold,Sold by private treaty 16 Feb 2021,20210216,89 Greenbank Drive,GLENHAVEN,NSW,2156,-33.7078323,150.995728,4,4,4,House,House,False,935.0,m2,False
2016667796,listing,/10-gibbs-road-kenthurst-nsw-2156-2016667796,1300000,is-sold,Sold by private treaty 25 Feb 2021,20210225,10 Gibbs Road,KENTHURST,NSW,2156,-33.6009674,150.937988,,,,VacantLand,Vacant land,False,4775.0,m2,False
2016712579,listing,/10-cragside-place-glenhaven-nsw-2156-2016712579,1480000,is-sold,Sold at auction 15 Feb 2021,20210215,10 Cragside Place,GLENHAVEN,NSW,2156,-33.7111855,151.000534,5,5,5,House,House,False,1253.0,m2,False
2016723827,listing,/5-nolland-place-kenthurst-nsw-2156-2016723827,2500000,is-sold,Sold by private treaty 17 Mar 2021,20210317,5 Nolland Place,KENTHURST,NSW,2156,-33.6463127,150.97554,6,6,6,House,House,True,2.0,ha,False
2016751004,listing,/11-langlands-road-annangrove-nsw-2156-2016751004,2250000,is-sold,Sold by private treaty 26 Feb 2021,20210226,11 Langlands Road,ANNANGROVE,NSW,2156,-33.66276,150.9405,5,5,5,House,House,True,2.29,ha,False
2016758397,listing,/1-glenshee-place-glenhaven-nsw-2156-2016758397,2240000,is-sold,Sold by private treaty 15 Mar 2021,20210315,1 Glenshee Place,GLENHAVEN,NSW,2156,-33.7145844,151.010147,4,4,4,House,House,False,861.0,m2,False
2016768455,listing,/34-greenbank-drive-glenhaven-nsw-2156-2016768455,1795000,is-sold,Sold at auction 27 Feb 2021,20210227,34 Greenbank Drive,GLENHAVEN,NSW,2156,-33.70917,151.000885,4,4,4,House,House,False,900.0,m2,False
2016770875,listing,/1-hilton-place-kenthurst-nsw-2156-2016770875,2600000,is-sold,Sold by private treaty 10 Mar 2021,20210310,1 Hilton Place,KENTHURST,NSW,2156,-33.64482,150.992355,8,8,8,House,House,True,1.16,ha,False
2016785186,listing,/42-hyde-avenue-glenhaven-nsw-2156-2016785186,1830000,is-sold,Sold by private treaty 24 Feb 2021,20210224,42 Hyde Avenue,GLENHAVEN,NSW,2156,-33.69968,150.999283,4,4,4,House,House,False,1145.0,m2,False
2016801926,listing,/19-evans-road-glenhaven-nsw-2156-2016801926,1840000,is-sold,Sold at auction 22 Mar 2021,20210322,19 Evans Road,GLENHAVEN,NSW,2156,-33.70278,151.002853,5,5,5,House,House,False,1136.0,m2,False
2016809781,listing,/20-tomintoul-way-glenhaven-nsw-2156-2016809781,1900000,is-sold,Sold prior to auction 05 Mar 2021,20210305,20 Tomintoul Way,GLENHAVEN,NSW,2156,-33.71345,150.999786,5,5,5,House,House,False,881.0,m2,False
2016813126,listing,/79-greenbank-drive-glenhaven-nsw-2156-2016813126,2750000,is-sold,Sold prior to auction 03 Mar 2021,20210303,79 Greenbank Drive,GLENHAVEN,NSW,2156,-33.708847,150.9964,4,4,4,House,House,False,914.0,m2,False
2016817100,listing,/6-adam-place-glenhaven-nsw-2156-2016817100,2300000,is-sold,Sold at auction 20 Mar 2021,20210320,6 Adam Place,GLENHAVEN,NSW,2156,-33.70473,150.992676,5,5,5,House,House,False,4046.0,m2,False
2016823511,listing,/10-crego-road-glenhaven-nsw-2156-2016823511,3800000,is-sold,Sold at auction 20 Mar 2021,20210320,10 Crego Road,GLENHAVEN,NSW,2156,-33.7092361,151.008865,4,4,4,House,House,False,2000.0,m2,False
2016847865,listing,/34-gibbs-road-kenthurst-nsw-2156-2016847865,1800000,is-sold,Sold by private treaty 23 Mar 2021,20210323,34 Gibbs Road,KENTHURST,NSW,2156,-33.600853,150.938644,6,6,6,House,House,False,9685.0,m2,False
2016849311,listing,/118-kenthurst-road-kenthurst-nsw-2156-2016849311,1107500,is-sold,Sold by private treaty 12 Mar 2021,20210312,118 Kenthurst Road,KENTHURST,NSW,2156,-33.6654129,151.003342,3,3,3,House,House,False,891.0,m2,False
2016850184,listing,/44-porters-road-kenthurst-nsw-2156-2016850184,2290000,is-sold,Sold by private treaty 22 Mar 2021,20210322,44 Porters Road,KENTHURST,NSW,2156,-33.6439552,150.987823,,,,VacantLand,Vacant land,True,2.02,ha,False
2016869626,listing,/6-tintagel-place-glenhaven-nsw-2156-2016869626,1850000,is-sold,Sold by private treaty 23 Mar 2021,20210323,6 Tintagel Place,GLENHAVEN,NSW,2156,-33.7125244,150.996033,4,4,4,House,House,False,820.0,m2,False
2015250196,listing,/33-grange-road-glenhaven-nsw-2156-2015250196,950000,is-sold,Sold by private treaty 09 Feb 2021,20210209,33 Grange Road,GLENHAVEN,NSW,2156,-33.70868,151.0059,,,,VacantLand,Vacant land,False,1231.0,m2,False
2015918550,listing,/23-sandpiper-place-kenthurst-nsw-2156-2015918550,2100000,is-sold,Sold at auction 22 Jan 2021,20210122,23 Sandpiper Place,KENTHURST,NSW,2156,-33.6605225,151.004242,7,7,7,House,House,False,3112.0,m2,False
2016163166,listing,/14-grange-road-glenhaven-nsw-2156-2016163166,1395000,is-sold,Sold by private treaty 07 Jan 2021,20210107,14 Grange Road,GLENHAVEN,NSW,2156,-33.70438,151.003952,5,5,5,House,House,False,915.0,m2,False
2016471436,listing,/74-greenbank-drive-glenhaven-nsw-2156-2016471436,1675000,is-sold,Sold by private treaty 24 Dec 2020,20201224,74 Greenbank Drive,GLENHAVEN,NSW,2156,-33.7083626,150.9952,5,5,5,House,House,False,4028.0,m2,False
2016539506,listing,/10-farm-road-kenthurst-nsw-2156-2016539506,3430000,is-sold,Sold by private treaty 06 Feb 2021,20210206,10 Farm Road,KENTHURST,NSW,2156,-33.63479,150.940552,5,5,5,NewHouseLand,New House & Land,False,20234.0,m2,False
2016569516,listing,/13-lyrebird-court-kenthurst-nsw-2156-2016569516,3750000,is-sold,Sold by private treaty 20 Jan 2021,20210120,13 Lyrebird Court,KENTHURST,NSW,2156,-33.66261,150.999878,6,6,6,House,House,False,7886.0,m2,False
2016641620,listing,/2-62a-grange-road-glenhaven-nsw-2156-2016641620,,is-sold,Sold by private treaty 23 Jan 2021,20210123,2/62a Grange Road,GLENHAVEN,NSW,2156,-33.7094269,151.00563,,,,VacantLand,Vacant land,False,703.0,m2,False
2016648496,listing,/178-glenhaven-road-glenhaven-nsw-2156-2016648496,2975000,is-sold,Sold by private treaty 22 Jan 2021,20210122,178 Glenhaven Road,GLENHAVEN,NSW,2156,-33.69631,150.979263,5,5,5,AcreageSemiRural,Acreage / Semi-Rural,True,4277.0,m2,False
2016662247,listing,/19-marieba-road-kenthurst-nsw-2156-2016662247,2260000,is-sold,Sold by private treaty 06 Jan 2021,20210106,19 Marieba Road,KENTHURST,NSW,2156,-33.6391945,150.972641,5,5,5,House,House,True,3.32,ha,False
2016662689,listing,/310-pitt-town-road-kenthurst-nsw-2156-2016662689,1750000,is-sold,Sold by private treaty 17 Jan 2021,20210117,310 Pitt Town Road,KENTHURST,NSW,2156,-33.6035767,150.936569,4,4,4,AcreageSemiRural,Acreage / Semi-Rural,True,8903.0,m2,False
2016699665,listing,/3-gwydir-way-glenhaven-nsw-2156-2016699665,1460000,is-sold,Sold by private treaty 22 Jan 2021,20210122,3 Gwydir Way,GLENHAVEN,NSW,2156,-33.714035,151.0077,5,5,5,House,House,False,1080.0,m2,False
2016730031,listing,/126a-pitt-town-road-kenthurst-nsw-2156-2016730031,2610000,is-sold,Sold by private treaty 19 Jan 2021,20210119,126A Pitt Town Road,KENTHURST,NSW,2156,-33.6508141,150.959137,5,5,5,House,House,True,2.02,ha,False
2016734351,listing,/13-sandhurst-crescent-glenhaven-nsw-2156-2016734351,2000000,is-sold,Sold at auction 29 Jan 2021,20210129,13 Sandhurst Crescent,GLENHAVEN,NSW,2156,-33.7104034,151.0065,5,5,5,House,House,False,1193.0,m2,False
2016735606,listing,/6-orana-road-kenthurst-nsw-2156-2016735606,2280000,is-sold,Sold by private treaty 05 Jan 2021,20210105,6 Orana Road,KENTHURST,NSW,2156,-33.6441422,150.965454,4,4,4,House,House,False,0.0,m2,False
2016738864,listing,/33-sylvan-grove-glenhaven-nsw-2156-2016738864,2615000,is-sold,Sold at auction 13 Feb 2021,20210213,33 Sylvan Grove,GLENHAVEN,NSW,2156,-33.6996,150.99707,5,5,5,House,House,False,805.0,m2,False
2016753995,listing,/32b-hyde-avenue-glenhaven-nsw-2156-2016753995,1133000,is-sold,Sold by private treaty 22 Jan 2021,20210122,32B Hyde Avenue,GLENHAVEN,NSW,2156,-33.7006721,151.000717,3,3,3,SemiDetached,Semi-Detached,False,449.0,m2,False
2016754186,listing,/17-davis-place-glenhaven-nsw-2156-2016754186,2600000,is-sold,Sold by private treaty 29 Jan 2021,20210129,17 Davis Place,GLENHAVEN,NSW,2156,-33.7025566,150.994171,4,4,4,House,House,False,1453.0,m2,False
2016762384,listing,/119-greenbank-drive-glenhaven-nsw-2156-2016762384,1750000,is-sold,Sold by private treaty 27 Jan 2021,20210127,119 Greenbank Drive,GLENHAVEN,NSW,2156,-33.707,150.997955,5,5,5,House,House,False,0.0,m2,False
2016773675,listing,/1-tomintoul-way-glenhaven-nsw-2156-2016773675,2025000,is-sold,Sold by private treaty 19 Jan 2021,20210119,1 Tomintoul Way,GLENHAVEN,NSW,2156,-33.7138,151.001862,5,5,5,House,House,False,955.0,m2,False
2016783680,listing,/8-burrell-rd-kenthurst-nsw-2156-2016783680,1825000,is-sold,Sold by private treaty 10 Feb 2021,20210210,8 Burrell Rd,KENTHURST,NSW,2156,-33.64788,150.95401,5,5,5,House,House,True,2.0,ha,False
2014599982,listing,/5-araluen-place-glenhaven-nsw-2156-2014599982,1830000,is-sold,Sold by private treaty 30 Nov 2020,20201130,5 Araluen Place,GLENHAVEN,NSW,2156,-33.7033424,150.992081,5,5,5,House,House,False,1295.0,m2,False
2016131805,listing,/26-cadwells-road-kenthurst-nsw-2156-2016131805,2800000,is-sold,Sold by private treaty 22 Dec 2020,20201222,26 Cadwells Road,KENTHURST,NSW,2156,-33.62407,150.9658,5,5,5,House,House,False,8093.0,m2,False
2016183152,listing,/20-finchley-place-glenhaven-nsw-2156-2016183152,2675000,is-sold,Sold by private treaty 22 Dec 2020,20201222,20 Finchley Place,GLENHAVEN,NSW,2156,-33.70412,151.0045,4,4,4,House,House,False,1004.0,m2,False
2016223972,listing,/14-orana-road-kenthurst-nsw-2156-2016223972,2400000,is-sold,Sold by private treaty 23 Dec 2020,20201223,14 Orana Road,KENTHURST,NSW,2156,-33.6424065,150.963135,6,6,6,House,House,True,2.02,ha,False
2016281450,listing,/14-binalong-road-kenthurst-nsw-2156-2016281450,3700000,is-sold,Sold by private treaty 18 Dec 2020,20201218,14 Binalong Road,KENTHURST,NSW,2156,-33.6434937,150.966843,5,5,5,House,House,True,2.02,ha,False
2016362322,listing,/141-porters-road-kenthurst-nsw-2156-2016362322,1650000,is-sold,Sold by private treaty 19 Nov 2020,20201119,141 Porters Road,KENTHURST,NSW,2156,-33.62075,150.973923,4,4,4,House,House,True,2.43,ha,False
2016368824,listing,/10-ivy-place-kenthurst-nsw-2156-2016368824,1950000,is-sold,Sold by private treaty 14 Dec 2020,20201214,10 Ivy Place,KENTHURST,NSW,2156,-33.6620941,150.994324,5,5,5,House,House,True,2.02,ha,False
2016428682,listing,/182a-annangrove-road-annangrove-nsw-2156-2016428682,2950000,is-sold,Sold by private treaty 03 Dec 2020,20201203,182A Annangrove Road,ANNANGROVE,NSW,2156,-33.6753235,150.956284,7,7,7,House,House,True,2.02,ha,False
2016528938,listing,/199-annangrove-road-annangrove-nsw-2156-2016528938,3900000,is-sold,Sold by private treaty 23 Nov 2020,20201123,199 Annangrove Road,ANNANGROVE,NSW,2156,-33.662735,150.950714,7,7,7,House,House,True,2.47,ha,False
2016535203,listing,/80-porters-road-kenthurst-nsw-2156-2016535203,2820000,is-sold,Sold by private treaty 27 Nov 2020,20201127,80 Porters Road,KENTHURST,NSW,2156,-33.63848,150.97789,7,7,7,House,House,True,2.02,ha,False
2016541685,listing,/398-old-northern-road-glenhaven-nsw-2156-2016541685,3250000,is-sold,Sold by private treaty 21 Dec 2020,20201221,398 Old Northern Road,GLENHAVEN,NSW,2156,-33.7136955,151.013245,6,6,6,House,House,False,5379.0,m2,False
2016567558,listing,/11-ascot-road-kenthurst-nsw-2156-2016567558,7200000,is-sold,Sold prior to auction 26 Nov 2020,20201126,11 Ascot Road,KENTHURST,NSW,2156,-33.64611,150.9942,7,7,7,House,House,True,2.02,ha,False
2016583901,listing,/77-glenhaven-road-glenhaven-nsw-2156-2016583901,1262000,is-sold,Sold at auction 28 Nov 2020,20201128,77 Glenhaven Road,GLENHAVEN,NSW,2156,-33.6965256,150.996155,4,4,4,House,House,False,951.0,m2,False
2016585824,listing,/11-carnarvon-avenue-glenhaven-nsw-2156-2016585824,3080000,is-sold,Sold by private treaty 21 Dec 2020,20201221,11 Carnarvon Avenue,GLENHAVEN,NSW,2156,-33.71184,151.007248,5,5,5,House,House,False,2358.0,m2,False
2016590645,listing,/115a-porters-rd-kenthurst-nsw-2156-2016590645,2210000,is-sold,Sold by private treaty 17 Dec 2020,20201217,115a Porters Rd,KENTHURST,NSW,2156,-33.630455,150.9753,7,7,7,House,House,True,2.2,ha,False
2016602926,listing,/54-mills-road-glenhaven-nsw-2156-2016602926,1810000,is-sold,Sold at auction 05 Dec 2020,20201205,54 Mills Road,GLENHAVEN,NSW,2156,-33.70186,150.985657,5,5,5,House,House,False,1024.0,m2,False
2016628664,listing,/2a-pitt-town-road-kenthurst-nsw-2156-2016628664,2400000,is-sold,Sold by private treaty 04 Dec 2020,20201204,2a Pitt Town Road,KENTHURST,NSW,2156,-33.6560974,151.004166,2,2,2,NewHouseLand,New House & Land,False,4830.0,m2,False
2016642655,listing,/114-greenbank-drive-glenhaven-nsw-2156-2016642655,1500000,is-sold,Sold prior to auction 26 Nov 2020,20201126,114 Greenbank Drive,GLENHAVEN,NSW,2156,-33.707325,151.000763,4,4,4,House,House,False,1091.0,m2,False
2016660205,listing,/1b-blue-ridge-court-glenhaven-nsw-2156-2016660205,1300000,is-sold,Sold by private treaty 07 Dec 2020,20201207,1B Blue Ridge Court,GLENHAVEN,NSW,2156,-33.7053871,151.010254,4,4,4,House,House,False,445.0,m2,False
2016754640,listing,/3-62a-grange-road-glenhaven-nsw-2156-2016754640,,is-sold,Sold by private treaty 27 Nov 2020,20201127,3/62a Grange Road,GLENHAVEN,NSW,2156,-33.70996,151.00589,,,,VacantLand,Vacant land,False,703.0,m2,False
2015647724,listing,/6-smerdon-place-kenthurst-nsw-2156-2015647724,2350000,is-sold,Sold by private treaty 16 Nov 2020,20201116,6 Smerdon Place,KENTHURST,NSW,2156,-33.6261139,150.9644,4,4,4,House,House,False,8113.0,m2,False
2015727018,listing,/8-ivy-place-kenthurst-nsw-2156-2015727018,2365000,is-sold,Sold by private treaty 13 Nov 2020,20201113,8 Ivy Place,KENTHURST,NSW,2156,-33.6627464,150.9955,5,5,5,House,House,True,2.02,ha,False
2015831938,listing,/8-crego-road-glenhaven-nsw-2156-2015831938,2950000,is-sold,Sold by private treaty 16 Oct 2020,20201016,8 Crego Road,GLENHAVEN,NSW,2156,-33.7093544,151.008545,5,5,5,House,House,False,2000.0,m2,False
2016244252,listing,/90-greenbank-drive-glenhaven-nsw-2156-2016244252,2650000,is-sold,Sold by private treaty 30 Oct 2020,20201030,90 Greenbank Drive,GLENHAVEN,NSW,2156,-33.7062149,150.996521,5,5,5,House,House,False,4000.0,m2,False
2016271921,listing,/51-cairngorm-avenue-glenhaven-nsw-2156-2016271921,1515000,is-sold,Sold by private treaty 14 Oct 2020,20201014,51 Cairngorm Avenue,GLENHAVEN,NSW,2156,-33.7129,150.999908,5,5,5,House,House,False,1349.0,m2,False
2016294839,listing,/2-54-56-glenhaven-road-glenhaven-nsw-2156-2016294839,852000,is-sold,Sold by private treaty 12 Nov 2020,20201112,2/54-56 Glenhaven Road,GLENHAVEN,NSW,2156,-33.7028465,151.005646,3,3,3,Townhouse,Townhouse,False,0.0,m2,False
2016302528,listing,/19-nyari-road-kenthurst-nsw-2156-2016302528,2212000,is-sold,Sold by private treaty 18 Nov 2020,20201118,19 Nyari Road,KENTHURST,NSW,2156,-33.6348724,150.967072,5,5,5,House,House,True,1.27,ha,False
2016336937,listing,/5-everett-place-annangrove-nsw-2156-2016336937,2200000,is-sold,Sold prior to auction 31 Oct 2020,20201031,5 Everett Place,ANNANGROVE,NSW,2156,-33.6380959,150.9322,4,4,4,House,House,True,2.02,ha,False
2016356876,listing,/311-pitt-town-road-kenthurst-nsw-2156-2016356876,2030000,is-sold,Sold by private treaty 27 Oct 2020,20201027,311 Pitt Town Road,KENTHURST,NSW,2156,-33.63006,150.95372,5,5,5,House,House,False,7800.0,m2,False
2016363690,listing,/32-mills-road-glenhaven-nsw-2156-2016363690,1460000,is-sold,Sold by private treaty 13 Nov 2020,20201113,32 Mills Road,GLENHAVEN,NSW,2156,-33.7010765,150.988083,4,4,4,House,House,False,0.0,m2,False
2016425588,listing,/225-annangrove-road-annangrove-nsw-2156-2016425588,3225000,is-sold,Sold by private treaty 08 Oct 2020,20201008,225 Annangrove Road,ANNANGROVE,NSW,2156,-33.65634,150.9436,5,5,5,House,House,True,2.19,ha,False
2016440547,listing,/4-hazeldean-place-kenthurst-nsw-2156-2016440547,2760000,is-sold,Sold by private treaty 18 Nov 2020,20201118,4 Hazeldean Place,KENTHURST,NSW,2156,-33.6310844,150.9824,5,5,5,House,House,True,2.03,ha,False
2016459788,listing,/15-carnarvon-avenue-glenhaven-nsw-2156-2016459788,3500000,is-sold,Sold by private treaty 03 Oct 2020,20201003,15 Carnarvon Avenue,GLENHAVEN,NSW,2156,-33.7123871,151.006882,5,5,5,House,House,False,1958.0,m2,False
2016467596,listing,/54-doherty-avenue-glenhaven-nsw-2156-2016467596,2150000,is-sold,Sold by private treaty 14 Oct 2020,20201014,54 Doherty Avenue,GLENHAVEN,NSW,2156,-33.70604,151.009888,5,5,5,House,House,False,0.0,m2,False
2016468500,listing,/13-sandpiper-place-kenthurst-nsw-2156-2016468500,3400000,is-sold,Sold by private treaty 13 Nov 2020,20201113,13 Sandpiper Place,KENTHURST,NSW,2156,-33.66231,151.0035,5,5,5,House,House,False,3199.0,m2,False
2016474963,listing,/4-binet-way-glenhaven-nsw-2156-2016474963,2715000,is-sold,Sold prior to auction 15 Oct 2020,20201015,4 Binet Way,GLENHAVEN,NSW,2156,-33.71014,151.009277,5,5,5,House,House,False,2125.0,m2,False
2016540036,listing,/7-binet-way-glenhaven-nsw-2156-2016540036,3000888,is-sold,Sold by private treaty 13 Nov 2020,20201113,7 Binet Way,GLENHAVEN,NSW,2156,-33.7103,151.009979,5,5,5,House,House,False,2575.0,m2,False
2016552395,listing,/4-amanda-place-annangrove-nsw-2156-2016552395,2550000,is-sold,Sold by private treaty 23 Oct 2020,20201023,4 Amanda Place,ANNANGROVE,NSW,2156,-33.6363869,150.931915,5,5,5,House,House,True,2.02,ha,False
2016563462,listing,/48-pitt-town-road-kenthurst-nsw-2156-2016563462,2950000,is-sold,Sold prior to auction 27 Oct 2020,20201027,48 Pitt Town Road,KENTHURST,NSW,2156,-33.6538734,150.988754,3,3,3,House,House,True,2.0,ha,False
2016881975,listing,/4-sandy-place-kenthurst-nsw-2156-2016881975,2800000,is-sold,Sold by private treaty 09 Nov 2020,20201109,4 Sandy Place,KENTHURST,NSW,2156,-33.6260452,150.948212,5,5,5,House,House,False,9000.0,m2,False
2015806801,listing,/4-grevillea-place-kenthurst-nsw-2156-2015806801,2402500,is-sold,Sold at auction 14 Sep 2020,20200914,4 Grevillea Place,KENTHURST,NSW,2156,-33.66005,150.974854,6,6,6,House,House,True,2.02,ha,False
2015856880,listing,/3-wattlebird-close-kenthurst-nsw-2156-2015856880,1200000,is-sold,Sold by private treaty 28 Sep 2020,20200928,3 Wattlebird Close,KENTHURST,NSW,2156,-33.7360649,150.923615,,,,VacantLand,Vacant land,False,8500.0,m2,False
2016151185,listing,/41-blue-gum-road-kenthurst-nsw-2156-2016151185,2180000,is-sold,Sold by private treaty 28 Sep 2020,20200928,41 Blue Gum Road,KENTHURST,NSW,2156,-33.6557541,150.962479,4,4,4,AcreageSemiRural,Acreage / Semi-Rural,True,2.02,ha,False
2016189453,listing,/4-nyari-road-kenthurst-nsw-2156-2016189453,2030000,is-sold,Sold at auction 05 Sep 2020,20200905,4 Nyari Road,KENTHURST,NSW,2156,-33.6356735,150.97287,6,6,6,House,House,True,2.02,ha,False
2016228747,listing,/32-lukas-avenue-kenthurst-nsw-2156-2016228747,749000,is-sold,Sold by private treaty 02 Oct 2020,20201002,32 Lukas Avenue,KENTHURST,NSW,2156,-33.66249,151.005447,4,4,4,House,House,False,0.0,m2,False
2016300150,listing,/11-parkcrest-place-kenthurst-nsw-2156-2016300150,2275000,is-sold,Sold by private treaty 07 Sep 2020,20200907,11 Parkcrest Place,KENTHURST,NSW,2156,-33.63033,150.965958,5,5,5,House,House,False,0.0,m2,False
2016362402,listing,/kenthurst-nsw-2156-2016362402,3510000,is-sold,Sold by private treaty 25 Sep 2020,20200925,,KENTHURST,NSW,2156,-33.6693,151.001587,10,10,10,House,House,True,2.02,ha,False
2016414793,listing,/60-evans-road-glenhaven-nsw-2156-2016414793,1800000,is-sold,Sold at auction 30 Aug 2020,20200830,60 Evans Road,GLENHAVEN,NSW,2156,-33.70467,150.998413,4,4,4,House,House,False,785.0,m2,False
2016418467,listing,/7-glenshee-place-glenhaven-nsw-2156-2016418467,2175000,is-sold,Sold by private treaty 11 Sep 2020,20200911,7 Glenshee Place,GLENHAVEN,NSW,2156,-33.7144279,151.010727,4,4,4,House,House,False,758.0,m2,False
2016421897,listing,/8-robson-road-kenthurst-nsw-2156-2016421897,2720000,is-sold,Sold at auction 29 Aug 2020,20200829,8 Robson Road,KENTHURST,NSW,2156,-33.6895523,150.973541,3,3,3,House,House,True,2.31,ha,False
2016423323,listing,/30a-hyde-avenue-glenhaven-nsw-2156-2016423323,1130000,is-sold,Sold by private treaty 19 Sep 2020,20200919,30a Hyde Avenue,GLENHAVEN,NSW,2156,-33.7008553,151.000946,3,3,3,House,House,False,425.0,m2,False
2016425362,listing,/64-fingal-avenue-glenhaven-nsw-2156-2016425362,1400000,is-sold,Sold by private treaty 10 Sep 2020,20200910,64 Fingal Avenue,GLENHAVEN,NSW,2156,-33.7036934,150.996979,4,4,4,House,House,False,1001.0,m2,False
2016435395,listing,/8-highett-place-glenhaven-nsw-2156-2016435395,1390000,is-sold,Sold at auction 05 Sep 2020,20200905,8 Highett Place,GLENHAVEN,NSW,2156,-33.7039337,150.999908,4,4,4,House,House,False,992.0,m2,False
2016454068,listing,/9-farm-road-kenthurst-nsw-2156-2016454068,3300000,is-sold,Sold by private treaty 23 Sep 2020,20200923,9 Farm Road,KENTHURST,NSW,2156,-33.63238,150.943054,5,5,5,House,House,False,0.0,m2,False
2016459033,listing,/60-carinda-drive-glenhaven-nsw-2156-2016459033,2002020,is-sold,Sold at auction 16 Sep 2020,20200916,60 Carinda Drive,GLENHAVEN,NSW,2156,-33.70227,150.989,5,5,5,House,House,False,3724.0,m2,False
2016484211,listing,/15a-volunteer-road-kenthurst-nsw-2156-2016484211,3400000,is-sold,Sold at auction 01 Oct 2020,20201001,15a Volunteer Road,KENTHURST,NSW,2156,-33.6720734,151.0005,5,5,5,House,House,False,0.0,m2,False
2016492310,listing,/1b-inverness-crescent-glenhaven-nsw-2156-2016492310,1215000,is-sold,Sold prior to auction 21 Sep 2020,20200921,1B Inverness Crescent,GLENHAVEN,NSW,2156,-33.7122726,151.004959,3,3,3,SemiDetached,Semi-Detached,False,461.0,m2,False
2016548400,listing,/3-woodburn-place-glenhaven-nsw-2156-2016548400,1940000,is-sold,Sold by private treaty 25 Sep 2020,20200925,3 Woodburn Place,GLENHAVEN,NSW,2156,-33.69776,150.993088,4,4,4,House,House,False,0.0,m2,False
2016549306,listing,/21-23-porters-road-kenthurst-nsw-2156-2016549306,3900000,is-sold,Sold by private treaty 02 Oct 2020,20201002,21-23 Porters Road,KENTHURST,NSW,2156,-33.6468163,151.000046,8,8,8,House,House,False,0.0,m2,False
2013951268,listing,/68-mills-road-glenhaven-nsw-2156-2013951268,4100000,is-sold,Sold by private treaty 19 Jul 2020,20200719,68 Mills Road,GLENHAVEN,NSW,2156,-33.70168,150.983475,7,7,7,House,House,True,2.02,ha,False
2015357863,listing,/glenhaven-nsw-2156-2015357863,1250000,is-sold,Sold by private treaty 26 Aug 2020,20200826,,GLENHAVEN,NSW,2156,-33.70547,151.003342,,,,VacantLand,Vacant land,False,0.0,m2,False
2015866236,listing,/26-rivendell-way-glenhaven-nsw-2156-2015866236,880000,is-sold,Sold by private treaty 22 Jul 2020,20200722,26 Rivendell Way,GLENHAVEN,NSW,2156,-33.7099075,150.998749,,,,VacantLand,Vacant land,False,701.0,m2,False
2016007489,listing,/10-bower-bird-court-kenthurst-nsw-2156-2016007489,2825000,is-sold,Sold by private treaty 08 Jul 2020,20200708,10 Bower Bird Court,KENTHURST,NSW,2156,-33.66104,151.0015,5,5,5,House,House,True,1.02,ha,False
2016042688,listing,/5-fuggles-road-kenthurst-nsw-2156-2016042688,2350000,is-sold,Sold by private treaty 24 Jul 2020,20200724,5 Fuggles Road,KENTHURST,NSW,2156,-33.648674,150.982651,4,4,4,AcreageSemiRural,Acreage / Semi-Rural,True,2.02,ha,False
2016148324,listing,/40-jones-road-kenthurst-nsw-2156-2016148324,3200000,is-sold,Sold by private treaty 14 Jul 2020,20200714,40 Jones Road,KENTHURST,NSW,2156,-33.6666031,150.9915,6,6,6,House,House,True,2.02,ha,False
2016231331,listing,/37-shoplands-road-annangrove-nsw-2156-2016231331,1855000,is-sold,Sold by private treaty 30 Jul 2020,20200730,37 Shoplands Road,ANNANGROVE,NSW,2156,-33.64371,150.9431,4,4,4,AcreageSemiRural,Acreage / Semi-Rural,True,2.02,ha,False
2016261760,listing,/153a-pitt-town-road-kenthurst-nsw-2156-2016261760,1780000,is-sold,Sold by private treaty 18 Aug 2020,20200818,153A Pitt Town Road,KENTHURST,NSW,2156,-33.64058,150.957321,5,5,5,AcreageSemiRural,Acreage / Semi-Rural,True,2.14,ha,False
2016278945,listing,/74-carinda-drive-glenhaven-nsw-2156-2016278945,1747500,is-sold,Sold by private treaty 07 Aug 2020,20200807,74 Carinda Drive,GLENHAVEN,NSW,2156,-33.70221,150.986725,5,5,5,House,House,True,3049.0,ha,False
2016282720,listing,/19-linksley-avenue-glenhaven-nsw-2156-2016282720,1630000,is-sold,Sold by private treaty 13 Aug 2020,20200813,19 Linksley Avenue,GLENHAVEN,NSW,2156,-33.7098961,151.00116,5,5,5,House,House,False,2469.0,m2,False
2016292973,listing,/46a-old-glenhaven-road-glenhaven-nsw-2156-2016292973,1650000,is-sold,Sold by private treaty 08 Jul 2020,20200708,46A Old Glenhaven Road,GLENHAVEN,NSW,2156,-33.6961,150.9957,5,5,5,House,House,False,1000.0,m2,False
2016303465,listing,/151-annangrove-road-annangrove-nsw-2156-2016303465,2123000,is-sold,Sold at auction 11 Jul 2020,20200711,151 Annangrove Road,ANNANGROVE,NSW,2156,-33.67329,150.962067,3,3,3,AcreageSemiRural,Acreage / Semi-Rural,True,0.0,m2,False
2016356826,listing,/9-williamtown-court-glenhaven-nsw-2156-2016356826,2450000,is-sold,Sold at auction 08 Aug 2020,20200808,9 Williamtown Court,GLENHAVEN,NSW,2156,-33.7129745,151.010818,4,4,4,House,House,False,1196.0,m2,False
2016377667,listing,/36-old-glenhaven-road-glenhaven-nsw-2156-2016377667,1449000,is-sold,Sold at auction 19 Aug 2020,20200819,36 Old Glenhaven Road,GLENHAVEN,NSW,2156,-33.6955223,150.997,5,5,5,House,House,False,0.0,m2,False
2016385987,listing,/128-kenthurst-road-kenthurst-nsw-2156-2016385987,999000,is-sold,Sold at auction 27 Aug 2020,20200827,128 Kenthurst Road,KENTHURST,NSW,2156,-33.664566,151.003418,4,4,4,House,House,False,720.0,m2,False
2016392910,listing,/28-fullers-road-glenhaven-nsw-2156-2016392910,1850000,is-sold,Sold at auction 14 Aug 2020,20200814,28 Fullers Road,GLENHAVEN,NSW,2156,-33.7069168,151.007,6,6,6,House,House,False,944.0,m2,False
2016406990,listing,/4-gawain-court-glenhaven-nsw-2156-2016406990,1460000,is-sold,Sold prior to auction 15 Aug 2020,20200815,4 Gawain Court,GLENHAVEN,NSW,2156,-33.7115555,150.994873,4,4,4,House,House,False,804.0,m2,False
2016417106,listing,/41-linksley-avenue-glenhaven-nsw-2156-2016417106,1538666,is-sold,Sold prior to auction 25 Aug 2020,20200825,41 Linksley Avenue,GLENHAVEN,NSW,2156,-33.7110939,150.9983,4,4,4,House,House,False,2017.0,m2,False
2016419485,listing,/5-craigton-place-glenhaven-nsw-2156-2016419485,1800000,is-sold,Sold by private treaty 16 Jul 2020,20200716,5 Craigton Place,GLENHAVEN,NSW,2156,-33.7136765,151.010056,4,4,4,House,House,False,886.0,m2,False
2016448638,listing,/72-fingal-avenue-glenhaven-nsw-2156-2016448638,1050000,is-sold,Sold by private treaty 06 Aug 2020,20200806,72 Fingal Avenue,GLENHAVEN,NSW,2156,-33.70398,150.997787,,,,VacantLand,Vacant land,False,717.0,m2,False
2015285690,listing,/7-parkcrest-place-kenthurst-nsw-2156-2015285690,2115000,is-sold,Sold by private treaty 04 May 2020,20200504,7 Parkcrest Place,KENTHURST,NSW,2156,-33.6294022,150.965775,4,4,4,House,House,True,1.01,ha,False
2016040199,listing,/8-campbell-road-kenthurst-nsw-2156-2016040199,2470000,is-sold,Sold by private treaty 29 May 2020,20200529,8 Campbell Road,KENTHURST,NSW,2156,-33.6590919,150.974762,8,8,8,House,House,True,2.02,ha,False
2016087822,listing,/17-farhall-place-glenhaven-nsw-2156-2016087822,1750000,is-sold,Sold by private treaty 22 May 2020,20200522,17 Farhall Place,GLENHAVEN,NSW,2156,-33.7075348,151.002228,4,4,4,House,House,False,5275.0,m2,False
2016097021,listing,/15-ferncliffe-road-glenhaven-nsw-2156-2016097021,840000,is-sold,Sold by private treaty 23 May 2020,20200523,15 Ferncliffe Road,GLENHAVEN,NSW,2156,-33.7056923,151.000534,,,,VacantLand,Vacant land,False,2808.0,m2,False
2016105599,listing,/8-araluen-place-glenhaven-nsw-2156-2016105599,1498000,is-sold,Sold by private treaty 26 Jun 2020,20200626,8 Araluen Place,GLENHAVEN,NSW,2156,-33.70413,150.992035,4,4,4,House,House,False,931.0,m2,False
2016129232,listing,/80-pitt-town-road-kenthurst-nsw-2156-2016129232,2460000,is-sold,Sold by private treaty 06 May 2020,20200506,80 Pitt Town Road,KENTHURST,NSW,2156,-33.657505,150.975342,5,5,5,House,House,True,2.02,ha,False
2016138481,listing,/20-sylvan-grove-glenhaven-nsw-2156-2016138481,2050000,is-sold,Sold by private treaty 18 Jun 2020,20200618,20 Sylvan Grove,GLENHAVEN,NSW,2156,-33.70057,150.997253,4,4,4,House,House,False,4004.0,m2,False
2016146791,listing,/3-timber-grove-glenhaven-nsw-2156-2016146791,1365000,is-sold,Sold by private treaty 22 May 2020,20200522,3 Timber Grove,GLENHAVEN,NSW,2156,-33.71078,150.998428,4,4,4,House,House,False,1920.0,m2,False
2016159675,listing,/9-porters-road-kenthurst-nsw-2156-2016159675,,is-sold,Sold by private treaty 17 Jun 2020,20200617,9 Porters Road,KENTHURST,NSW,2156,-33.65094,151.003067,4,4,4,House,House,False,0.0,m2,False
2016178603,listing,/23-woodburn-place-glenhaven-nsw-2156-2016178603,1378000,is-sold,Sold by private treaty 15 May 2020,20200515,23 Woodburn Place,GLENHAVEN,NSW,2156,-33.6972771,150.99382,4,4,4,House,House,False,998.0,m2,False
2016187805,listing,/24-fingal-ave-glenhaven-nsw-2156-2016187805,1850000,is-sold,Sold by private treaty 22 May 2020,20200522,24 Fingal Ave,GLENHAVEN,NSW,2156,-33.70211,150.993988,6,6,6,House,House,False,1005.0,m2,False
2016203273,listing,/7-lillian-road-annangrove-nsw-2156-2016203273,1500000,is-sold,Sold by private treaty 09 Jun 2020,20200609,7 Lillian Road,ANNANGROVE,NSW,2156,-33.6352,150.930313,,,,VacantLand,Vacant land,True,2.02,ha,False
2016221891,listing,/5-bushland-place-kenthurst-nsw-2156-2016221891,1710000,is-sold,Sold by private treaty 18 May 2020,20200518,5 Bushland Place,KENTHURST,NSW,2156,-33.6730957,151.012573,6,6,6,House,House,True,2.02,ha,False
2016238240,listing,/32a-hyde-avenue-glenhaven-nsw-2156-2016238240,1290013,is-sold,Sold by private treaty 07 Jul 2020,20200707,32A Hyde Avenue,GLENHAVEN,NSW,2156,-33.7007523,151.000809,5,5,5,House,House,False,451.0,m2,False
2016253407,listing,/5-farhall-place-glenhaven-nsw-2156-2016253407,1690000,is-sold,Sold by private treaty 24 Jun 2020,20200624,5 Farhall Place,GLENHAVEN,NSW,2156,-33.7081451,151.001251,4,4,4,House,House,False,900.0,m2,False
2016261415,listing,/101-greenbank-drive-glenhaven-nsw-2156-2016261415,2650000,is-sold,Sold by private treaty 24 Jun 2020,20200624,101 Greenbank Drive,GLENHAVEN,NSW,2156,-33.7065048,150.995819,4,4,4,House,House,False,917.0,m2,False
2016274128,listing,/43-grange-road-glenhaven-nsw-2156-2016274128,1260000,is-sold,Sold at auction 18 Jun 2020,20200618,43 Grange Road,GLENHAVEN,NSW,2156,-33.7094078,151.00531,4,4,4,House,House,False,900.0,m2,False
2016344797,listing,/44-greenbank-drive-glenhaven-nsw-2156-2016344797,1660000,is-sold,Sold by private treaty 29 Jun 2020,20200629,44 Greenbank Drive,GLENHAVEN,NSW,2156,-33.7092323,150.999557,4,4,4,House,House,False,900.0,m2,False
2016393298,listing,/262-annangrove-road-annangrove-nsw-2156-2016393298,1925000,is-sold,Sold at auction 03 Jun 2020,20200603,262 Annangrove Road,ANNANGROVE,NSW,2156,-33.65787,150.938522,4,4,4,House,House,True,2.02,ha,False
2016627836,listing,/glenhaven-nsw-2156-2016627836,1360000,is-sold,Sold by private treaty 06 Jul 2020,20200706,,GLENHAVEN,NSW,2156,-33.70547,151.003342,,,,VacantLand,Vacant land,False,0.0,m2,False
2014225990,listing,/98-pitt-town-road-kenthurst-nsw-2156-2014225990,2715000,is-sold,Sold by private treaty 04 Mar 2020,20200304,98 Pitt Town Road,KENTHURST,NSW,2156,-33.6575241,150.967514,5,5,5,House,House,True,1.82,ha,False
2015648792,listing,/36-sedger-road-kenthurst-nsw-2156-2015648792,2300000,is-sold,Sold by private treaty 06 Mar 2020,20200306,36 Sedger Road,KENTHURST,NSW,2156,-33.6737633,150.987778,5,5,5,House,House,True,2.06,ha,False
2015739452,listing,/25-wayfield-road-glenhaven-nsw-2156-2015739452,2520000,is-sold,Sold by private treaty 17 Mar 2020,20200317,25 Wayfield Road,GLENHAVEN,NSW,2156,-33.70966,151.0229,8,8,8,House,House,False,0.0,m2,False
2015852724,listing,/24-sylvan-grove-glenhaven-nsw-2156-2015852724,1966000,is-sold,Sold by private treaty 03 Mar 2020,20200303,24 Sylvan Grove,GLENHAVEN,NSW,2156,-33.7000465,150.996933,5,5,5,House,House,False,4046.0,m2,False
2015880830,listing,/92-glenhaven-road-glenhaven-nsw-2156-2015880830,1330000,is-sold,Sold at auction 29 Feb 2020,20200229,92 Glenhaven Road,GLENHAVEN,NSW,2156,-33.697258,150.9983,5,5,5,House,House,False,913.0,m2,False
2015892750,listing,/39-kenthurst-road-kenthurst-nsw-2156-2015892750,2525000,is-sold,Sold by private treaty 10 Mar 2020,20200310,39 Kenthurst Road,KENTHURST,NSW,2156,-33.68692,151.01207,5,5,5,House,House,False,6108.0,m2,False
2016004639,listing,/7-everett-place-annangrove-nsw-2156-2016004639,2100000,is-sold,Sold by private treaty 18 Mar 2020,20200318,7 Everett Place,ANNANGROVE,NSW,2156,-33.63804,150.931122,5,5,5,AcreageSemiRural,Acreage / Semi-Rural,True,2.02,ha,False
2016007834,listing,/129-glenhaven-road-glenhaven-nsw-2156-2016007834,3350000,is-sold,Sold by private treaty 22 Apr 2020,20200422,129 Glenhaven Road,GLENHAVEN,NSW,2156,-33.693306,150.9813,6,6,6,House,House,True,2.02,ha,False
