id,listingType,url,price,tagClassName,tagText,date,street,suburb,state,postcode,lat,lng,beds,baths,parking,propertyType,propertyTypeFormatted,isRural,landSize,landUnit,isRetirement
2018384747,listing,/24-376-the-horsley-drive-fairfield-nsw-2165-2018384747,430000,is-sold,Sold by private treaty 28 Feb 2023,20230228,24/376 The Horsley Drive,FAIRFIELD,NSW,2165,-33.867878,150.956238,2,1,1,ApartmentUnitFlat,Apartment / Unit / Flat,False,0,m2,False
2018140178,listing,/29a-avisford-street-fairfield-nsw-2165-2018140178,760000,is-sold,Sold by private treaty 17 Feb 2023,20230217,29A Avisford Street,FAIRFIELD,NSW,2165,-33.8762474,150.945282,3,2,2,Duplex,Duplex,False,0,m2,False
2018153339,listing,/13e-kihilla-street-fairfield-heights-nsw-2165-2018153339,Price Withheld,is-sold,Sold by private treaty 27 Jan 2023,20230127,13E Kihilla Street,FAIRFIELD HEIGHTS,NSW,2165,-33.86433,150.936768,3,2,2,Terrace,Terrace,False,0,m2,False
2018183490,listing,/104-hamilton-road-fairfield-nsw-2165-2018183490,1300000,is-sold,Sold by private treaty 07 Feb 2023,20230207,104 Hamilton Road,FAIRFIELD,NSW,2165,-33.8727036,150.948074,3,1,2,House,House,False,848,m2,False
2018206646,listing,/8-bramley-street-fairfield-west-nsw-2165-2018206646,800000,is-sold,Sold by private treaty 27 Jan 2023,20230127,8 Bramley Street,FAIRFIELD WEST,NSW,2165,-33.86028,150.9193,3,1,2,House,House,False,563,m2,False
2018251552,listing,/1-32-34-hardy-street-fairfield-nsw-2165-2018251552,665000,is-sold,Sold by private treaty 01 Feb 2023,20230201,1/32-34 Hardy Street,FAIRFIELD,NSW,2165,-33.8677979,150.949661,3,1,1,House,House,False,0,m2,False
2018276485,listing,/72-80-tasman-pde-fairfield-west-nsw-2165-2018276485,580000,is-sold,Sold by private treaty 13 Feb 2023,20230213,72/80 Tasman Pde,FAIRFIELD WEST,NSW,2165,-33.86775,150.922592,3,2,1,ApartmentUnitFlat,Apartment / Unit / Flat,False,0,m2,False
2018278564,listing,/21-hemingway-crescent-fairfield-nsw-2165-2018278564,Price Withheld,is-sold,Sold at auction 30 Jan 2023,20230130,21 Hemingway Crescent,FAIRFIELD,NSW,2165,-33.8567734,150.95285,3,1,3,House,House,False,0,m2,False
2018279892,listing,/52-38-kenyon-street-fairfield-nsw-2165-2018279892,500000,is-sold,Sold by private treaty 10 Feb 2023,20230210,52/38 Kenyon Street,FAIRFIELD,NSW,2165,-33.87085,150.950485,2,1,1,ApartmentUnitFlat,Apartment / Unit / Flat,False,0,m2,False
2018280105,listing,/2-24-harold-street-fairfield-nsw-2165-2018280105,744000,is-sold,Sold by private treaty 17 Feb 2023,20230217,2/24 Harold Street,FAIRFIELD,NSW,2165,-33.87371,150.94812,3,2,1,Duplex,Duplex,False,0,m2,False
2018281436,listing,/62-camden-street-fairfield-heights-nsw-2165-2018281436,Price Withheld,is-sold,Sold at auction 04 Feb 2023,20230204,62 Camden Street,FAIRFIELD HEIGHTS,NSW,2165,-33.867363,150.946075,4,1,2,House,House,False,860,m2,False
2018288550,listing,/69a-ligar-street-fairfield-heights-nsw-2165-2018288550,760000,is-sold,Sold by private treaty 08 Feb 2023,20230208,69A Ligar Street,FAIRFIELD HEIGHTS,NSW,2165,-33.8671455,150.934448,3,2,1,House,House,False,231,m2,False
2018290786,listing,/1-31-stanbrook-street-fairfield-heights-nsw-2165-2018290786,785000,is-sold,Sold at auction 11 Feb 2023,20230211,1/31 Stanbrook Street,FAIRFIELD HEIGHTS,NSW,2165,-33.86432,150.941528,3,2,1,House,House,False,215,m2,False
2018298623,listing,/24-musgrave-crescent-fairfield-west-nsw-2165-2018298623,1320000,is-sold,Sold at auction 11 Feb 2023,20230211,24 Musgrave Crescent,FAIRFIELD WEST,NSW,2165,-33.8615952,150.9283,8,3,1,House,House,False,556,m2,False
2018298647,listing,/2-24-railway-parade-fairfield-nsw-2165-2018298647,600000,is-sold,Sold prior to auction 23 Feb 2023,20230223,2/24 Railway Parade,FAIRFIELD,NSW,2165,-33.87542,150.952942,3,1,1,Townhouse,Townhouse,False,0,m2,False
2018305654,listing,/11-saba-street-fairfield-west-nsw-2165-2018305654,930000,is-sold,Sold at auction 18 Feb 2023,20230218,11 Saba Street,FAIRFIELD WEST,NSW,2165,-33.8649063,150.93132,4,2,2,House,House,False,784,m2,False
2018308187,listing,/26-karabar-street-fairfield-heights-nsw-2165-2018308187,1475000,is-sold,Sold at auction 18 Feb 2023,20230218,26 Karabar Street,FAIRFIELD HEIGHTS,NSW,2165,-33.863018,150.935837,3,1,1,House,House,False,772,m2,False
2018312101,listing,/68-margaret-street-fairfield-west-nsw-2165-2018312101,1170000,is-sold,Sold at auction 18 Feb 2023,20230218,68 Margaret Street,FAIRFIELD WEST,NSW,2165,-33.87496,150.9324,3,1,1,House,House,False,903,m2,False
2018326827,listing,/15-james-street-fairfield-east-nsw-2165-2018326827,1380000,is-sold,Sold at auction 25 Feb 2023,20230225,15 James Street,FAIRFIELD EAST,NSW,2165,-33.87087,150.969025,4,3,2,House,House,False,933,m2,False
2018328604,listing,/146-the-boulevarde-fairfield-heights-nsw-2165-2018328604,952000,is-sold,Sold at auction 25 Feb 2023,20230225,146 The Boulevarde,FAIRFIELD HEIGHTS,NSW,2165,-33.8660774,150.938431,4,1,1,House,House,False,590,m2,False
2018051952,listing,/51-wilga-street-fairfield-nsw-2165-2018051952,1275000,is-sold,Sold prior to auction 05 Jan 2023,20230105,51 Wilga Street,FAIRFIELD,NSW,2165,-33.87719,150.954346,3,2,1,House,House,False,1036,m2,False
2018111909,listing,/55-127-the-crescent-fairfield-nsw-2165-2018111909,370000,is-sold,Sold by private treaty 22 Dec 2022,20221222,55/127 The Crescent,FAIRFIELD,NSW,2165,-33.8703537,150.959961,2,1,1,ApartmentUnitFlat,Apartment / Unit / Flat,False,0,m2,False
2018112741,listing,/38-beemera-street-fairfield-heights-nsw-2165-2018112741,1140000,is-sold,Sold by private treaty 11 Jan 2023,20230111,38 Beemera Street,FAIRFIELD HEIGHTS,NSW,2165,-33.8643379,150.934616,3,1,1,House,House,False,511,m2,False
2018113570,listing,/fairfield-nsw-2165-2018113570,Price Withheld,is-sold,Sold by private treaty 23 Dec 2022,20221223,,FAIRFIELD,NSW,2165,-33.8705864,150.9564,2,2,1,ApartmentUnitFlat,Apartment / Unit / Flat,False,0,m2,False
2018185728,listing,/33-80-82-tasman-parade-fairfield-west-nsw-2165-2018185728,Price Withheld,is-sold,Sold by private treaty 12 Dec 2022,20221212,33/80-82 Tasman Parade,FAIRFIELD WEST,NSW,2165,-33.86775,150.922592,3,2,1,ApartmentUnitFlat,Apartment / Unit / Flat,False,0,m2,False
2018189663,listing,/7-dunstan-street-fairfield-west-nsw-2165-2018189663,1390000,is-sold,Sold by private treaty 19 Dec 2022,20221219,7 Dunstan Street,FAIRFIELD WEST,NSW,2165,-33.8654976,150.911987,6,3,1,House,House,False,635,m2,False
2018189698,listing,/13-9-11-lackey-street-fairfield-nsw-2165-2018189698,310000,is-sold,Sold by private treaty 14 Dec 2022,20221214,13/9-11 Lackey Street,FAIRFIELD,NSW,2165,-33.87455,150.951019,2,1,1,ApartmentUnitFlat,Apartment / Unit / Flat,False,109,m2,False
2018198513,listing,/40-40a-camden-street-fairfield-heights-nsw-2165-2018198513,1363000,is-sold,Sold at auction 10 Dec 2022,20221210,40 & 40a Camden Street,FAIRFIELD HEIGHTS,NSW,2165,-33.86729,150.94812,6,4,6,House,House,False,0,m2,False
2018201437,listing,/35-olive-street-fairfield-nsw-2165-2018201437,1400000,is-sold,Sold by private treaty 23 Dec 2022,20221223,35 Olive Street,FAIRFIELD,NSW,2165,-33.879158,150.949127,3,1,1,House,House,False,872,m2,False
2018204486,listing,/11a-the-grove-fairfield-nsw-2165-2018204486,1600000,is-sold,Sold at auction 10 Dec 2022,20221210,11a The Grove,FAIRFIELD,NSW,2165,-33.8802261,150.947083,4,2,2,House,House,False,870,m2,False
2018214836,listing,/33a-evans-st-fairfield-heights-nsw-2165-2018214836,885000,is-sold,Sold at auction 17 Dec 2022,20221217,33a Evans St,FAIRFIELD HEIGHTS,NSW,2165,-33.86793,150.937119,4,3,2,House,House,False,0,m2,False
2018231334,listing,/10-59-harris-street-fairfield-nsw-2165-2018231334,352000,is-sold,Sold by private treaty 23 Dec 2022,20221223,10/59 Harris Street,FAIRFIELD,NSW,2165,-33.8724632,150.951477,2,1,1,ApartmentUnitFlat,Apartment / Unit / Flat,False,0,m2,False
2018236529,listing,/110-the-boulevarde-fairfield-heights-nsw-2165-2018236529,1010000,is-sold,Sold by private treaty 17 Jan 2023,20230117,110 The Boulevarde,FAIRFIELD HEIGHTS,NSW,2165,-33.8694153,150.937759,4,1,1,House,House,False,512,m2,False
2018243606,listing,/3-8-10-ulverstone-street-fairfield-nsw-2165-2018243606,420000,is-sold,Sold by private treaty 18 Dec 2022,20221218,3/8-10 Ulverstone Street,FAIRFIELD,NSW,2165,-33.87519,150.956711,2,1,2,ApartmentUnitFlat,Apartment / Unit / Flat,False,0,m2,False
2018248825,listing,/fairfield-nsw-2165-2018248825,647500,is-sold,Sold by private treaty 15 Dec 2022,20221215,,FAIRFIELD,NSW,2165,-33.8705864,150.9564,2,2,1,ApartmentUnitFlat,Apartment / Unit / Flat,False,0,m2,False
2018261744,listing,/34-loftus-street-fairfield-east-nsw-2165-2018261744,Price Withheld,is-sold,Sold by private treaty 11 Jan 2023,20230111,34 Loftus Street,FAIRFIELD EAST,NSW,2165,-33.87597,150.96962,3,1,-,House,House,False,1011,m2,False
2018261815,listing,/16-45-hamilton-road-fairfield-nsw-2165-2018261815,Price Withheld,is-sold,Sold by private treaty 11 Jan 2023,20230111,16/45 Hamilton Road,FAIRFIELD,NSW,2165,-33.8736954,150.952484,3,1,1,ApartmentUnitFlat,Apartment / Unit / Flat,False,0,m2,False
2018263440,listing,/37-rawson-rd-fairfield-west-nsw-2165-2018263440,1150000,is-sold,Sold at auction 17 Dec 2022,20221217,37 Rawson Rd,FAIRFIELD WEST,NSW,2165,-33.8675,150.929855,5,3,4,House,House,False,556,m2,False
2018268478,listing,/12-goodacre-avenue-fairfield-west-nsw-2165-2018268478,1500000,is-sold,Sold by private treaty 23 Jan 2023,20230123,12 Goodacre Avenue,FAIRFIELD WEST,NSW,2165,-33.8753967,150.922073,5,3,2,House,House,False,0,m2,False
2018270883,listing,/23-376-the-horsley-drive-fairfield-nsw-2165-2018270883,431000,is-sold,Sold by private treaty 09 Dec 2022,20221209,23/376 The Horsley Drive,FAIRFIELD,NSW,2165,-33.867878,150.956238,2,1,1,ApartmentUnitFlat,Apartment / Unit / Flat,False,0,m2,False
2017681482,listing,/67-286-292-fairfield-street-fairfield-nsw-2165-2017681482,505000,is-sold,Sold by private treaty 26 Nov 2022,20221126,67/286-292 Fairfield Street,FAIRFIELD,NSW,2165,-33.8717346,150.959137,3,2,2,ApartmentUnitFlat,Apartment / Unit / Flat,False,0,m2,False
2017883200,listing,/192-fairfield-st-fairfield-east-nsw-2165-2017883200,670000,is-sold,Sold by private treaty 25 Nov 2022,20221125,192 Fairfield St,FAIRFIELD EAST,NSW,2165,-33.868988,150.966843,3,1,1,House,House,False,345,m2,False
2017940001,listing,/111-17-21-the-crescent-fairfield-nsw-2165-2017940001,399000,is-sold,Sold by private treaty 29 Nov 2022,20221129,111/17-21 The Crescent,FAIRFIELD,NSW,2165,-33.87303,150.955,2,2,1,ApartmentUnitFlat,Apartment / Unit / Flat,False,0,m2,False
2017961169,listing,/11-60-harris-street-fairfield-nsw-2165-2017961169,325000,is-sold,Sold by private treaty 21 Nov 2022,20221121,11/60 Harris Street,FAIRFIELD,NSW,2165,-33.8716545,150.95195,2,1,1,ApartmentUnitFlat,Apartment / Unit / Flat,False,0,m2,False
2017972506,listing,/124a-station-street-fairfield-heights-nsw-2165-2017972506,825000,is-sold,Sold by private treaty 05 Dec 2022,20221205,124A Station Street,FAIRFIELD HEIGHTS,NSW,2165,-33.8648262,150.9407,3,1,1,House,House,False,885,m2,False
2017985630,listing,/76b-throsby-street-fairfield-heights-nsw-2165-2017985630,Price Withheld,is-sold,Sold by private treaty 02 Dec 2022,20221202,76B Throsby Street,FAIRFIELD HEIGHTS,NSW,2165,-33.8681946,150.9341,5,3,1,SemiDetached,Semi-Detached,False,255,m2,False
2018018095,listing,/1-adina-close-fairfield-west-nsw-2165-2018018095,1040000,is-sold,Sold by private treaty 23 Nov 2022,20221123,1 Adina Close,FAIRFIELD WEST,NSW,2165,-33.8691177,150.93071,5,2,2,House,House,False,620,m2,False
2018080332,listing,/30-ligar-st-fairfield-heights-nsw-2165-2018080332,1225000,is-sold,Sold by private treaty 02 Dec 2022,20221202,30 Ligar St,FAIRFIELD HEIGHTS,NSW,2165,-33.8674,150.938416,6,4,1,SemiDetached,Semi-Detached,False,428,m2,False
2018101869,listing,/22-dawson-street-fairfield-heights-nsw-2165-2018101869,1275000,is-sold,Sold by private treaty 05 Dec 2022,20221205,22 Dawson Street,FAIRFIELD HEIGHTS,NSW,2165,-33.8707123,150.938614,4,2,2,House,House,False,506,m2,False
2018108800,listing,/98-tangerine-street-fairfield-east-nsw-2165-2018108800,858000,is-sold,Sold by private treaty 06 Dec 2022,20221206,98 Tangerine Street,FAIRFIELD EAST,NSW,2165,-33.87646,150.969986,4,2,2,House,House,False,285,m2,False
2018153344,listing,/6-102-104-station-street-fairfield-nsw-2165-2018153344,590000,is-sold,Sold by private treaty 28 Nov 2022,20221128,6/102-104 Station Street,FAIRFIELD,NSW,2165,-33.86541,150.9426,2,1,1,Villa,Villa,False,0,m2,False
2018162410,listing,/5-18-hedges-street-fairfield-nsw-2165-2018162410,630000,is-sold,Sold by private treaty 22 Nov 2022,20221122,5/18 Hedges Street,FAIRFIELD,NSW,2165,-33.8619041,150.955963,3,1,1,House,House,False,0,m2,False
2018166015,listing,/27-tasman-parade-fairfield-west-nsw-2165-2018166015,940000,is-sold,Sold at auction 26 Nov 2022,20221126,27 Tasman Parade,FAIRFIELD WEST,NSW,2165,-33.8638344,150.923981,3,1,2,House,House,False,599,m2,False
2018171638,listing,/14-wrentmore-street-fairfield-nsw-2165-2018171638,1200000,is-sold,Sold by private treaty 01 Dec 2022,20221201,14 Wrentmore Street,FAIRFIELD,NSW,2165,-33.8700867,150.952164,3,1,1,House,House,False,766,m2,False
2018172198,listing,/5-83-smart-street-fairfield-nsw-2165-2018172198,550000,is-sold,Sold by private treaty 01 Dec 2022,20221201,5/83 Smart Street,FAIRFIELD,NSW,2165,-33.86676,150.953979,3,1,1,Townhouse,Townhouse,False,0,m2,False
2018182318,listing,/40-evans-street-fairfield-heights-nsw-2165-2018182318,811000,is-sold,Sold at auction 03 Dec 2022,20221203,40 Evans Street,FAIRFIELD HEIGHTS,NSW,2165,-33.86861,150.9379,3,2,1,House,House,False,0,m2,False
2018203821,listing,/104-campbell-street-fairfield-nsw-2165-2018203821,820000,is-sold,Sold prior to auction 01 Dec 2022,20221201,104 Campbell Street,FAIRFIELD,NSW,2165,-33.8784561,150.967667,4,1,1,House,House,False,638,m2,False
2018206242,listing,/5-warrumbungle-street-fairfield-west-nsw-2165-2018206242,777000,is-sold,Sold by private treaty 30 Nov 2022,20221130,5 Warrumbungle Street,FAIRFIELD WEST,NSW,2165,-33.8663559,150.929123,4,2,2,House,House,False,556,m2,False
2018220354,listing,/75-campbell-street-fairfield-east-nsw-2165-2018220354,1420000,is-sold,Sold by private treaty 29 Nov 2022,20221129,75 Campbell Street,FAIRFIELD EAST,NSW,2165,-33.875206,150.966354,4,2,2,House,House,False,1012,m2,False
2018221761,listing,/103a-hamilton-road-fairfield-nsw-2165-2018221761,883000,is-sold,Sold by private treaty 28 Nov 2022,20221128,103A Hamilton Road,FAIRFIELD,NSW,2165,-33.8732376,150.945831,4,2,1,House,House,False,419,m2,False
2018022751,listing,/69-80-82-tasman-parade-fairfield-west-nsw-2165-2018022751,570000,is-sold,Sold by private treaty 01 Nov 2022,20221101,69/80 - 82 Tasman Parade,FAIRFIELD WEST,NSW,2165,-33.86775,150.922592,3,2,1,ApartmentUnitFlat,Apartment / Unit / Flat,False,0,m2,False
2018047218,listing,/23b-ligar-street-fairfield-heights-nsw-2165-2018047218,870000,is-sold,Sold by private treaty 07 Nov 2022,20221107,23B Ligar Street,FAIRFIELD HEIGHTS,NSW,2165,-33.86804,150.93869,4,2,1,House,House,False,0,m2,False
2018092587,listing,/69-maud-st-fairfield-west-nsw-2165-2018092587,925000,is-sold,Sold by private treaty 11 Nov 2022,20221111,69 Maud St,FAIRFIELD WEST,NSW,2165,-33.866787,150.932343,3,1,2,House,House,False,563,m2,False
2018097650,listing,/220-fairfield-street-fairfield-nsw-2165-2018097650,749950,is-sold,Sold by private treaty 03 Nov 2022,20221103,220 Fairfield Street,FAIRFIELD,NSW,2165,-33.86929,150.964447,3,1,2,House,House,False,461,m2,False
2018106117,listing,/20-dalton-place-fairfield-west-nsw-2165-2018106117,1620000,is-sold,Sold by private treaty 15 Nov 2022,20221115,20 Dalton Place,FAIRFIELD WEST,NSW,2165,-33.86738,150.917053,5,3,4,House,House,False,0,m2,False
2018116386,listing,/5-solo-crescent-fairfield-nsw-2165-2018116386,770000,is-sold,Sold by private treaty 07 Nov 2022,20221107,5 Solo Crescent,FAIRFIELD,NSW,2165,-33.8559456,150.950714,2,1,1,House,House,False,0,m2,False
2018119335,listing,/21-garran-street-fairfield-west-nsw-2165-2018119335,764000,is-sold,Sold at auction 05 Nov 2022,20221105,21 Garran Street,FAIRFIELD WEST,NSW,2165,-33.8699265,150.930756,3,1,1,House,House,False,556,m2,False
2018119383,listing,/70-linda-street-fairfield-heights-nsw-2165-2018119383,1390000,is-sold,Sold prior to auction 01 Nov 2022,20221101,70 Linda Street,FAIRFIELD HEIGHTS,NSW,2165,-33.8706,150.934235,5,4,2,House,House,False,582,m2,False
2018123818,listing,/79-evans-street-fairfield-heights-nsw-2165-2018123818,1080000,is-sold,Sold by private treaty 14 Nov 2022,20221114,79 Evans Street,FAIRFIELD HEIGHTS,NSW,2165,-33.867115,150.932785,4,1,2,House,House,False,641,m2,False
2018134830,listing,/12-51-hamilton-road-fairfield-nsw-2165-2018134830,315000,is-sold,Sold by private treaty 31 Oct 2022,20221031,12/51 Hamilton Road,FAIRFIELD,NSW,2165,-33.8738441,150.951889,2,1,1,ApartmentUnitFlat,Apartment / Unit / Flat,False,0,m2,False
2018139704,listing,/4-69-station-street-fairfield-heights-nsw-2165-2018139704,650000,is-sold,Sold at auction 12 Nov 2022,20221112,4/69 Station Street,FAIRFIELD HEIGHTS,NSW,2165,-33.86695,150.948349,3,2,1,Villa,Villa,False,0,m2,False
2018147272,listing,/6-19-nelson-street-fairfield-nsw-2165-2018147272,432500,is-sold,Sold by private treaty 04 Nov 2022,20221104,6/19 Nelson Street,FAIRFIELD,NSW,2165,-33.8697052,150.952774,2,1,1,ApartmentUnitFlat,Apartment / Unit / Flat,False,0,m2,False
2018153662,listing,/4-76-hamilton-road-fairfield-nsw-2165-2018153662,385000,is-sold,Sold by private treaty 09 Nov 2022,20221109,4/76 Hamilton Road,FAIRFIELD,NSW,2165,-33.8729935,150.95076,2,1,1,ApartmentUnitFlat,Apartment / Unit / Flat,False,0,m2,False
2018154530,listing,/3-wright-street-fairfield-west-nsw-2165-2018154530,840000,is-sold,Sold by private treaty 07 Nov 2022,20221107,3 Wright Street,FAIRFIELD WEST,NSW,2165,-33.8702774,150.917786,5,1,7,House,House,False,556,m2,False
2018157439,listing,/69-mccarthy-street-fairfield-west-nsw-2165-2018157439,1470000,is-sold,Sold at auction 19 Nov 2022,20221119,69 McCarthy Street,FAIRFIELD WEST,NSW,2165,-33.86562,150.917969,5,3,2,House,House,False,595,m2,False
2018158458,listing,/10-jaffa-street-fairfield-west-nsw-2165-2018158458,866000,is-sold,Sold at auction 19 Nov 2022,20221119,10 Jaffa Street,FAIRFIELD WEST,NSW,2165,-33.8715172,150.927933,3,2,2,House,House,False,569,m2,False
2018174615,listing,/fairfield-nsw-2165-2018174615,430000,is-sold,Sold by private treaty 03 Nov 2022,20221103,,FAIRFIELD,NSW,2165,-33.8705864,150.9564,1,1,1,ApartmentUnitFlat,Apartment / Unit / Flat,False,0,m2,False
2018212781,listing,/fairfield-nsw-2165-2018212781,685000,is-sold,Sold by private treaty 14 Nov 2022,20221114,,FAIRFIELD,NSW,2165,-33.8705864,150.9564,3,2,2,ApartmentUnitFlat,Apartment / Unit / Flat,False,0,m2,False
2018263469,listing,/fairfield-nsw-2165-2018263469,Price Withheld,is-sold,Sold by private treaty 14 Nov 2022,20221114,,FAIRFIELD,NSW,2165,-33.8705864,150.9564,3,2,2,ApartmentUnitFlat,Apartment / Unit / Flat,False,0,m2,False
2016884369,listing,/103-17-21-the-crescent-fairfield-nsw-2165-2016884369,422500,is-sold,Sold by private treaty 27 Oct 2022,20221027,103/17-21 The Crescent,FAIRFIELD,NSW,2165,-33.87303,150.955,2,2,1,ApartmentUnitFlat,Apartment / Unit / Flat,False,0,m2,False
2017115919,listing,/7-71-nelson-street-fairfield-nsw-2165-2017115919,260000,is-sold,Sold by private treaty 19 Oct 2022,20221019,7/71 Nelson Street,FAIRFIELD,NSW,2165,-33.8695221,150.948578,1,1,1,ApartmentUnitFlat,Apartment / Unit / Flat,False,0,m2,False
2017748478,listing,/23-granville-street-fairfield-heights-nsw-2165-2017748478,860000,is-sold,Sold by private treaty 31 Oct 2022,20221031,23 Granville Street,FAIRFIELD HEIGHTS,NSW,2165,-33.8637123,150.946945,3,3,3,House,House,False,0,m2,False
2017773896,listing,/9-25-york-fairfield-nsw-2165-2017773896,265000,is-sold,Sold by private treaty 18 Oct 2022,20221018,9/25 YORK,FAIRFIELD,NSW,2165,-33.8753128,150.952286,1,1,1,ApartmentUnitFlat,Apartment / Unit / Flat,False,0,m2,False
2017794879,listing,/21-17-21-the-crescent-fairfield-nsw-2165-2017794879,416000,is-sold,Sold by private treaty 21 Oct 2022,20221021,21/17-21 The Crescent,FAIRFIELD,NSW,2165,-33.87303,150.955,2,2,1,ApartmentUnitFlat,Apartment / Unit / Flat,False,0,m2,False
2017976667,listing,/1-49-hamilton-road-fairfield-nsw-2165-2017976667,365000,is-sold,Sold by private treaty 24 Oct 2022,20221024,1/49 Hamilton Road,FAIRFIELD,NSW,2165,-33.87328,150.94162,2,1,1,House,House,False,0,m2,False
2018059252,listing,/8-de-witt-place-fairfield-west-nsw-2165-2018059252,790000,is-sold,Sold by private treaty 20 Oct 2022,20221020,8 De Witt Place,FAIRFIELD WEST,NSW,2165,-33.8651733,150.92189,3,1,2,House,House,False,0,m2,False
2018062706,listing,/4-30-32-wrentmore-street-fairfield-nsw-2165-2018062706,510000,is-sold,Sold by private treaty 14 Oct 2022,20221014,4/30-32 Wrentmore Street,FAIRFIELD,NSW,2165,-33.8699875,150.950851,2,1,1,Townhouse,Townhouse,False,0,m2,False
2018068683,listing,/43-dampier-crescent-fairfield-west-nsw-2165-2018068683,740000,is-sold,Sold by private treaty 28 Oct 2022,20221028,43 Dampier Crescent,FAIRFIELD WEST,NSW,2165,-33.8636551,150.92157,3,1,1,House,House,False,586,m2,False
2018069429,listing,/2-granville-street-fairfield-heights-nsw-2165-2018069429,1702000,is-sold,Sold at auction 20 Oct 2022,20221020,2 Granville Street,FAIRFIELD HEIGHTS,NSW,2165,-33.86578,150.947144,4,2,2,House,House,False,0,m2,False
2018080132,listing,/29-anthony-street-fairfield-nsw-2165-2018080132,1605000,is-sold,Sold at auction 15 Oct 2022,20221015,29 Anthony Street,FAIRFIELD,NSW,2165,-33.8624954,150.9543,6,3,4,House,House,False,696,m2,False
2018090082,listing,/13-isis-street-fairfield-west-nsw-2165-2018090082,771000,is-sold,Sold at auction 22 Oct 2022,20221022,13 Isis Street,FAIRFIELD WEST,NSW,2165,-33.8610725,150.922974,3,2,1,House,House,False,268,m2,False
2018092122,listing,/35a-landon-street-fairfield-east-nsw-2165-2018092122,1150000,is-sold,Sold at auction 22 Oct 2022,20221022,35a Landon Street,FAIRFIELD EAST,NSW,2165,-33.874073,150.965866,4,2,2,House,House,False,533,m2,False
2018095353,listing,/56-bligh-st-fairfield-east-nsw-2165-2018095353,950000,is-sold,Sold by private treaty 24 Oct 2022,20221024,56 Bligh St,FAIRFIELD EAST,NSW,2165,-33.8786736,150.9747,3,2,2,House,House,False,663,m2,False
2018106803,listing,/483-the-horsley-drive-fairfield-nsw-2165-2018106803,815000,is-sold,Sold at auction 29 Oct 2022,20221029,483 The Horsley Drive,FAIRFIELD,NSW,2165,-33.86145,150.952911,5,1,1,House,House,False,695,m2,False
2018108341,listing,/32a-nile-street-fairfield-heights-nsw-2165-2018108341,877800,is-sold,Sold by private treaty 20 Oct 2022,20221020,32A Nile Street,FAIRFIELD HEIGHTS,NSW,2165,-33.8656158,150.934616,4,2,1,House,House,False,255,m2,False
2018109566,listing,/141-king-road-fairfield-west-nsw-2165-2018109566,1010000,is-sold,Sold at auction 29 Oct 2022,20221029,141 King Road,FAIRFIELD WEST,NSW,2165,-33.87117,150.917435,3,1,1,House,House,False,651,m2,False
2018136795,listing,/fairfield-nsw-2165-2018136795,450000,is-sold,Sold by private treaty 18 Oct 2022,20221018,,FAIRFIELD,NSW,2165,-33.8705864,150.9564,1,1,1,ApartmentUnitFlat,Apartment / Unit / Flat,False,0,m2,False
2018143175,listing,/21-376-the-horsley-drive-fairfield-nsw-2165-2018143175,436200,is-sold,Sold by private treaty 18 Oct 2022,20221018,21/376 The Horsley Drive,FAIRFIELD,NSW,2165,-33.867878,150.956238,2,2,1,ApartmentUnitFlat,Apartment / Unit / Flat,False,0,m2,False
2018182993,listing,/13-376-the-horsley-drive-fairfield-nsw-2165-2018182993,430000,is-sold,Sold by private treaty 24 Oct 2022,20221024,13/376 The Horsley Drive,FAIRFIELD,NSW,2165,-33.867878,150.956238,2,1,1,ApartmentUnitFlat,Apartment / Unit / Flat,False,0,m2,False
2017761318,listing,/20-cathcart-street-fairfield-nsw-2165-2017761318,1000000,is-sold,Sold by private treaty 24 Sep 2022,20220924,20 Cathcart Street,FAIRFIELD,NSW,2165,-33.8803253,150.946533,5,3,2,House,House,False,0,m2,False
2017896224,listing,/83-king-road-fairfield-west-nsw-2165-2017896224,740000,is-sold,Sold by private treaty 07 Oct 2022,20221007,83 King road,FAIRFIELD WEST,NSW,2165,-33.8661079,150.9184,4,2,2,House,House,False,569,m2,False
2017916072,listing,/1-tyrell-crescent-fairfield-west-nsw-2165-2017916072,935000,is-sold,Sold by private treaty 05 Oct 2022,20221005,1 Tyrell Crescent,FAIRFIELD WEST,NSW,2165,-33.86435,150.931259,4,1,2,House,House,False,556,m2,False
2017942251,listing,/16-latty-street-fairfield-nsw-2165-2017942251,900000,is-sold,Sold by private treaty 07 Oct 2022,20221007,16 Latty Street,FAIRFIELD,NSW,2165,-33.87713,150.956436,5,3,1,Duplex,Duplex,False,0,m2,False
2017947038,listing,/11-cathcart-street-fairfield-nsw-2165-2017947038,1000000,is-sold,Sold at auction 28 Sep 2022,20220928,11 Cathcart Street,FAIRFIELD,NSW,2165,-33.88104,150.946671,4,1,1,House,House,False,569,m2,False
2017968501,listing,/62-376-the-horsley-drive-fairfield-nsw-2165-2017968501,610000,is-sold,Sold by private treaty 30 Sep 2022,20220930,62/376 The Horsley Drive,FAIRFIELD,NSW,2165,-33.867878,150.956238,3,2,1,ApartmentUnitFlat,Apartment / Unit / Flat,False,163,m2,False
2017989278,listing,/24-francis-st-fairfield-nsw-2165-2017989278,1070000,is-sold,Sold at auction 29 Sep 2022,20220929,24 Francis St,FAIRFIELD,NSW,2165,-33.8770561,150.948715,3,1,1,House,House,False,946,m2,False
2018022611,listing,/10-tamar-place-fairfield-west-nsw-2165-2018022611,975000,is-sold,Sold by private treaty 30 Sep 2022,20220930,10 Tamar Place,FAIRFIELD WEST,NSW,2165,-33.8642654,150.919754,6,2,2,House,House,False,556,m2,False
2018026655,listing,/48-kendall-street-fairfield-west-nsw-2165-2018026655,1785000,is-sold,Sold by private treaty 07 Oct 2022,20221007,48 Kendall Street,FAIRFIELD WEST,NSW,2165,-33.87052,150.91803,4,2,2,House,House,False,607,m2,False
2018028136,listing,/56-beale-crescent-fairfield-west-nsw-2165-2018028136,1150000,is-sold,Sold at auction 30 Sep 2022,20220930,56 Beale Crescent,FAIRFIELD WEST,NSW,2165,-33.8724747,150.922989,5,2,6,House,House,False,556,m2,False
2018033431,listing,/58-campbell-street-fairfield-east-nsw-2165-2018033431,1250000,is-sold,Sold at auction 24 Sep 2022,20220924,58 Campbell Street,FAIRFIELD EAST,NSW,2165,-33.8745537,150.96669,3,2,4,House,House,False,1011,m2,False
2018035537,listing,/98-dawson-street-fairfield-heights-nsw-2165-2018035537,1378000,is-sold,Sold at auction 24 Sep 2022,20220924,98 Dawson Street,FAIRFIELD HEIGHTS,NSW,2165,-33.8693924,150.932327,4,2,4,House,House,False,0,m2,False
2018057564,listing,/69a-rosina-street-fairfield-west-nsw-2165-2018057564,951000,is-sold,Sold at auction 09 Oct 2022,20221009,69A Rosina Street,FAIRFIELD WEST,NSW,2165,-33.87317,150.932022,5,3,2,SemiDetached,Semi-Detached,False,0,m2,False
2018062389,listing,/4-macarthur-street-fairfield-east-nsw-2165-2018062389,1500000,is-sold,Sold by private treaty 10 Oct 2022,20221010,4 Macarthur Street,FAIRFIELD EAST,NSW,2165,-33.8771324,150.975067,7,4,3,House,House,False,651,m2,False
2018062720,listing,/127-smart-street-fairfield-nsw-2165-2018062720,1422000,is-sold,Sold at auction 08 Oct 2022,20221008,127 Smart Street,FAIRFIELD,NSW,2165,-33.8649673,150.950577,4,3,3,House,House,False,803,m2,False
2018066940,listing,/2-127-the-crescent-fairfield-nsw-2165-2018066940,357500,is-sold,Sold by private treaty 04 Oct 2022,20221004,2/127 The Crescent,FAIRFIELD,NSW,2165,-33.8703537,150.959961,2,1,1,ApartmentUnitFlat,Apartment / Unit / Flat,False,0,m2,False
2018090946,listing,/fairfield-nsw-2165-2018090946,450000,is-sold,Sold by private treaty 27 Sep 2022,20220927,,FAIRFIELD,NSW,2165,-33.8705864,150.9564,1,1,1,ApartmentUnitFlat,Apartment / Unit / Flat,False,0,m2,False
2018090947,listing,/fairfield-nsw-2165-2018090947,Price Withheld,is-sold,Sold by private treaty 27 Sep 2022,20220927,,FAIRFIELD,NSW,2165,-33.8705864,150.9564,1,1,1,ApartmentUnitFlat,Apartment / Unit / Flat,False,0,m2,False
2018090948,listing,/97-46-54-court-road-fairfield-nsw-2165-2018090948,440000,is-sold,Sold by private treaty 27 Sep 2022,20220927,97/46-54 Court Road,FAIRFIELD,NSW,2165,-33.86897,150.958466,1,1,1,ApartmentUnitFlat,Apartment / Unit / Flat,False,0,m2,False
2018113647,listing,/fairfield-nsw-2165-2018113647,435000,is-sold,Sold by private treaty 06 Oct 2022,20221006,,FAIRFIELD,NSW,2165,-33.8705864,150.9564,1,1,1,ApartmentUnitFlat,Apartment / Unit / Flat,False,0,m2,False
2017613905,listing,/603-28-smart-st-fairfield-nsw-2165-2017613905,300000,is-sold,Sold by private treaty 13 Sep 2022,20220913,603/28 SMART ST,FAIRFIELD,NSW,2165,-33.87078,150.956955,1,1,-,ApartmentUnitFlat,Apartment / Unit / Flat,False,0,m2,False
2017633956,listing,/16-33-35-kenyon-street-fairfield-nsw-2165-2017633956,257500,is-sold,Sold by private treaty 16 Sep 2022,20220916,16/33-35 Kenyon Street,FAIRFIELD,NSW,2165,-33.8712769,150.951813,1,1,1,ApartmentUnitFlat,Apartment / Unit / Flat,False,0,m2,False
2017867647,listing,/144-fairfield-street-fairfield-east-nsw-2165-2017867647,2350000,is-sold,Sold by private treaty 13 Sep 2022,20220913,144 Fairfield Street,FAIRFIELD EAST,NSW,2165,-33.868763,150.970947,3,1,3,House,House,False,4354,m2,False
2017931651,listing,/39-camden-street-fairfield-heights-nsw-2165-2017931651,1350000,is-sold,Sold by private treaty 09 Sep 2022,20220909,39 Camden Street,FAIRFIELD HEIGHTS,NSW,2165,-33.8679466,150.94725,5,3,1,House,House,False,520,m2,False
2017975305,listing,/65-throsby-street-fairfield-heights-nsw-2165-2017975305,987500,is-sold,Sold at auction 03 Sep 2022,20220903,65 Throsby Street,FAIRFIELD HEIGHTS,NSW,2165,-33.8687744,150.9348,3,1,2,House,House,False,512,m2,False
2017977693,listing,/39a-crown-street-fairfield-east-nsw-2165-2017977693,Price Withheld,is-sold,Sold by private treaty 06 Sep 2022,20220906,39A Crown Street,FAIRFIELD EAST,NSW,2165,-33.8712921,150.970215,5,3,2,House,House,False,348,m2,False
2017988014,listing,/325-polding-street-fairfield-west-nsw-2165-2017988014,780000,is-sold,Sold prior to auction 12 Sep 2022,20220912,325 Polding Street,FAIRFIELD WEST,NSW,2165,-33.85982,150.9217,3,1,1,House,House,False,556,m2,False
2017994812,listing,/3-dyson-street-fairfield-west-nsw-2165-2017994812,867000,is-sold,Sold prior to auction 09 Sep 2022,20220909,3 Dyson Street,FAIRFIELD WEST,NSW,2165,-33.8694,150.919708,3,2,2,House,House,False,556,m2,False
2018000343,listing,/33-286-fairfield-street-fairfield-nsw-2165-2018000343,520000,is-sold,Sold by private treaty 09 Sep 2022,20220909,33/286 Fairfield Street,FAIRFIELD,NSW,2165,-33.8716927,150.959076,3,2,2,ApartmentUnitFlat,Apartment / Unit / Flat,False,184,m2,False
2018001699,listing,/41-james-street-fairfield-east-nsw-2165-2018001699,1005000,is-sold,Sold at auction 10 Sep 2022,20220910,41 James Street,FAIRFIELD EAST,NSW,2165,-33.87115,150.9669,3,1,-,House,House,False,929,m2,False
2018001930,listing,/2-vancouver-place-fairfield-west-nsw-2165-2018001930,776000,is-sold,Sold at auction 10 Sep 2022,20220910,2 Vancouver Place,FAIRFIELD WEST,NSW,2165,-33.8667145,150.921982,3,1,1,House,House,False,585,m2,False
2018003462,listing,/232-ware-street-fairfield-heights-nsw-2165-2018003462,1000000,is-sold,Sold at auction 10 Sep 2022,20220910,232 Ware Street,FAIRFIELD HEIGHTS,NSW,2165,-33.86509,150.947479,3,1,2,House,House,False,531,m2,False
2018018229,listing,/25-dalziel-street-fairfield-west-nsw-2165-2018018229,1217000,is-sold,Sold at auction 17 Sep 2022,20220917,25 Dalziel Street,FAIRFIELD WEST,NSW,2165,-33.86902,150.916534,4,2,1,House,House,False,555,m2,False
2018018530,listing,/219-the-horsley-drive-fairfield-east-nsw-2165-2018018530,730000,is-sold,Sold at auction 17 Sep 2022,20220917,219 The Horsley Drive,FAIRFIELD EAST,NSW,2165,-33.8749962,150.96553,3,2,2,House,House,False,532,m2,False
2018025093,listing,/12-grenada-street-fairfield-west-nsw-2165-2018025093,730000,is-sold,Sold at auction 17 Sep 2022,20220917,12 Grenada Street,FAIRFIELD WEST,NSW,2165,-33.86696,150.918762,2,1,1,House,House,False,556,m2,False
2018037179,listing,/88b-lombard-street-fairfield-west-nsw-2165-2018037179,798000,is-sold,Sold by private treaty 13 Sep 2022,20220913,88B Lombard Street,FAIRFIELD WEST,NSW,2165,-33.87202,150.932526,3,2,1,House,House,False,250,m2,False
2018086508,listing,/fairfield-nsw-2165-2018086508,460000,is-sold,Sold by private treaty 23 Sep 2022,20220923,,FAIRFIELD,NSW,2165,-33.8705864,150.9564,1,1,1,ApartmentUnitFlat,Apartment / Unit / Flat,False,0,m2,False
2018086509,listing,/fairfield-nsw-2165-2018086509,440000,is-sold,Sold by private treaty 23 Sep 2022,20220923,,FAIRFIELD,NSW,2165,-33.8705864,150.9564,1,1,1,ApartmentUnitFlat,Apartment / Unit / Flat,False,0,m2,False
2018086560,listing,/fairfield-nsw-2165-2018086560,575000,is-sold,Sold by private treaty 23 Sep 2022,20220923,,FAIRFIELD,NSW,2165,-33.8705864,150.9564,2,2,1,ApartmentUnitFlat,Apartment / Unit / Flat,False,0,m2,False
2018089659,listing,/29-tasman-pde-fairfield-west-nsw-2165-2018089659,1330000,is-sold,Sold at auction 24 Sep 2022,20220924,29 Tasman Pde,FAIRFIELD WEST,NSW,2165,-33.8639679,150.924026,7,3,-,House,House,False,562,m2,False
2017608095,listing,/12-21-york-street-fairfield-nsw-2165-2017608095,345000,is-sold,Sold by private treaty 31 Aug 2022,20220831,12/21 York Street,FAIRFIELD,NSW,2165,-33.8750343,150.952484,2,1,1,ApartmentUnitFlat,Apartment / Unit / Flat,False,0,m2,False
2017841638,listing,/4-37-kenyon-street-fairfield-nsw-2165-2017841638,355000,is-sold,Sold by private treaty 03 Aug 2022,20220803,4/37 Kenyon Street,FAIRFIELD,NSW,2165,-33.871212,150.951569,2,1,1,ApartmentUnitFlat,Apartment / Unit / Flat,False,0,m2,False
2017854223,listing,/2-eliza-street-fairfield-heights-nsw-2165-2017854223,900000,is-sold,Sold by private treaty 31 Aug 2022,20220831,2 Eliza Street,FAIRFIELD HEIGHTS,NSW,2165,-33.86741,150.9399,3,2,2,House,House,False,0,m2,False
2017855062,listing,/76-throsby-st-fairfield-heights-nsw-2165-2017855062,1100000,is-sold,Sold by private treaty 22 Aug 2022,20220822,76 Throsby St,FAIRFIELD HEIGHTS,NSW,2165,-33.8681946,150.9341,5,3,1,SemiDetached,Semi-Detached,False,255,m2,False
2017892672,listing,/14-gardiner-crescent-fairfield-west-nsw-2165-2017892672,800000,is-sold,Sold by private treaty 23 Aug 2022,20220823,14 Gardiner Crescent,FAIRFIELD WEST,NSW,2165,-33.8692741,150.928528,2,1,4,House,House,False,0,m2,False
2017895864,listing,/363-polding-street-fairfield-west-nsw-2165-2017895864,684000,is-sold,Sold by private treaty 13 Aug 2022,20220813,363 Polding Street,FAIRFIELD WEST,NSW,2165,-33.8593826,150.918625,3,1,1,House,House,False,556,m2,False
2017900422,listing,/3-62-hamilton-road-fairfield-nsw-2165-2017900422,360000,is-sold,Sold by private treaty 29 Aug 2022,20220829,3/62 Hamilton Road,FAIRFIELD,NSW,2165,-33.86949,150.924377,2,1,1,ApartmentUnitFlat,Apartment / Unit / Flat,False,0,m2,False
2017925411,listing,/34-crosby-crescent-fairfield-nsw-2165-2017925411,736000,is-sold,Sold at auction 06 Aug 2022,20220806,34 Crosby Crescent,FAIRFIELD,NSW,2165,-33.85856,150.954208,3,1,4,House,House,False,594,m2,False
2017939977,listing,/432-17-21-the-crescent-fairfield-nsw-2165-2017939977,Price Withheld,is-sold,Sold by private treaty 05 Aug 2022,20220805,432/17-21 The Crescent,FAIRFIELD,NSW,2165,-33.87303,150.955,3,2,2,ApartmentUnitFlat,Apartment / Unit / Flat,False,0,m2,False
2017941385,listing,/6-tamar-place-fairfield-west-nsw-2165-2017941385,850000,is-sold,Sold at auction 13 Aug 2022,20220813,6 Tamar Place,FAIRFIELD WEST,NSW,2165,-33.86448,150.92012,3,1,2,House,House,False,626,m2,False
2017962666,listing,/17a-stanbrook-street-fairfield-heights-nsw-2165-2017962666,Price Withheld,is-sold,Sold by private treaty 03 Sep 2022,20220903,17A Stanbrook Street,FAIRFIELD HEIGHTS,NSW,2165,-33.8643837,150.943024,5,3,1,SemiDetached,Semi-Detached,False,278,m2,False
2017965846,listing,/50-376-the-horsley-drive-fairfield-nsw-2165-2017965846,500000,is-sold,Sold by private treaty 02 Sep 2022,20220902,50/376 The Horsley Drive,FAIRFIELD,NSW,2165,-33.867878,150.956238,3,2,1,ApartmentUnitFlat,Apartment / Unit / Flat,False,0,m2,False
2017969343,listing,/2-15-17-hardy-street-fairfield-nsw-2165-2017969343,420000,is-sold,Sold by private treaty 18 Aug 2022,20220818,2/15 - 17 Hardy Street,FAIRFIELD,NSW,2165,-33.8685341,150.949631,2,1,1,ApartmentUnitFlat,Apartment / Unit / Flat,False,0,m2,False
2017970333,listing,/66a-madeline-street-fairfield-west-nsw-2165-2017970333,1062500,is-sold,Sold at auction 27 Aug 2022,20220827,66a Madeline Street,FAIRFIELD WEST,NSW,2165,-33.8737068,150.932892,4,2,1,House,House,False,0,m2,False
2017977925,listing,/2-3-5-lyndon-street-fairfield-nsw-2165-2017977925,635000,is-sold,Sold by private treaty 26 Aug 2022,20220826,2/3-5 Lyndon Street,FAIRFIELD,NSW,2165,-33.87746,150.9537,3,2,1,Townhouse,Townhouse,False,172,m2,False
2017983130,listing,/35-hawkesbury-street-fairfield-west-nsw-2165-2017983130,1060000,is-sold,Sold by private treaty 15 Aug 2022,20220815,35 Hawkesbury Street,FAIRFIELD WEST,NSW,2165,-33.8738747,150.9204,6,2,3,House,House,False,556,m2,False
2017987356,listing,/14-80-82-tasman-pde-fairfield-west-nsw-2165-2017987356,590000,is-sold,Sold by private treaty 22 Aug 2022,20220822,14/80-82 Tasman Pde,FAIRFIELD WEST,NSW,2165,-33.86775,150.922592,3,2,1,ApartmentUnitFlat,Apartment / Unit / Flat,False,0,m2,False
2017988016,listing,/86-ligar-street-fairfield-heights-nsw-2165-2017988016,890000,is-sold,Sold at auction 18 Aug 2022,20220818,86 Ligar Street,FAIRFIELD HEIGHTS,NSW,2165,-33.8663635,150.933029,3,1,2,House,House,False,0,m2,False
2017991500,listing,/10a-beemera-street-fairfield-heights-nsw-2165-2017991500,1150000,is-sold,Sold by private treaty 02 Aug 2022,20220802,10A Beemera Street,FAIRFIELD HEIGHTS,NSW,2165,-33.86483,150.936844,5,3,1,SemiDetached,Semi-Detached,False,250,m2,False
2018024998,listing,/40-throsby-street-fairfield-heights-nsw-2165-2018024998,1035000,is-sold,Sold by private treaty 03 Sep 2022,20220903,40 Throsby Street,FAIRFIELD HEIGHTS,NSW,2165,-33.8687973,150.937073,5,3,1,House,House,False,278,m2,False
2017580008,listing,/9-33-35-kenyon-street-fairfield-nsw-2165-2017580008,337500,is-sold,Sold by private treaty 15 Jul 2022,20220715,9/33-35 Kenyon Street,FAIRFIELD,NSW,2165,-33.8712769,150.951813,2,1,1,ApartmentUnitFlat,Apartment / Unit / Flat,False,0,m2,False
2017755140,listing,/10-wenden-street-fairfield-nsw-2165-2017755140,1040000,is-sold,Sold by private treaty 11 Jul 2022,20220711,10 Wenden Street,FAIRFIELD,NSW,2165,-33.8753777,150.93985,6,3,2,House,House,False,0,m2,False
2017755356,listing,/19-warrumbungle-street-fairfield-west-nsw-2165-2017755356,850000,is-sold,Sold by private treaty 23 Jul 2022,20220723,19 Warrumbungle Street,FAIRFIELD WEST,NSW,2165,-33.86776,150.928848,4,1,1,House,House,False,556,m2,False
2017766398,listing,/53-kenyon-street-fairfield-nsw-2165-2017766398,2165000,is-sold,Sold by private treaty 19 Jul 2022,20220719,53 Kenyon Street,FAIRFIELD,NSW,2165,-33.8713379,150.950211,12,6,6,ApartmentUnitFlat,Apartment / Unit / Flat,False,1075,m2,False
2017773593,listing,/34-beale-crescent-fairfield-west-nsw-2165-2017773593,920000,is-sold,Sold by private treaty 01 Aug 2022,20220801,34 Beale Crescent,FAIRFIELD WEST,NSW,2165,-33.8714828,150.924713,3,1,2,House,House,False,575,m2,False
2017810548,listing,/66-margaret-street-fairfield-west-nsw-2165-2017810548,1250000,is-sold,Sold at auction 15 Jul 2022,20220715,66 Margaret Street,FAIRFIELD WEST,NSW,2165,-33.8748741,150.932617,5,2,2,House,House,False,1069,m2,False
2017826364,listing,/7-38-vine-st-fairfield-nsw-2165-2017826364,358000,is-sold,Sold by private treaty 12 Jul 2022,20220712,7/38 VINE ST,FAIRFIELD,NSW,2165,-33.8737564,150.959625,2,1,1,ApartmentUnitFlat,Apartment / Unit / Flat,False,0,m2,False
2017836307,listing,/33-127-the-crescent-fairfield-nsw-2165-2017836307,350000,is-sold,Sold by private treaty 18 Jul 2022,20220718,33/127 The Crescent,FAIRFIELD,NSW,2165,-33.8703537,150.959961,2,1,1,ApartmentUnitFlat,Apartment / Unit / Flat,False,0,m2,False
2017842402,listing,/2-adam-street-fairfield-nsw-2165-2017842402,1040000,is-sold,Sold by private treaty 16 Jul 2022,20220716,2 Adam Street,FAIRFIELD,NSW,2165,-33.865303,150.953125,3,2,-,House,House,False,740,m2,False
2017854507,listing,/88-lombard-street-fairfield-west-nsw-2165-2017854507,808000,is-sold,Sold by private treaty 26 Jul 2022,20220726,88 Lombard Street,FAIRFIELD WEST,NSW,2165,-33.87202,150.9327,3,2,1,SemiDetached,Semi-Detached,False,267,m2,False
2017855185,listing,/5-cottrell-place-fairfield-west-nsw-2165-2017855185,1539000,is-sold,Sold by private treaty 29 Jul 2022,20220729,5 Cottrell Place,FAIRFIELD WEST,NSW,2165,-33.8636436,150.915482,4,3,2,House,House,False,540,m2,False
2017883712,listing,/14-45-kenyon-street-fairfield-nsw-2165-2017883712,355000,is-sold,Sold by private treaty 19 Jul 2022,20220719,14/45 Kenyon Street,FAIRFIELD,NSW,2165,-33.8712921,150.950851,2,1,1,ApartmentUnitFlat,Apartment / Unit / Flat,False,0,m2,False
2017886326,listing,/30-joyce-street-fairfield-nsw-2165-2017886326,1700000,is-sold,Sold by private treaty 18 Jul 2022,20220718,30 Joyce Street,FAIRFIELD,NSW,2165,-33.8715935,150.943054,4,2,2,House,House,False,1003,m2,False
2017895709,listing,/3-dunstan-street-fairfield-west-nsw-2165-2017895709,850000,is-sold,Sold at auction 19 Jul 2022,20220719,3 Dunstan Street,FAIRFIELD WEST,NSW,2165,-33.8659172,150.912537,3,1,1,House,House,False,580,m2,False
2017896740,listing,/42-tasman-parade-fairfield-west-nsw-2165-2017896740,1170000,is-sold,Sold at auction 23 Jul 2022,20220723,42 Tasman Parade,FAIRFIELD WEST,NSW,2165,-33.86475,150.924438,5,2,4,House,House,False,556,m2,False
2017897787,listing,/4-wright-street-fairfield-west-nsw-2165-2017897787,1345000,is-sold,Sold at auction 23 Jul 2022,20220723,4 Wright Street,FAIRFIELD WEST,NSW,2165,-33.86984,150.917847,5,3,2,House,House,False,556,m2,False
2017900801,listing,/18-paterson-crescent-fairfield-west-nsw-2165-2017900801,868000,is-sold,Sold by private treaty 26 Jul 2022,20220726,18 Paterson Crescent,FAIRFIELD WEST,NSW,2165,-33.870903,150.919342,3,1,1,House,House,False,588,m2,False
2017901649,listing,/508-1-spencer-street-fairfield-nsw-2165-2017901649,420000,is-sold,Sold by private treaty 13 Jul 2022,20220713,508/1 Spencer Street,FAIRFIELD,NSW,2165,-33.87054,150.957458,2,1,1,ApartmentUnitFlat,Apartment / Unit / Flat,False,0,m2,False
2017950067,listing,/15-quiros-avenue-fairfield-west-nsw-2165-2017950067,835000,is-sold,Sold by private treaty 27 Jul 2022,20220727,15 Quiros Avenue,FAIRFIELD WEST,NSW,2165,-33.8630638,150.925171,3,1,1,House,House,False,579,m2,False
2018006155,listing,/22-richardson-st-fairfield-nsw-2165-2018006155,1020000,is-sold,Sold by private treaty 01 Aug 2022,20220801,22 Richardson St,FAIRFIELD,NSW,2165,-33.87363,150.9419,4,2,1,House,House,False,607,m2,False
2017550442,listing,/7-66-70-sackville-street-fairfield-nsw-2165-2017550442,450000,is-sold,Sold by private treaty 24 Jun 2022,20220624,7/66-70 Sackville Street,FAIRFIELD,NSW,2165,-33.8688354,150.94841,3,1,1,ApartmentUnitFlat,Apartment / Unit / Flat,False,0,m2,False
2017618675,listing,/751-17-21-the-crescent-fairfield-nsw-2165-2017618675,355000,is-sold,Sold by private treaty 24 Jun 2022,20220624,751/17-21 The Crescent,FAIRFIELD,NSW,2165,-33.87303,150.955,1,1,1,ApartmentUnitFlat,Apartment / Unit / Flat,False,0,m2,False
2017628788,listing,/2-55-nelson-street-fairfield-nsw-2165-2017628788,625000,is-sold,Sold by private treaty 07 Jun 2022,20220607,2/55 Nelson Street,FAIRFIELD,NSW,2165,-33.8695641,150.94986,3,1,1,Townhouse,Townhouse,False,0,m2,False
2017743442,listing,/2a-percy-street-fairfield-heights-nsw-2165-2017743442,775,is-sold,Sold by private treaty 28 Jun 2022,20220628,2a Percy Street,FAIRFIELD HEIGHTS,NSW,2165,-33.8665428,150.937546,3,2,1,SemiDetached,Semi-Detached,False,0,m2,False
2017751420,listing,/7-19-21-marlborough-street-fairfield-heights-nsw-2165-2017751420,700000,is-sold,Sold by private treaty 16 Jun 2022,20220616,7/19-21 Marlborough Street,FAIRFIELD HEIGHTS,NSW,2165,-33.8633842,150.9445,3,1,1,Townhouse,Townhouse,False,0,m2,False
2017761304,listing,/39-station-street-fairfield-nsw-2165-2017761304,1220000,is-sold,Sold by private treaty 20 Jun 2022,20220620,39 Station Street,FAIRFIELD,NSW,2165,-33.8678322,150.950775,5,1,1,House,House,False,758,m2,False
2017766449,listing,/9-jean-street-fairfield-east-nsw-2165-2017766449,950000,is-sold,Sold by private treaty 27 Jun 2022,20220627,9 Jean Street,FAIRFIELD EAST,NSW,2165,-33.88062,150.969391,3,1,-,House,House,False,767,m2,False
2017772279,listing,/1-shaw-place-fairfield-west-nsw-2165-2017772279,1200000,is-sold,Sold by private treaty 27 Jun 2022,20220627,1 Shaw Place,FAIRFIELD WEST,NSW,2165,-33.872673,150.92453,3,2,4,House,House,False,0,m2,False
2017787096,listing,/30a-ligar-street-fairfield-heights-nsw-2165-2017787096,Price Withheld,is-sold,Sold by private treaty 08 Jul 2022,20220708,30A Ligar Street,FAIRFIELD HEIGHTS,NSW,2165,-33.8674,150.938416,5,3,-,SemiDetached,Semi-Detached,False,210,m2,False
2017788666,listing,/35-veron-street-fairfield-east-nsw-2165-2017788666,1000000,is-sold,Sold by private treaty 05 Jul 2022,20220705,35 Veron Street,FAIRFIELD EAST,NSW,2165,-33.8698349,150.967026,3,1,2,House,House,False,929,m2,False
2017824916,listing,/21b-granville-street-street-fairfield-heights-nsw-2165-2017824916,1575000,is-sold,Sold at auction 25 Jun 2022,20220625,21B Granville Street Street,FAIRFIELD HEIGHTS,NSW,2165,-33.8638344,150.946945,8,5,2,House,House,False,790,m2,False
2017836596,listing,/16-seaman-avenue-fairfield-east-nsw-2165-2017836596,1306000,is-sold,Sold at auction 25 Jun 2022,20220625,16 Seaman Avenue,FAIRFIELD EAST,NSW,2165,-33.87956,150.973663,5,2,2,House,House,False,782,m2,False
2017839291,listing,/448-the-horsley-drive-fairfield-nsw-2165-2017839291,750000,is-sold,Sold at auction 24 Jun 2022,20220624,448 The Horsley Drive,FAIRFIELD,NSW,2165,-33.86319,150.953476,4,2,2,House,House,False,0,m2,False
2017840082,listing,/3-churchill-street-fairfield-heights-nsw-2165-2017840082,1210000,is-sold,Sold by private treaty 18 Jun 2022,20220618,3 Churchill Street,FAIRFIELD HEIGHTS,NSW,2165,-33.8698235,150.946411,4,2,1,House,House,False,955,m2,False
2017842271,listing,/9b-beemera-street-fairfield-heights-nsw-2165-2017842271,895000,is-sold,Sold at auction 25 Jun 2022,20220625,9B Beemera Street,FAIRFIELD HEIGHTS,NSW,2165,-33.8652458,150.936676,4,2,1,House,House,False,256,m2,False
2017852528,listing,/45-the-grove-fairfield-nsw-2165-2017852528,1505000,is-sold,Sold at auction 02 Jul 2022,20220702,45 The Grove,FAIRFIELD,NSW,2165,-33.87872,150.944626,3,1,1,House,House,False,867,m2,False
2017857034,listing,/160-hamilton-road-fairfield-nsw-2165-2017857034,1057000,is-sold,Sold prior to auction 24 Jun 2022,20220624,160 Hamilton Road,FAIRFIELD,NSW,2165,-33.87246,150.94339,4,2,1,House,House,False,0,m2,False
2017901048,listing,/20-jervis-street-fairfield-nsw-2165-2017901048,880000,is-sold,Sold prior to auction 08 Jul 2022,20220708,20 Jervis Street,FAIRFIELD,NSW,2165,-33.86127,150.957169,3,1,1,House,House,False,619,m2,False
2017914183,listing,/80-madaline-st-fairfield-west-nsw-2165-2017914183,1160000,is-sold,Sold by private treaty 01 Jul 2022,20220701,80 Madaline St,FAIRFIELD WEST,NSW,2165,-33.87337,150.931854,5,3,1,SemiDetached,Semi-Detached,False,0,m2,False
2017933993,listing,/36-tripoli-road-fairfield-west-nsw-2165-2017933993,770000,is-sold,Sold prior to auction 09 Jul 2022,20220709,36 Tripoli Road,FAIRFIELD WEST,NSW,2165,-33.8723145,150.9309,4,1,1,House,House,False,0,m2,False
2017396695,listing,/unit-305-28-smart-street-fairfield-nsw-2165-2017396695,420000,is-sold,Sold by private treaty 27 May 2022,20220527,Unit 305/28 Smart Street,FAIRFIELD,NSW,2165,-33.87078,150.956955,2,2,1,ApartmentUnitFlat,Apartment / Unit / Flat,False,0,m2,False
2017427579,listing,/29-garment-street-fairfield-west-nsw-2165-2017427579,1100000,is-sold,Sold by private treaty 27 May 2022,20220527,29 Garment Street,FAIRFIELD WEST,NSW,2165,-33.8611221,150.918716,7,2,2,House,House,False,556,m2,False
2017488820,listing,/14-408-410-the-horsley-drive-fairfield-nsw-2165-2017488820,400000,is-sold,Sold by private treaty 27 May 2022,20220527,14/408-410 The Horsley Drive,FAIRFIELD,NSW,2165,-33.8658028,150.955048,2,1,1,ApartmentUnitFlat,Apartment / Unit / Flat,False,0,m2,False
2017546850,listing,/2-25-27-station-street-fairfield-nsw-2165-2017546850,595000,is-sold,Sold by private treaty 30 May 2022,20220530,2/25-27 Station Street,FAIRFIELD,NSW,2165,-33.8682976,150.951614,3,1,1,Townhouse,Townhouse,False,0,m2,False
2017647805,listing,/6-127-the-crescent-fairfield-nsw-2165-2017647805,350000,is-sold,Sold by private treaty 24 May 2022,20220524,6/127 The Crescent,FAIRFIELD,NSW,2165,-33.8703537,150.959961,2,1,1,House,House,False,0,m2,False
2017679057,listing,/24-blackford-street-fairfield-east-nsw-2165-2017679057,800000,is-sold,Sold by private treaty 19 May 2022,20220519,24 Blackford Street,FAIRFIELD EAST,NSW,2165,-33.87641,150.978348,3,1,1,House,House,False,582,m2,False
2017722886,listing,/1-408-410-the-horsley-drive-fairfield-nsw-2165-2017722886,430000,is-sold,Sold by private treaty 17 May 2022,20220517,1/408-410 The Horsley Drive,FAIRFIELD,NSW,2165,-33.8658028,150.955048,2,1,1,ApartmentUnitFlat,Apartment / Unit / Flat,False,0,m2,False
2017759126,listing,/157-hamilton-road-fairfield-nsw-2165-2017759126,1120000,is-sold,Sold by private treaty 06 Jun 2022,20220606,157 Hamilton Road,FAIRFIELD,NSW,2165,-33.87322,150.94075,4,2,2,House,House,False,0,m2,False
2017774965,listing,/17-kimberley-crescent-fairfield-west-nsw-2165-2017774965,900000,is-sold,Sold at auction 21 May 2022,20220521,17 Kimberley Crescent,FAIRFIELD WEST,NSW,2165,-33.864254,150.929489,3,1,4,House,House,False,556,m2,False
2017777748,listing,/1205-1-spencer-street-fairfield-nsw-2165-2017777748,Price Withheld,is-sold,Sold by private treaty 06 Jun 2022,20220606,1205/1 Spencer Street,FAIRFIELD,NSW,2165,-33.87054,150.957458,2,1,1,ApartmentUnitFlat,Apartment / Unit / Flat,False,0,m2,False
2017781031,listing,/9-9a-evans-street-fairfield-heights-nsw-2165-2017781031,920000,is-sold,Sold by private treaty 07 Jun 2022,20220607,9 & 9A Evans Street,FAIRFIELD HEIGHTS,NSW,2165,-33.8687,150.9402,4,3,2,Duplex,Duplex,False,0,m2,False
2017781339,listing,/10-bernadette-place-fairfield-nsw-2165-2017781339,1037000,is-sold,Sold by private treaty 21 May 2022,20220521,10 Bernadette Place,FAIRFIELD,NSW,2165,-33.85686,150.953354,4,2,3,House,House,False,550,m2,False
2017782207,listing,/8-286-292-fairfield-street-fairfield-nsw-2165-2017782207,300000,is-sold,Sold by private treaty 17 May 2022,20220517,8/286-292 Fairfield Street,FAIRFIELD,NSW,2165,-33.8717346,150.959137,2,2,1,ApartmentUnitFlat,Apartment / Unit / Flat,False,0,m2,False
2017788224,listing,/12-lenton-avenue-fairfield-west-nsw-2165-2017788224,790000,is-sold,Sold at auction 04 Jun 2022,20220604,12 Lenton Avenue,FAIRFIELD WEST,NSW,2165,-33.8695335,150.9204,3,1,1,House,House,False,0,m2,False
2017791326,listing,/38-kambala-crescent-fairfield-west-nsw-2165-2017791326,900000,is-sold,Sold at auction 04 Jun 2022,20220604,38 Kambala Crescent,FAIRFIELD WEST,NSW,2165,-33.87522,150.92775,3,1,2,House,House,False,645,m2,False
2017794369,listing,/47-chadwick-crescent-fairfield-west-nsw-2165-2017794369,850000,is-sold,Sold at auction 04 Jun 2022,20220604,47 Chadwick Crescent,FAIRFIELD WEST,NSW,2165,-33.8728256,150.919083,3,1,1,House,House,False,556,m2,False
2017797406,listing,/3-1-lackey-street-fairfield-nsw-2165-2017797406,593000,is-sold,Sold at auction 04 Jun 2022,20220604,3/1 Lackey Street,FAIRFIELD,NSW,2165,-33.8741455,150.951355,3,1,1,Townhouse,Townhouse,False,0,m2,False
2017822015,listing,/29-beemera-street-fairfield-heights-nsw-2165-2017822015,1035000,is-sold,Sold prior to auction 03 Jun 2022,20220603,29 Beemera Street,FAIRFIELD HEIGHTS,NSW,2165,-33.8648834,150.935028,3,1,2,House,House,False,512,m2,False
2017837452,listing,/47a-karabar-street-fairfield-heights-nsw-2165-2017837452,1100000,is-sold,Sold by private treaty 18 May 2022,20220518,47A Karabar street,FAIRFIELD HEIGHTS,NSW,2165,-33.86301,150.9338,5,3,1,SemiDetached,Semi-Detached,False,0,m2,False
2017854952,listing,/76a-throsby-st-fairfield-heights-nsw-2165-2017854952,1130000,is-sold,Sold by private treaty 03 Jun 2022,20220603,76A Throsby St,FAIRFIELD HEIGHTS,NSW,2165,-33.8681946,150.9341,5,3,1,SemiDetached,Semi-Detached,False,255,m2,False
2016743412,listing,/6-80-82-tasman-parade-fairfield-west-nsw-2165-2016743412,Price Withheld,is-sold,Sold by private treaty 12 May 2022,20220512,6/80-82 Tasman Parade,FAIRFIELD WEST,NSW,2165,-33.86775,150.922592,2,2,1,ApartmentUnitFlat,Apartment / Unit / Flat,False,0,m2,False
2017479868,listing,/49a-wilga-street-fairfield-nsw-2165-2017479868,1250000,is-sold,Sold by private treaty 02 May 2022,20220502,49a Wilga Street,FAIRFIELD,NSW,2165,-33.8770561,150.954758,5,2,2,House,House,False,0,m2,False
2017630457,listing,/4b-stella-street-fairfield-nsw-2165-2017630457,650000,is-sold,Sold by private treaty 29 Apr 2022,20220429,4B Stella Street,FAIRFIELD,NSW,2165,-33.8703232,150.940414,3,1,1,Duplex,Duplex,False,0,m2,False
2017641797,listing,/4-13-lackey-street-fairfield-nsw-2165-2017641797,427000,is-sold,Sold by private treaty 11 May 2022,20220511,4/13 Lackey Street,FAIRFIELD,NSW,2165,-33.8747,150.950882,2,1,1,ApartmentUnitFlat,Apartment / Unit / Flat,False,0,m2,False
2017658329,listing,/35a-coleraine-street-fairfield-nsw-2165-2017658329,900000,is-sold,Sold by private treaty 13 May 2022,20220513,35A Coleraine Street,FAIRFIELD,NSW,2165,-33.8753242,150.946167,4,3,1,House,House,False,0,m2,False
2017658802,listing,/19-37-ware-street-fairfield-nsw-2165-2017658802,476000,is-sold,Sold by private treaty 05 May 2022,20220505,19/37 Ware Street,FAIRFIELD,NSW,2165,-33.871788,150.954788,2,1,1,ApartmentUnitFlat,Apartment / Unit / Flat,False,0,m2,False
2017662939,listing,/7-waverley-street-fairfield-nsw-2165-2017662939,1065000,is-sold,Sold by private treaty 09 May 2022,20220509,7 Waverley Street,FAIRFIELD,NSW,2165,-33.86077,150.9239,5,4,1,Duplex,Duplex,False,0,m2,False
2017665601,listing,/41-montrose-ave-fairfield-east-nsw-2165-2017665601,950000,is-sold,Sold by private treaty 10 May 2022,20220510,41 Montrose Ave,FAIRFIELD EAST,NSW,2165,-33.8749847,150.972946,3,1,3,House,House,False,519,m2,False
2017669471,listing,/79-wolseley-st-fairfield-nsw-2165-2017669471,1111000,is-sold,Sold by private treaty 02 May 2022,20220502,79 Wolseley St,FAIRFIELD,NSW,2165,-33.876667,150.942108,3,2,2,House,House,False,613,m2,False
2017711211,listing,/50-frederick-street-fairfield-nsw-2165-2017711211,1150000,is-sold,Sold by private treaty 04 May 2022,20220504,50 Frederick Street,FAIRFIELD,NSW,2165,-33.874794,150.946579,4,2,2,House,House,False,651,m2,False
2017714913,listing,/7b-waverley-street-fairfield-nsw-2165-2017714913,1100000,is-sold,Sold by private treaty 13 May 2022,20220513,7b Waverley Street,FAIRFIELD,NSW,2165,-33.86077,150.9239,5,4,1,House,House,False,0,m2,False
2017729036,listing,/73-camden-street-fairfield-heights-nsw-2165-2017729036,1317000,is-sold,Sold at auction 07 May 2022,20220507,73 Camden Street,FAIRFIELD HEIGHTS,NSW,2165,-33.8676033,150.944534,3,1,2,House,House,False,897,m2,False
2017733557,listing,/190-the-horsley-drive-fairfield-nsw-2165-2017733557,1003000,is-sold,Sold prior to auction 14 May 2022,20220514,190 The Horsley Drive,FAIRFIELD,NSW,2165,-33.8770752,150.9654,4,3,2,House,House,False,697,m2,False
2017744681,listing,/113-stella-street-fairfield-heights-nsw-2165-2017744681,1190000,is-sold,Sold at auction 14 May 2022,20220514,113 Stella Street,FAIRFIELD HEIGHTS,NSW,2165,-33.8693466,150.933624,5,2,2,House,House,False,0,m2,False
2017745742,listing,/78-the-grove-fairfield-nsw-2165-2017745742,930000,is-sold,Sold prior to auction 14 May 2022,20220514,78 The Grove,FAIRFIELD,NSW,2165,-33.8773232,150.943069,3,1,1,House,House,False,449,m2,False
2017750021,listing,/165-smart-street-fairfield-heights-nsw-2165-2017750021,1295000,is-sold,Sold at auction 14 May 2022,20220514,165 Smart Street,FAIRFIELD HEIGHTS,NSW,2165,-33.8641777,150.94548,3,1,2,House,House,False,765,m2,False
2017751389,listing,/10-79-harris-street-fairfield-nsw-2165-2017751389,310000,is-sold,Sold by private treaty 06 May 2022,20220506,10/79 Harris Street,FAIRFIELD,NSW,2165,-33.8723526,150.9498,2,1,1,ApartmentUnitFlat,Apartment / Unit / Flat,False,0,m2,False
2017760547,listing,/7-girra-street-fairfield-west-nsw-2165-2017760547,1050000,is-sold,Sold by private treaty 28 Apr 2022,20220428,"7 Girra Street,",FAIRFIELD WEST,NSW,2165,-33.8658257,150.930939,5,2,2,House,House,False,715,m2,False
2017761441,listing,/14b-isis-street-fairfield-west-nsw-2165-2017761441,1100000,is-sold,Sold by private treaty 17 May 2022,20220517,14B Isis Street,FAIRFIELD WEST,NSW,2165,-33.861084,150.9236,5,3,1,SemiDetached,Semi-Detached,False,0,m2,False
2017763250,listing,/4-de-witt-place-fairfield-west-nsw-2165-2017763250,825000,is-sold,Sold prior to auction 11 May 2022,20220511,4 De Witt Place,FAIRFIELD WEST,NSW,2165,-33.86472,150.921982,3,1,5,House,House,False,0,m2,False
2017362148,listing,/13-51-hamilton-road-fairfield-nsw-2165-2017362148,410000,is-sold,Sold by private treaty 12 Apr 2022,20220412,13/51 Hamilton Road,FAIRFIELD,NSW,2165,-33.87384,150.951782,2,1,1,ApartmentUnitFlat,Apartment / Unit / Flat,False,0,m2,False
2017435573,listing,/14-38-hardy-street-fairfield-nsw-2165-2017435573,295000,is-sold,Sold by private treaty 05 Apr 2022,20220405,14/38 Hardy Street,FAIRFIELD,NSW,2165,-33.86756,150.949417,1,1,1,ApartmentUnitFlat,Apartment / Unit / Flat,False,0,m2,False
2017560218,listing,/37a-dawson-street-fairfield-heights-nsw-2165-2017560218,780500,is-sold,Sold by private treaty 13 Apr 2022,20220413,37A Dawson Street,FAIRFIELD HEIGHTS,NSW,2165,-33.87075,150.936447,3,1,2,House,House,False,0,m2,False
2017581480,listing,/9-17-lackey-street-fairfield-nsw-2165-2017581480,350000,is-sold,Sold by private treaty 21 Apr 2022,20220421,9/17 Lackey Street,FAIRFIELD,NSW,2165,-33.87482,150.950714,2,1,1,ApartmentUnitFlat,Apartment / Unit / Flat,False,0,m2,False
2017607190,listing,/67-80-82-tasman-parade-fairfield-west-nsw-2165-2017607190,Price Withheld,is-sold,Sold by private treaty 07 Apr 2022,20220407,67/80-82 Tasman Parade,FAIRFIELD WEST,NSW,2165,-33.86775,150.922592,3,2,1,ApartmentUnitFlat,Apartment / Unit / Flat,False,0,m2,False
2017642165,listing,/37-anthony-st-fairfield-nsw-2165-2017642165,1146000,is-sold,Sold at auction 11 Apr 2022,20220411,37 Anthony St,FAIRFIELD,NSW,2165,-33.8617668,150.953842,3,1,-,House,House,False,696,m2,False
2017653467,listing,/20a-cathcart-street-fairfield-nsw-2165-2017653467,Price Withheld,is-sold,Sold by private treaty 11 Apr 2022,20220411,20A Cathcart Street,FAIRFIELD,NSW,2165,-33.8803253,150.946533,5,3,3,SemiDetached,Semi-Detached,False,0,m2,False
2017660055,listing,/33-stanbrook-street-fairfield-heights-nsw-2165-2017660055,2350000,is-sold,Sold at auction 10 Apr 2022,20220410,33 Stanbrook Street,FAIRFIELD HEIGHTS,NSW,2165,-33.86414,150.9413,2,1,2,House,House,False,1827,m2,False
2017660759,listing,/63-evans-street-fairfield-heights-nsw-2165-2017660759,1120000,is-sold,Sold at auction 09 Apr 2022,20220409,63 Evans Street,FAIRFIELD HEIGHTS,NSW,2165,-33.8674049,150.93399,4,1,2,House,House,False,505,m2,False
2017661599,listing,/4-3-5-lyndon-street-fairfield-nsw-2165-2017661599,710000,is-sold,Sold at auction 09 Apr 2022,20220409,4/3-5 Lyndon Street,FAIRFIELD,NSW,2165,-33.87746,150.9537,3,2,2,House,House,False,0,m2,False
2017664939,listing,/64-sackville-street-fairfield-nsw-2165-2017664939,2430000,is-sold,Sold at auction 08 Apr 2022,20220408,64 Sackville Street,FAIRFIELD,NSW,2165,-33.8685532,150.948532,12,6,-,ApartmentUnitFlat,Apartment / Unit / Flat,False,766,m2,False
2017680675,listing,/78-granville-street-fairfield-nsw-2165-2017680675,1130000,is-sold,Sold at auction 09 Apr 2022,20220409,78 Granville Street,FAIRFIELD,NSW,2165,-33.8593063,150.9489,4,2,2,House,House,False,835,m2,False
2017694465,listing,/14-isis-street-fairfield-west-nsw-2165-2017694465,960000,is-sold,Sold by private treaty 13 Apr 2022,20220413,14 Isis Street,FAIRFIELD WEST,NSW,2165,-33.86112,150.923569,5,3,1,SemiDetached,Semi-Detached,False,0,m2,False
2017696472,listing,/86-tangerine-street-fairfield-east-nsw-2165-2017696472,940000,is-sold,Sold at auction 23 Apr 2022,20220423,86 Tangerine Street,FAIRFIELD EAST,NSW,2165,-33.8763275,150.97142,3,1,1,House,House,False,0,m2,False
2017698771,listing,/3a-ligar-street-fairfield-heights-nsw-2165-2017698771,845000,is-sold,Sold at auction 20 Apr 2022,20220420,3A Ligar Street,FAIRFIELD HEIGHTS,NSW,2165,-33.868515,150.940826,3,2,1,Duplex,Duplex,False,253,m2,False
2017699126,listing,/474-the-horsley-drive-fairfield-nsw-2165-2017699126,840000,is-sold,Sold prior to auction 16 Apr 2022,20220416,474 The Horsley Drive,FAIRFIELD,NSW,2165,-33.86172,150.952469,5,2,-,House,House,False,550,m2,False
2017699438,listing,/61-80-tasman-pde-fairfield-west-nsw-2165-2017699438,620000,is-sold,Sold by private treaty 26 Apr 2022,20220426,61/80 Tasman Pde,FAIRFIELD WEST,NSW,2165,-33.86775,150.922592,3,2,1,ApartmentUnitFlat,Apartment / Unit / Flat,False,0,m2,False
2017700194,listing,/18a-latty-street-fairfield-nsw-2165-2017700194,890000,is-sold,Sold at auction 23 Apr 2022,20220423,18A Latty Street,FAIRFIELD,NSW,2165,-33.87731,150.956238,3,2,1,Duplex,Duplex,False,0,m2,False
2017755162,listing,/38-codrington-st-fairfield-nsw-2165-2017755162,950000,is-sold,Sold by private treaty 04 Apr 2022,20220404,38 Codrington St,FAIRFIELD,NSW,2165,-33.8763237,150.944626,3,1,1,House,House,False,0,m2,False
2017762509,listing,/fairfield-nsw-2165-2017762509,500000,is-sold,Sold by private treaty 22 Apr 2022,20220422,,FAIRFIELD,NSW,2165,-33.8685875,150.958389,3,2,1,ApartmentUnitFlat,Apartment / Unit / Flat,False,0,m2,False
2017007273,listing,/2-25-york-street-fairfield-nsw-2165-2017007273,350000,is-sold,Sold by private treaty 18 Mar 2022,20220318,2/25 York Street,FAIRFIELD,NSW,2165,-33.8753128,150.952286,2,1,1,ApartmentUnitFlat,Apartment / Unit / Flat,False,0,m2,False
2017444957,listing,/40-harold-street-fairfield-nsw-2165-2017444957,1780000,is-sold,Sold by private treaty 25 Mar 2022,20220325,40 Harold Street,FAIRFIELD,NSW,2165,-33.8737831,150.9466,4,3,7,House,House,False,1012,m2,False
2017483721,listing,/35-80-82-tasman-pde-fairfield-west-nsw-2165-2017483721,395000,is-sold,Sold by private treaty 04 Apr 2022,20220404,35/80-82 Tasman PDE,FAIRFIELD WEST,NSW,2165,-33.86775,150.922592,1,1,1,ApartmentUnitFlat,Apartment / Unit / Flat,False,0,m2,False
2017494754,listing,/14-isis-st-fairfield-west-nsw-2165-2017494754,1080000,is-sold,Sold by private treaty 25 Mar 2022,20220325,14 ISIS ST,FAIRFIELD WEST,NSW,2165,-33.86112,150.923569,5,3,1,SemiDetached,Semi-Detached,False,240,m2,False
2017575599,listing,/63-camden-street-fairfield-heights-nsw-2165-2017575599,900000,is-sold,Sold by private treaty 01 Apr 2022,20220401,63 Camden Street,FAIRFIELD HEIGHTS,NSW,2165,-33.8676834,150.9453,3,1,2,House,House,False,0,m2,False
2017606815,listing,/fairfield-nsw-2165-2017606815,730000,is-sold,Sold by private treaty 21 Mar 2022,20220321,,FAIRFIELD,NSW,2165,-33.86707,150.949432,3,2,1,Townhouse,Townhouse,False,0,m2,False
2017610281,listing,/28a-percy-street-fairfield-heights-nsw-2165-2017610281,1063000,is-sold,Sold at auction 19 Mar 2022,20220319,28A Percy Street,FAIRFIELD HEIGHTS,NSW,2165,-33.8659935,150.934937,4,1,1,House,House,False,505,m2,False
2017614920,listing,/36-anthony-street-fairfield-nsw-2165-2017614920,1110000,is-sold,Sold by private treaty 28 Mar 2022,20220328,36 Anthony Street,FAIRFIELD,NSW,2165,-33.8619156,150.954529,3,1,1,House,House,False,953,m2,False
2017618690,listing,/1-booth-close-fairfield-west-nsw-2165-2017618690,1380000,is-sold,Sold at auction 19 Mar 2022,20220319,1 Booth Close,FAIRFIELD WEST,NSW,2165,-33.8685837,150.915,5,2,2,House,House,False,457,m2,False
2017625171,listing,/1b-percy-street-fairfield-heights-nsw-2165-2017625171,815000,is-sold,Sold by private treaty 24 Mar 2022,20220324,1B Percy Street,FAIRFIELD HEIGHTS,NSW,2165,-33.86698,150.937378,4,1,1,SemiDetached,Semi-Detached,False,0,m2,False
2017626580,listing,/10-tyrell-crescent-fairfield-west-nsw-2165-2017626580,1205000,is-sold,Sold at auction 26 Mar 2022,20220326,10 Tyrell Crescent,FAIRFIELD WEST,NSW,2165,-33.86359,150.932022,3,1,1,House,House,False,619,m2,False
2017628828,listing,/27-codrington-street-fairfield-nsw-2165-2017628828,1000000,is-sold,Sold at auction 26 Mar 2022,20220326,27 Codrington Street,FAIRFIELD,NSW,2165,-33.8774948,150.945755,2,1,1,House,House,False,0,m2,False
2017634376,listing,/1-crosby-crescent-fairfield-nsw-2165-2017634376,980000,is-sold,Sold by private treaty 18 Mar 2022,20220318,1 Crosby Crescent,FAIRFIELD,NSW,2165,-33.8595924,150.954346,3,1,-,House,House,False,0,m2,False
2017636015,listing,/4-9-11-lackey-street-fairfield-nsw-2165-2017636015,400000,is-sold,Sold by private treaty 18 Mar 2022,20220318,4/9-11 Lackey Street,FAIRFIELD,NSW,2165,-33.87455,150.951019,2,1,1,ApartmentUnitFlat,Apartment / Unit / Flat,False,0,m2,False
2017636634,listing,/24-lavender-place-fairfield-west-nsw-2165-2017636634,1316000,is-sold,Sold at auction 26 Mar 2022,20220326,24 Lavender Place,FAIRFIELD WEST,NSW,2165,-33.8640366,150.91832,5,3,2,House,House,False,570,m2,False
2017642969,listing,/143-the-horsley-drive-fairfield-east-nsw-2165-2017642969,850000,is-sold,Sold by private treaty 30 Mar 2022,20220330,143 The Horsley Drive,FAIRFIELD EAST,NSW,2165,-33.8806534,150.966888,3,1,3,House,House,False,0,m2,False
2017645623,listing,/9-civic-centre-arcade-fairfield-nsw-2165-2017645623,870000,is-sold,Sold by private treaty 26 Mar 2022,20220326,9 Civic Centre Arcade,FAIRFIELD,NSW,2165,-33.87145,150.9556,2,1,1,House,House,False,0,m2,False
2017646989,listing,/9-102-104-station-street-fairfield-heights-nsw-2165-2017646989,590000,is-sold,Sold at auction 02 Apr 2022,20220402,9/102-104 Station Street,FAIRFIELD HEIGHTS,NSW,2165,-33.8652954,150.942566,2,1,1,House,House,False,0,m2,False
2017674877,listing,/24-dampier-crescent-fairfield-west-nsw-2165-2017674877,821500,is-sold,Sold by private treaty 21 Mar 2022,20220321,24 Dampier Crescent,FAIRFIELD WEST,NSW,2165,-33.8631439,150.922073,3,1,1,House,House,False,575,m2,False
2017694062,listing,/32-peppercorn-avenue-fairfield-east-nsw-2165-2017694062,785000,is-sold,Sold by private treaty 01 Apr 2022,20220401,32 Peppercorn Avenue,FAIRFIELD EAST,NSW,2165,-33.87699,150.968948,3,2,1,Terrace,Terrace,False,0,m2,False
2017390497,listing,/2-85-smart-st-fairfield-nsw-2165-2017390497,540000,is-sold,Sold by private treaty 08 Mar 2022,20220308,2/85 SMART ST,FAIRFIELD,NSW,2165,-33.8666458,150.953842,3,1,1,Townhouse,Townhouse,False,0,m2,False
2017415386,listing,/5-52-north-street-fairfield-nsw-2165-2017415386,757000,is-sold,Sold by private treaty 17 Mar 2022,20220317,5/52 North Street,FAIRFIELD,NSW,2165,-33.87874,150.957962,3,2,2,House,House,False,0,m2,False
2017499485,listing,/102-hamilton-road-fairfield-nsw-2165-2017499485,1280000,is-sold,Sold by private treaty 11 Mar 2022,20220311,102 Hamilton Road,FAIRFIELD,NSW,2165,-33.87286,150.948212,3,2,2,House,House,False,850,m2,False
2017507199,listing,/15-80-tasman-pde-fairfield-west-nsw-2165-2017507199,570000,is-sold,Sold by private treaty 05 Mar 2022,20220305,15/80 Tasman Pde,FAIRFIELD WEST,NSW,2165,-33.86775,150.922592,3,2,1,ApartmentUnitFlat,Apartment / Unit / Flat,False,0,m2,False
2017545300,listing,/49-cathcart-street-fairfield-nsw-2165-2017545300,1200000,is-sold,Sold by private treaty 15 Mar 2022,20220315,49 Cathcart Street,FAIRFIELD,NSW,2165,-33.8793221,150.943726,5,3,1,SemiDetached,Semi-Detached,False,289,m2,False
2017545301,listing,/49a-cathcart-street-fairfield-nsw-2165-2017545301,1230000,is-sold,Sold by private treaty 09 Mar 2022,20220309,49A Cathcart Street,FAIRFIELD,NSW,2165,-33.8793221,150.943726,5,3,1,SemiDetached,Semi-Detached,False,0,m2,False
2017555733,listing,/23a-cathcart-street-fairfield-nsw-2165-2017555733,862000,is-sold,Sold by private treaty 11 Mar 2022,20220311,23A Cathcart Street,FAIRFIELD,NSW,2165,-33.88063,150.9459,3,2,1,SemiDetached,Semi-Detached,False,0,m2,False
2017574509,listing,/14-brenan-street-fairfield-nsw-2165-2017574509,1015000,is-sold,Sold at auction 05 Mar 2022,20220305,14 Brenan Street,FAIRFIELD,NSW,2165,-33.8603,150.950256,4,2,2,House,House,False,0,m2,False
2017575798,listing,/75-hamilton-road-fairfield-nsw-2165-2017575798,3200000,is-sold,Sold at auction 05 Mar 2022,20220305,75 Hamilton Road,FAIRFIELD,NSW,2165,-33.8733635,150.948624,3,1,2,House,House,False,2024,m2,False
2017582271,listing,/21-crosby-crescent-fairfield-nsw-2165-2017582271,780000,is-sold,Sold by private treaty 05 Mar 2022,20220305,21 Crosby Crescent,FAIRFIELD,NSW,2165,-33.8583679,150.9558,3,2,2,House,House,False,0,m2,False
2017586170,listing,/4-24-york-street-fairfield-nsw-2165-2017586170,349000,is-sold,Sold by private treaty 04 Mar 2022,20220304,4/24 York Street,FAIRFIELD,NSW,2165,-33.8753471,150.951141,2,1,1,House,House,False,0,m2,False
2017587801,listing,/493-the-horsley-drive-fairfield-nsw-2165-2017587801,855000,is-sold,Sold at auction 05 Mar 2022,20220305,493 The Horsley Drive,FAIRFIELD,NSW,2165,-33.86081,150.952713,3,1,1,House,House,False,695,m2,False
2017591501,listing,/20a-chatsworth-street-fairfield-nsw-2165-2017591501,965000,is-sold,Sold at auction 05 Mar 2022,20220305,20A Chatsworth Street,FAIRFIELD,NSW,2165,-33.87449,150.944977,3,1,1,House,House,False,560,m2,False
2017593127,listing,/7-dalziel-street-fairfield-west-nsw-2165-2017593127,1431000,is-sold,Sold at auction 12 Mar 2022,20220312,7 Dalziel Street,FAIRFIELD WEST,NSW,2165,-33.8698959,150.916992,4,2,2,House,House,False,613,m2,False
2017606520,listing,/fairfield-heights-nsw-2165-2017606520,Price Withheld,is-sold,Sold by private treaty 05 Mar 2022,20220305,,FAIRFIELD HEIGHTS,NSW,2165,-33.8635254,150.93866,5,3,1,SemiDetached,Semi-Detached,False,250,m2,False
2017621885,listing,/29-vine-street-fairfield-nsw-2165-2017621885,1050000,is-sold,Sold by private treaty 09 Mar 2022,20220309,29 Vine Street,FAIRFIELD,NSW,2165,-33.8739128,150.958984,3,1,1,House,House,False,736,m2,False
2017623302,listing,/153c-smart-street-fairfield-heights-nsw-2165-2017623302,835000,is-sold,Sold by private treaty 17 Mar 2022,20220317,153C Smart Street,FAIRFIELD HEIGHTS,NSW,2165,-33.86432,150.946564,3,1,1,House,House,False,0,m2,False
2017623515,listing,/10-41-43-stanbrook-street-fairfield-heights-nsw-2165-2017623515,672000,is-sold,Sold by private treaty 08 Mar 2022,20220308,10/41-43 Stanbrook Street,FAIRFIELD HEIGHTS,NSW,2165,-33.864212,150.94046,3,1,1,Townhouse,Townhouse,False,61,m2,False
2017646190,listing,/19-orchard-rd-fairfield-nsw-2165-2017646190,1167000,is-sold,Sold by private treaty 16 Mar 2022,20220316,19 ORCHARD RD,FAIRFIELD,NSW,2165,-33.8794632,150.955887,6,6,4,House,House,False,1060,m2,False
2017694572,listing,/19-percy-street-fairfield-heights-nsw-2165-2017694572,1075000,is-sold,Sold by private treaty 18 Mar 2022,20220318,19 Percy Street,FAIRFIELD HEIGHTS,NSW,2165,-33.8666267,150.93573,5,3,-,SemiDetached,Semi-Detached,False,250,m2,False
2016859695,listing,/8-127-the-crescent-fairfield-nsw-2165-2016859695,335000,is-sold,Sold by private treaty 16 Feb 2022,20220216,8/127 The Crescent,FAIRFIELD,NSW,2165,-33.8703537,150.959961,2,1,1,ApartmentUnitFlat,Apartment / Unit / Flat,False,0,m2,False
2017383311,listing,/2-38-hardy-street-fairfield-nsw-2165-2017383311,300000,is-sold,Sold by private treaty 11 Feb 2022,20220211,2/38 Hardy Street,FAIRFIELD,NSW,2165,-33.86756,150.949417,2,1,1,ApartmentUnitFlat,Apartment / Unit / Flat,False,0,m2,False
2017413074,listing,/31-27-31-kenyon-street-fairfield-nsw-2165-2017413074,410000,is-sold,Sold prior to auction 14 Feb 2022,20220214,31/27-31 Kenyon Street,FAIRFIELD,NSW,2165,-33.87131,150.9523,2,1,1,ApartmentUnitFlat,Apartment / Unit / Flat,False,0,m2,False
2017434265,listing,/33-linda-street-fairfield-heights-nsw-2165-2017434265,955000,is-sold,Sold by private treaty 16 Feb 2022,20220216,33 Linda Street,FAIRFIELD HEIGHTS,NSW,2165,-33.87165,150.9373,4,3,1,House,House,False,0,m2,False
2017487276,listing,/33a-linda-street-fairfield-heights-nsw-2165-2017487276,935000,is-sold,Sold by private treaty 16 Feb 2022,20220216,33A Linda Street,FAIRFIELD HEIGHTS,NSW,2165,-33.87165,150.9373,3,3,2,Duplex,Duplex,False,0,m2,False
2017488913,listing,/135-lisbon-street-fairfield-east-nsw-2165-2017488913,940000,is-sold,Sold by private treaty 11 Feb 2022,20220211,135 Lisbon Street,FAIRFIELD EAST,NSW,2165,-33.8701019,150.970718,5,2,2,House,House,False,0,m2,False
2017506364,listing,/15-84-tasman-parade-fairfield-west-nsw-2165-2017506364,545000,is-sold,Sold by private treaty 11 Feb 2022,20220211,15/84 Tasman Parade,FAIRFIELD WEST,NSW,2165,-33.8678932,150.922729,3,2,1,ApartmentUnitFlat,Apartment / Unit / Flat,False,141,m2,False
2017525319,listing,/167-sackville-street-fairfield-nsw-2165-2017525319,1200000,is-sold,Sold at auction 21 Feb 2022,20220221,167 Sackville Street,FAIRFIELD,NSW,2165,-33.8773232,150.942444,3,1,3,House,House,False,879,m2,False
2017527100,listing,/15-67-harris-street-fairfield-nsw-2165-2017527100,420000,is-sold,Sold by private treaty 08 Feb 2022,20220208,15/67 Harris Street,FAIRFIELD,NSW,2165,-33.87246,150.950714,2,1,1,ApartmentUnitFlat,Apartment / Unit / Flat,False,0,m2,False
2017527912,listing,/2-30-madeline-street-fairfield-nsw-2165-2017527912,782000,is-sold,Sold by private treaty 07 Feb 2022,20220207,2/30 Madeline Street,FAIRFIELD,NSW,2165,-33.87437,150.935989,3,2,1,Duplex,Duplex,False,0,m2,False
2017542041,listing,/84-margaret-st-fairfield-west-nsw-2165-2017542041,920000,is-sold,Sold prior to auction 26 Feb 2022,20220226,84 MARGARET ST,FAIRFIELD WEST,NSW,2165,-33.8745651,150.931259,3,1,2,House,House,False,0,m2,False
2017550476,listing,/63-margaret-st-fairfield-west-nsw-2165-2017550476,1050000,is-sold,Sold by private treaty 03 Mar 2022,20220303,63 Margaret St,FAIRFIELD WEST,NSW,2165,-33.8743935,150.9323,5,1,1,House,House,False,0,m2,False
2017560311,listing,/41-victory-st-fairfield-east-nsw-2165-2017560311,1380000,is-sold,Sold at auction 26 Feb 2022,20220226,41 Victory St,FAIRFIELD EAST,NSW,2165,-33.87188,150.965988,4,2,2,House,House,False,1505,m2,False
2017560469,listing,/38-beemera-street-fairfield-heights-nsw-2165-2017560469,1080000,is-sold,Sold at auction 26 Feb 2022,20220226,38 Beemera Street,FAIRFIELD HEIGHTS,NSW,2165,-33.8643379,150.934616,3,1,1,House,House,False,0,m2,False
2017568883,listing,/1-46-harold-street-fairfield-nsw-2165-2017568883,800000,is-sold,Sold at auction 26 Feb 2022,20220226,1/46 Harold Street,FAIRFIELD,NSW,2165,-33.8737,150.945892,3,2,1,Villa,Villa,False,213,m2,False
2017570707,listing,/fairfield-nsw-2165-2017570707,903000,is-sold,Sold by private treaty 10 Feb 2022,20220210,,FAIRFIELD,NSW,2165,-33.8705864,150.9564,3,1,1,House,House,False,689,m2,False
2017575839,listing,/80-madeline-street-fairfield-west-nsw-2165-2017575839,1000000,is-sold,Sold prior to auction 18 Feb 2022,20220218,80 Madeline Street,FAIRFIELD WEST,NSW,2165,-33.87338,150.93187,3,1,1,House,House,False,0,m2,False
2017590816,listing,/35a-kihilla-st-fairfield-heights-nsw-2165-2017590816,851000,is-sold,Sold by private treaty 22 Feb 2022,20220222,35A Kihilla St,FAIRFIELD HEIGHTS,NSW,2165,-33.8640137,150.934631,3,2,2,SemiDetached,Semi-Detached,False,262,m2,False
2017601689,listing,/34-loftus-street-fairfield-east-nsw-2165-2017601689,1150000,is-sold,Sold prior to auction 04 Mar 2022,20220304,34 Loftus Street,FAIRFIELD EAST,NSW,2165,-33.87597,150.96962,3,1,1,House,House,False,1011,m2,False
2017614530,listing,/7-31-stanbrook-street-fairfield-heights-nsw-2165-2017614530,705000,is-sold,Sold by private treaty 03 Mar 2022,20220303,7/31 Stanbrook Street,FAIRFIELD HEIGHTS,NSW,2165,-33.86432,150.941528,2,2,1,Villa,Villa,False,162,m2,False
2017043733,listing,/21-dampier-crescent-fairfield-west-nsw-2165-2017043733,888000,is-sold,Sold by private treaty 06 Jan 2022,20220106,21 Dampier Crescent,FAIRFIELD WEST,NSW,2165,-33.8625145,150.922256,3,1,5,House,House,False,562,m2,False
2017312257,listing,/194-fairfield-st-fairfield-east-nsw-2165-2017312257,1380000,is-sold,Sold by private treaty 03 Feb 2022,20220203,194 Fairfield St,FAIRFIELD EAST,NSW,2165,-33.8691673,150.966766,6,4,2,SemiDetached,Semi-Detached,False,446,m2,False
2017340787,listing,/73-ligar-street-fairfield-heights-nsw-2165-2017340787,908450,is-sold,Sold by private treaty 28 Jan 2022,20220128,73 Ligar Street,FAIRFIELD HEIGHTS,NSW,2165,-33.86707,150.934082,4,3,1,House,House,False,256,m2,False
2017367161,listing,/31-percy-street-fairfield-heights-nsw-2165-2017367161,1050000,is-sold,Sold by private treaty 28 Jan 2022,20220128,31 Percy Street,FAIRFIELD HEIGHTS,NSW,2165,-33.86639,150.934631,4,1,1,House,House,False,506,m2,False
2017389349,listing,/7-38-hardy-street-fairfield-nsw-2165-2017389349,300000,is-sold,Sold by private treaty 02 Feb 2022,20220202,7/38 Hardy Street,FAIRFIELD,NSW,2165,-33.86756,150.949417,1,1,1,ApartmentUnitFlat,Apartment / Unit / Flat,False,0,m2,False
2017393830,listing,/80-normanby-street-fairfield-east-nsw-2165-2017393830,990000,is-sold,Sold by private treaty 23 Dec 2021,20211223,80 Normanby Street,FAIRFIELD EAST,NSW,2165,-33.8803368,150.972031,5,3,2,House,House,False,614,m2,False
2017415867,listing,/6-9-11-veron-street-fairfield-east-nsw-2165-2017415867,670000,is-sold,Sold by private treaty 28 Jan 2022,20220128,6/9-11 Veron Street,FAIRFIELD EAST,NSW,2165,-33.86943,150.9692,2,1,2,Townhouse,Townhouse,False,0,m2,False
2017418321,listing,/10-tasman-parade-fairfield-west-nsw-2165-2017418321,1140000,is-sold,Sold by private treaty 04 Jan 2022,20220104,10 Tasman Parade,FAIRFIELD WEST,NSW,2165,-33.86241,150.9248,3,1,2,House,House,False,550,m2,False
2017439322,listing,/7-crosby-crescent-fairfield-nsw-2165-2017439322,1150000,is-sold,Sold by private treaty 31 Jan 2022,20220131,7 Crosby Crescent,FAIRFIELD,NSW,2165,-33.85931,150.9548,6,3,1,House,House,False,581,m2,False
2017443757,listing,/16-bowler-avenue-fairfield-nsw-2165-2017443757,1100000,is-sold,Sold at auction 18 Dec 2021,20211218,16 Bowler Avenue,FAIRFIELD,NSW,2165,-33.8627548,150.951431,4,2,2,House,House,False,0,m2,False
2017452274,listing,/6-6a-siandra-avenue-fairfield-nsw-2165-2017452274,1085000,is-sold,Sold prior to auction 21 Jan 2022,20220121,6 & 6a Siandra Avenue,FAIRFIELD,NSW,2165,-33.8555069,150.951035,6,3,4,House,House,False,708,m2,False
2017461902,listing,/19-anthony-street-fairfield-nsw-2165-2017461902,1030000,is-sold,Sold at auction 18 Dec 2021,20211218,19 Anthony Street,FAIRFIELD,NSW,2165,-33.86309,150.954758,3,1,1,House,House,False,696,m2,False
2017464188,listing,/37-24-26-nelson-street-fairfield-nsw-2165-2017464188,420000,is-sold,Sold prior to auction 01 Feb 2022,20220201,37/24-26 Nelson Street,FAIRFIELD,NSW,2165,-33.8686333,150.954575,2,2,1,ApartmentUnitFlat,Apartment / Unit / Flat,False,0,m2,False
2017489925,listing,/55-palmerston-road-fairfield-west-nsw-2165-2017489925,869000,is-sold,Sold at auction 21 Jan 2022,20220121,55 Palmerston Road,FAIRFIELD WEST,NSW,2165,-33.8646126,150.925751,3,2,1,House,House,False,760,m2,False
2017493733,listing,/146-fairfield-street-fairfield-east-nsw-2165-2017493733,750000,is-sold,Sold at auction 29 Jan 2022,20220129,146 FAIRFIELD STREET,FAIRFIELD EAST,NSW,2165,-33.8687973,150.970734,-,-,-,VacantLand,Vacant land,False,690,m2,False
2017503795,listing,/26-26a-tasman-pde-fairfield-west-nsw-2165-2017503795,1100000,is-sold,Sold at auction 22 Jan 2022,20220122,26 + 26A Tasman Pde,FAIRFIELD WEST,NSW,2165,-33.86352,150.924622,6,2,3,House,House,False,557,m2,False
2017507383,listing,/13-bell-crescent-fairfield-nsw-2165-2017507383,785000,is-sold,Sold by private treaty 03 Feb 2022,20220203,13 Bell Crescent,FAIRFIELD,NSW,2165,-33.8689766,150.962387,3,1,1,House,House,False,580,m2,False
2017513095,listing,/55-madeline-street-fairfield-west-nsw-2165-2017513095,1032500,is-sold,Sold at auction 12 Jan 2022,20220112,55 Madeline Street,FAIRFIELD WEST,NSW,2165,-33.87443,150.934021,3,2,2,House,House,False,531,m2,False
2017513622,listing,/133-lisbon-street-fairfield-east-nsw-2165-2017513622,865000,is-sold,Sold at auction 29 Jan 2022,20220129,133 Lisbon Street,FAIRFIELD EAST,NSW,2165,-33.8701019,150.970871,3,1,2,House,House,False,0,m2,False
2017555667,listing,/23-cathcart-street-fairfield-nsw-2165-2017555667,870000,is-sold,Sold by private treaty 02 Feb 2022,20220202,23 Cathcart Street,FAIRFIELD,NSW,2165,-33.8806763,150.945969,3,2,1,SemiDetached,Semi-Detached,False,0,m2,False
2016898246,listing,/4-88-smart-street-fairfield-nsw-2165-2016898246,350000,is-sold,Sold by private treaty 30 Nov 2021,20211130,4/88 Smart Street,FAIRFIELD,NSW,2165,-33.86604,150.954437,2,1,1,ApartmentUnitFlat,Apartment / Unit / Flat,False,0,m2,False
2016963719,listing,/4-17-lawson-street-fairfield-nsw-2165-2016963719,250000,is-sold,Sold by private treaty 29 Nov 2021,20211129,4/17 Lawson Street,FAIRFIELD,NSW,2165,-33.8733978,150.956985,1,1,1,ApartmentUnitFlat,Apartment / Unit / Flat,False,0,m2,False
2016989646,listing,/fairfield-east-nsw-2165-2016989646,700000,is-sold,Sold by private treaty 16 Dec 2021,20211216,,FAIRFIELD EAST,NSW,2165,-33.8773537,150.968674,2,1,1,House,House,False,0,m2,False
2017124205,listing,/303-36-40-kenyon-street-fairfield-nsw-2165-2017124205,365000,is-sold,Sold by private treaty 30 Nov 2021,20211130,303/36-40 Kenyon Street,FAIRFIELD,NSW,2165,-33.8708954,150.950348,1,1,-,NewApartments,New Apartments / Off the Plan,False,0,m2,False
2017325596,listing,/15-beemera-street-fairfield-heights-nsw-2165-2017325596,950000,is-sold,Sold by private treaty 29 Nov 2021,20211129,15 Beemera Street,FAIRFIELD HEIGHTS,NSW,2165,-33.8651047,150.936218,5,3,1,Duplex,Duplex,False,0,m2,False
2017353026,listing,/5a-throsby-street-fairfield-heights-nsw-2165-2017353026,950000,is-sold,Sold by private treaty 30 Nov 2021,20211130,5a Throsby Street,FAIRFIELD HEIGHTS,NSW,2165,-33.8699455,150.9402,5,3,1,House,House,False,0,m2,False
2017358129,listing,/5-64-nelson-street-fairfield-nsw-2165-2017358129,461000,is-sold,Sold by private treaty 17 Dec 2021,20211217,5/64 Nelson Street,FAIRFIELD,NSW,2165,-33.8690224,150.948853,3,1,1,ApartmentUnitFlat,Apartment / Unit / Flat,False,0,m2,False
2017363050,listing,/74a-madeline-street-fairfield-west-nsw-2165-2017363050,860000,is-sold,Sold by private treaty 30 Nov 2021,20211130,74A Madeline Street,FAIRFIELD WEST,NSW,2165,-33.87357,150.932251,4,3,1,House,House,False,0,m2,False
2017371759,listing,/100-hamilton-road-fairfield-nsw-2165-2017371759,1450000,is-sold,Sold at auction 28 Nov 2021,20211128,100 Hamilton Road,FAIRFIELD,NSW,2165,-33.8728676,150.9484,4,1,2,House,House,False,850,m2,False
2017374574,listing,/42-44-stanbrook-street-fairfield-heights-nsw-2165-2017374574,Price Withheld,is-sold,Sold by private treaty 09 Dec 2021,20211209,42-44 STANBROOK STREET,FAIRFIELD HEIGHTS,NSW,2165,-33.8633156,150.940353,3,1,1,Townhouse,Townhouse,False,0,m2,False
2017377520,listing,/266-smithfield-road-fairfield-west-nsw-2165-2017377520,817000,is-sold,Sold by private treaty 06 Dec 2021,20211206,266 Smithfield Road,FAIRFIELD WEST,NSW,2165,-33.8613739,150.9237,3,1,3,House,House,False,556,m2,False
2017393082,listing,/9-13-lackey-street-fairfield-nsw-2165-2017393082,432000,is-sold,Sold by private treaty 08 Dec 2021,20211208,9/13 Lackey Street,FAIRFIELD,NSW,2165,-33.8747,150.950882,2,1,2,House,House,False,0,m2,False
2017401646,listing,/11-buckley-close-fairfield-west-nsw-2165-2017401646,1685000,is-sold,Sold by private treaty 06 Dec 2021,20211206,11 Buckley Close,FAIRFIELD WEST,NSW,2165,-33.8637772,150.916946,5,5,2,House,House,False,600,m2,False
2017414024,listing,/27-smart-street-fairfield-nsw-2165-2017414024,3500000,is-sold,Sold prior to auction 10 Dec 2021,20211210,27 Smart Street,FAIRFIELD,NSW,2165,-33.8710365,150.956223,2,2,-,House,House,False,477,m2,False
2017415492,listing,/11-cambewarra-road-fairfield-west-nsw-2165-2017415492,850000,is-sold,Sold prior to auction 10 Dec 2021,20211210,11 Cambewarra Road,FAIRFIELD WEST,NSW,2165,-33.8656,150.928986,3,1,3,House,House,False,0,m2,False
2017432268,listing,/14-grenada-street-fairfield-west-nsw-2165-2017432268,926000,is-sold,Sold at auction 18 Dec 2021,20211218,14 Grenada Street,FAIRFIELD WEST,NSW,2165,-33.86684,150.918762,3,1,1,House,House,False,556,m2,False
2017440774,listing,/94b-lombard-street-fairfield-west-nsw-2165-2017440774,920000,is-sold,Sold at auction 11 Dec 2021,20211211,94B Lombard Street,FAIRFIELD WEST,NSW,2165,-33.8718834,150.9321,5,3,1,House,House,False,270,m2,False
2017442932,listing,/4-hale-place-fairfield-heights-nsw-2165-2017442932,1180000,is-sold,Sold at auction 18 Dec 2021,20211218,4 Hale Place,FAIRFIELD HEIGHTS,NSW,2165,-33.8680954,150.9449,5,2,1,House,House,False,750,m2,False
2017446883,listing,/27-sackville-street-fairfield-heights-nsw-2165-2017446883,1400000,is-sold,Sold at auction 18 Dec 2021,20211218,27 Sackville Street,FAIRFIELD HEIGHTS,NSW,2165,-33.865818,150.949524,3,2,1,House,House,False,499,m2,False
2017450083,listing,/16-margaret-street-fairfield-nsw-2165-2017450083,1415000,is-sold,Sold prior to auction 16 Dec 2021,20211216,16 Margaret Street,FAIRFIELD,NSW,2165,-33.8759575,150.937683,3,1,1,House,House,False,663,m2,False
2017123125,listing,/35-35-39-york-street-fairfield-nsw-2165-2017123125,375000,is-sold,Sold by private treaty 09 Nov 2021,20211109,35/35-39 York Street,FAIRFIELD,NSW,2165,-33.8760376,150.951721,2,1,1,ApartmentUnitFlat,Apartment / Unit / Flat,False,0,m2,False
2017138783,listing,/251-hamilton-rd-fairfield-west-nsw-2165-2017138783,954000,is-sold,Sold by private treaty 25 Nov 2021,20211125,251 Hamilton Rd,FAIRFIELD WEST,NSW,2165,-33.8718567,150.933487,5,3,1,SemiDetached,Semi-Detached,False,265,m2,False
2017242983,listing,/231-the-horsley-drive-fairfield-east-nsw-2165-2017242983,795000,is-sold,Sold by private treaty 13 Nov 2021,20211113,231 The Horsley Drive,FAIRFIELD EAST,NSW,2165,-33.8723,150.964355,4,2,2,House,House,False,468,m2,False
2017266118,listing,/40-francis-street-fairfield-nsw-2165-2017266118,1285000,is-sold,Sold at auction 13 Nov 2021,20211113,40 Francis Street,FAIRFIELD,NSW,2165,-33.878006,150.947891,3,1,1,House,House,False,640,m2,False
2017283137,listing,/48-riverview-road-fairfield-nsw-2165-2017283137,910000,is-sold,Sold by private treaty 22 Nov 2021,20211122,48 Riverview Road,FAIRFIELD,NSW,2165,-33.88103,150.957031,3,1,2,House,House,False,1012,m2,False
2017298418,listing,/6-parapet-st-fairfield-nsw-2165-2017298418,1105000,is-sold,Sold by private treaty 11 Nov 2021,20211111,6 Parapet St,FAIRFIELD,NSW,2165,-33.85619,150.952438,4,2,2,House,House,False,0,m2,False
2017301546,listing,/1b-tyrell-crescent-fairfield-west-nsw-2165-2017301546,765000,is-sold,Sold by private treaty 15 Nov 2021,20211115,1B Tyrell Crescent,FAIRFIELD WEST,NSW,2165,-33.86435,150.931259,3,1,2,House,House,False,290,m2,False
2017308576,listing,/57-evans-street-fairfield-heights-nsw-2165-2017308576,770000,is-sold,Sold by private treaty 12 Nov 2021,20211112,57 Evans Street,FAIRFIELD HEIGHTS,NSW,2165,-33.8675232,150.934677,3,2,1,SemiDetached,Semi-Detached,False,0,m2,False
2017310106,listing,/98a-tangerine-street-fairfield-east-nsw-2165-2017310106,860000,is-sold,Sold by private treaty 20 Nov 2021,20211120,98A Tangerine Street,FAIRFIELD EAST,NSW,2165,-33.876503,150.96994,7,4,2,House,House,False,286,m2,False
2017312244,listing,/194a-fairfield-st-fairfield-east-nsw-2165-2017312244,1380000,is-sold,Sold by private treaty 19 Nov 2021,20211119,194A Fairfield St,FAIRFIELD EAST,NSW,2165,-33.8691673,150.966766,6,4,2,SemiDetached,Semi-Detached,False,446,m2,False
2017319057,listing,/49-montrose-avenue-fairfield-east-nsw-2165-2017319057,830000,is-sold,Sold at auction 13 Nov 2021,20211113,49 Montrose Avenue,FAIRFIELD EAST,NSW,2165,-33.87498,150.9723,5,2,1,House,House,False,519,m2,False
2017340676,listing,/32-sadlier-cres-fairfield-west-nsw-2165-2017340676,1435000,is-sold,Sold at auction 13 Nov 2021,20211113,32 Sadlier Cres,FAIRFIELD WEST,NSW,2165,-33.86646,150.916351,4,3,2,House,House,False,559,m2,False
2017352691,listing,/11-garment-street-fairfield-west-nsw-2165-2017352691,937000,is-sold,Sold at auction 13 Nov 2021,20211113,11 Garment Street,FAIRFIELD WEST,NSW,2165,-33.8599243,150.9184,3,1,1,House,House,False,556,m2,False
2017358040,listing,/30-lombard-street-fairfield-nsw-2165-2017358040,1175000,is-sold,Sold at auction 27 Nov 2021,20211127,30 Lombard Street,FAIRFIELD,NSW,2165,-33.8729553,150.937088,4,2,1,House,House,False,574,m2,False
2017361209,listing,/42c-ligar-street-fairfield-heights-nsw-2165-2017361209,785000,is-sold,Sold by private treaty 12 Nov 2021,20211112,42C Ligar Street,FAIRFIELD HEIGHTS,NSW,2165,-33.86719,150.936874,4,1,1,House,House,False,0,m2,False
2017363046,listing,/6-jervis-street-fairfield-nsw-2165-2017363046,795000,is-sold,Sold prior to auction 19 Nov 2021,20211119,6 Jervis Street,FAIRFIELD,NSW,2165,-33.8607445,150.956268,3,1,1,House,House,False,580,m2,False
2017363048,listing,/45-karabar-street-fairfield-heights-nsw-2165-2017363048,1215000,is-sold,Sold at auction 20 Nov 2021,20211120,45 Karabar Street,FAIRFIELD HEIGHTS,NSW,2165,-33.8630867,150.933975,4,2,2,House,House,False,0,m2,False
2017371686,listing,/3-buckley-close-fairfield-west-nsw-2165-2017371686,1545000,is-sold,Sold at auction 27 Nov 2021,20211127,3 Buckley Close,FAIRFIELD WEST,NSW,2165,-33.8638649,150.916412,5,3,2,House,House,False,611,m2,False
2017377075,listing,/19-landon-st-fairfield-east-nsw-2165-2017377075,920000,is-sold,Sold at auction 20 Nov 2021,20211120,19 Landon St,FAIRFIELD EAST,NSW,2165,-33.87379,150.967987,3,2,2,House,House,False,0,m2,False
2017378064,listing,/36-granville-street-fairfield-nsw-2165-2017378064,900000,is-sold,Sold at auction 25 Nov 2021,20211125,36 Granville Street,FAIRFIELD,NSW,2165,-33.8623466,150.947845,4,1,2,House,House,False,828,m2,False
2013947818,listing,/9-32-33-railway-parade-fairfield-nsw-2165-2013947818,557000,is-sold,Sold by private treaty 08 Nov 2021,20211108,9/32-33 Railway Parade,FAIRFIELD,NSW,2165,-33.87641,150.952164,2,1,2,Townhouse,Townhouse,False,0,m2,False
2016898361,listing,/87-throsby-street-fairfield-heights-nsw-2165-2016898361,850000,is-sold,Sold by private treaty 29 Oct 2021,20211029,87 Throsby Street,FAIRFIELD HEIGHTS,NSW,2165,-33.86843,150.932983,3,2,1,Duplex,Duplex,False,239,m2,False
2016973334,listing,/evan-street-fairfield-heights-nsw-2165-2016973334,Price Withheld,is-sold,Sold by private treaty 06 Nov 2021,20211106,EVAN STREET,FAIRFIELD HEIGHTS,NSW,2165,-33.8635254,150.93866,3,2,1,Villa,Villa,False,0,m2,False
2017125876,listing,/12-55-57-harris-street-fairfield-nsw-2165-2017125876,430000,is-sold,Sold by private treaty 29 Oct 2021,20211029,12/55/57 Harris Street,FAIRFIELD,NSW,2165,-33.8725357,150.9517,2,1,1,ApartmentUnitFlat,Apartment / Unit / Flat,False,0,m2,False
2017229152,listing,/22-peppercorn-avenue-fairfield-east-nsw-2165-2017229152,685000,is-sold,Sold by private treaty 01 Nov 2021,20211101,22 Peppercorn Avenue,FAIRFIELD EAST,NSW,2165,-33.8769035,150.969467,3,1,1,House,House,False,0,m2,False
2017248802,listing,/3-7-lackey-st-fairfield-nsw-2165-2017248802,367000,is-sold,Sold by private treaty 29 Oct 2021,20211029,3/7 Lackey St,FAIRFIELD,NSW,2165,-33.8744469,150.951126,2,1,2,ApartmentUnitFlat,Apartment / Unit / Flat,False,0,m2,False
2017249760,listing,/3-isis-street-fairfield-west-nsw-2165-2017249760,1129000,is-sold,Sold at auction 28 Oct 2021,20211028,3 Isis Street,FAIRFIELD WEST,NSW,2165,-33.86045,150.922943,3,1,1,House,House,False,531,m2,False
2017279835,listing,/4-kenny-place-fairfield-west-nsw-2165-2017279835,1410000,is-sold,Sold at auction 30 Oct 2021,20211030,4 Kenny Place,FAIRFIELD WEST,NSW,2165,-33.8655434,150.912491,4,3,2,House,House,False,637,m2,False
2017292733,listing,/210-fairfield-street-fairfield-east-nsw-2165-2017292733,1342000,is-sold,Sold at auction 30 Oct 2021,20211030,210 Fairfield Street,FAIRFIELD EAST,NSW,2165,-33.869236,150.965164,4,1,1,House,House,False,1428,m2,False
2017300545,listing,/84-rawson-road-fairfield-west-nsw-2165-2017300545,1160000,is-sold,Sold at auction 30 Oct 2021,20211030,84 Rawson Road,FAIRFIELD WEST,NSW,2165,-33.86297,150.931229,4,2,2,House,House,False,556,m2,False
2017306632,listing,/56-railway-parade-fairfield-nsw-2165-2017306632,1401000,is-sold,Sold at auction 30 Oct 2021,20211030,56 Railway Parade,FAIRFIELD,NSW,2165,-33.87967,150.949554,3,1,1,House,House,False,872,m2,False
2017314341,listing,/34-peppercorn-ave-fairfield-east-nsw-2165-2017314341,753000,is-sold,Sold prior to auction 05 Nov 2021,20211105,34 Peppercorn Ave,FAIRFIELD EAST,NSW,2165,-33.8770065,150.968842,4,2,3,House,House,False,263,m2,False
2017314668,listing,/2-tulip-grove-fairfield-west-nsw-2165-2017314668,1250000,is-sold,Sold prior to auction 29 Oct 2021,20211029,2 Tulip Grove,FAIRFIELD WEST,NSW,2165,-33.86347,150.918213,4,2,2,House,House,False,471,m2,False
2017316328,listing,/2-parapet-street-fairfield-nsw-2165-2017316328,830000,is-sold,Sold at auction 06 Nov 2021,20211106,2 Parapet Street,FAIRFIELD,NSW,2165,-33.8558731,150.9523,3,1,2,House,House,False,556,m2,False
2017328902,listing,/47-hemingway-crescent-fairfield-nsw-2165-2017328902,800000,is-sold,Sold prior to auction 01 Nov 2021,20211101,47 Hemingway Crescent,FAIRFIELD,NSW,2165,-33.85505,150.953751,3,1,1,House,House,False,556,m2,False
2017337739,listing,/532-the-horsley-drive-fairfield-nsw-2165-2017337739,950000,is-sold,Sold prior to auction 09 Nov 2021,20211109,532 The Horsley Drive,FAIRFIELD,NSW,2165,-33.8574448,150.950455,3,1,1,House,House,False,639,m2,False
2017340772,listing,/14-66-70-sackville-street-fairfield-nsw-2165-2017340772,430000,is-sold,Sold prior to auction 02 Nov 2021,20211102,14/66-70 Sackville Street,FAIRFIELD,NSW,2165,-33.8688354,150.94841,2,1,1,ApartmentUnitFlat,Apartment / Unit / Flat,False,0,m2,False
2017341780,listing,/1-18-york-street-fairfield-nsw-2165-2017341780,440000,is-sold,Sold by private treaty 30 Oct 2021,20211030,1/18 York Street,FAIRFIELD,NSW,2165,-33.8749542,150.951492,2,1,1,ApartmentUnitFlat,Apartment / Unit / Flat,False,124,m2,False
2017830835,listing,/58a-rosina-street-fairfield-west-nsw-2165-2017830835,Price Withheld,is-sold,Sold by private treaty 01 Nov 2021,20211101,58A Rosina Street,FAIRFIELD WEST,NSW,2165,-33.8730164,150.933624,-,-,-,SemiDetached,Semi-Detached,False,0,m2,False
2016797581,listing,/11-76-hamilton-road-fairfield-nsw-2165-2016797581,285000,is-sold,Sold by private treaty 29 Sep 2021,20210929,11/76 Hamilton Road,FAIRFIELD,NSW,2165,-33.8729935,150.95076,1,1,1,ApartmentUnitFlat,Apartment / Unit / Flat,False,0,m2,False
2016913224,listing,/68-rawson-road-fairfield-west-nsw-2165-2016913224,765000,is-sold,Sold by private treaty 11 Oct 2021,20211011,68 Rawson Road,FAIRFIELD WEST,NSW,2165,-33.86428,150.930984,3,1,1,House,House,False,0,m2,False
2016982093,listing,/3-clive-street-fairfield-nsw-2165-2016982093,850000,is-sold,Sold by private treaty 27 Oct 2021,20211027,3 Clive Street,FAIRFIELD,NSW,2165,-33.8780632,150.955582,3,1,3,House,House,False,587,m2,False
2017041497,listing,/6-32-33-railway-parade-fairfield-nsw-2165-2017041497,560000,is-sold,Sold by private treaty 22 Oct 2021,20211022,6/32-33 Railway Parade,FAIRFIELD,NSW,2165,-33.87641,150.952164,2,1,2,Townhouse,Townhouse,False,1861,m2,False
2017073020,listing,/17-roylston-street-fairfield-west-nsw-2165-2017073020,820000,is-sold,Sold by private treaty 08 Oct 2021,20211008,17 Roylston Street,FAIRFIELD WEST,NSW,2165,-33.87136,150.923309,3,1,1,House,House,False,557,m2,False
2017217529,listing,/13-hawkesbury-street-fairfield-west-nsw-2165-2017217529,1475000,is-sold,Sold by private treaty 20 Oct 2021,20211020,13 Hawkesbury Street,FAIRFIELD WEST,NSW,2165,-33.8744,150.9227,-,-,-,VacantLand,Vacant land,False,0,m2,False
2017240779,listing,/19-cambewarra-road-fairfield-west-nsw-2165-2017240779,970000,is-sold,Sold prior to auction 07 Oct 2021,20211007,19 Cambewarra Road,FAIRFIELD WEST,NSW,2165,-33.86553,150.92807,3,1,4,House,House,False,556,m2,False
2017254253,listing,/82-malabar-street-fairfield-nsw-2165-2017254253,1200000,is-sold,Sold at auction 09 Oct 2021,20211009,82 Malabar Street,FAIRFIELD,NSW,2165,-33.87768,150.9403,3,1,2,House,House,False,580,m2,False
2017255417,listing,/308-smithfield-road-fairfield-west-nsw-2165-2017255417,825000,is-sold,Sold at auction 06 Oct 2021,20211006,308 Smithfield Road,FAIRFIELD WEST,NSW,2165,-33.86205,150.919983,3,1,3,House,House,False,563,m2,False
2017257104,listing,/52-evans-street-fairfield-heights-nsw-2165-2017257104,1150000,is-sold,Sold at auction 02 Oct 2021,20211002,52 Evans Street,FAIRFIELD HEIGHTS,NSW,2165,-33.8682861,150.936172,4,3,2,House,House,False,512,m2,False
2017259861,listing,/7-71-73-hamilton-road-fairfield-nsw-2165-2017259861,621000,is-sold,Sold by private treaty 21 Oct 2021,20211021,7/71-73 Hamilton Road,FAIRFIELD,NSW,2165,-33.87348,150.949051,3,1,1,Villa,Villa,False,0,m2,False
2017265349,listing,/46-kihilla-street-fairfield-heights-nsw-2165-2017265349,1260000,is-sold,Sold at auction 16 Oct 2021,20211016,46 Kihilla Street,FAIRFIELD HEIGHTS,NSW,2165,-33.86333,150.933609,5,2,1,House,House,False,506,m2,False
2017266297,listing,/86-evans-street-fairfield-heights-nsw-2165-2017266297,933000,is-sold,Sold at auction 16 Oct 2021,20211016,86 Evans Street,FAIRFIELD HEIGHTS,NSW,2165,-33.8675652,150.932892,5,3,2,House,House,False,0,m2,False
2017280327,listing,/17-edel-place-fairfield-west-nsw-2165-2017280327,801000,is-sold,Sold at auction 23 Oct 2021,20211023,17 Edel Place,FAIRFIELD WEST,NSW,2165,-33.863308,150.9224,3,1,1,House,House,False,588,m2,False
2017281585,listing,/2-macarthur-street-fairfield-east-nsw-2165-2017281585,1147000,is-sold,Sold at auction 23 Oct 2021,20211023,2 Macarthur Street,FAIRFIELD EAST,NSW,2165,-33.87697,150.975082,4,2,2,House,House,False,556,m2,False
2017288533,listing,/37b-ligar-st-fairfield-heights-nsw-2165-2017288533,900000,is-sold,Sold by private treaty 11 Oct 2021,20211011,37B Ligar St,FAIRFIELD HEIGHTS,NSW,2165,-33.86774,150.937241,5,3,1,SemiDetached,Semi-Detached,False,0,m2,False
2017303265,listing,/76-throsby-street-fairfield-heights-nsw-2165-2017303265,1425000,is-sold,Sold by private treaty 11 Oct 2021,20211011,76 Throsby Street,FAIRFIELD HEIGHTS,NSW,2165,-33.8681946,150.9341,4,2,2,House,House,False,760,m2,False
2017314871,listing,/3-84-harris-street-fairfield-nsw-2165-2017314871,350000,is-sold,Sold by private treaty 22 Oct 2021,20211022,3/84 Harris Street,FAIRFIELD,NSW,2165,-33.8717155,150.950058,2,1,1,ApartmentUnitFlat,Apartment / Unit / Flat,False,0,m2,False
2017343983,listing,/3-14-16-york-street-fairfield-nsw-2165-2017343983,571000,is-sold,Sold by private treaty 23 Oct 2021,20211023,3/14-16 York Street,FAIRFIELD,NSW,2165,-33.87477,150.95166,2,1,2,House,House,False,0,m2,False
2017830836,listing,/58-rosina-street-fairfield-west-nsw-2165-2017830836,920000,is-sold,Sold by private treaty 01 Oct 2021,20211001,58 Rosina Street,FAIRFIELD WEST,NSW,2165,-33.8730164,150.933624,5,3,1,SemiDetached,Semi-Detached,False,270,m2,False
2014138820,listing,/87-80-82-tasman-parade-fairfield-west-nsw-2165-2014138820,520000,is-sold,Sold by private treaty 20 Sep 2021,20210920,87/80-82 Tasman Parade,FAIRFIELD WEST,NSW,2165,-33.86775,150.922592,3,2,1,ApartmentUnitFlat,Apartment / Unit / Flat,False,0,m2,False
2017031778,listing,/15-14-18-fairlight-avenue-fairfield-nsw-2165-2017031778,420000,is-sold,Sold by private treaty 24 Sep 2021,20210924,15/14-18 Fairlight Avenue,FAIRFIELD,NSW,2165,-33.87573,150.954559,2,2,1,ApartmentUnitFlat,Apartment / Unit / Flat,False,0,m2,False
2017043935,listing,/6-45-49-harris-street-fairfield-nsw-2165-2017043935,600000,is-sold,Sold by private treaty 09 Sep 2021,20210909,6/45-49 Harris Street,FAIRFIELD,NSW,2165,-33.87259,150.952484,3,1,2,Townhouse,Townhouse,False,0,m2,False
2017055076,listing,/14-dampier-crescent-fairfield-west-nsw-2165-2017055076,950000,is-sold,Sold prior to auction 03 Sep 2021,20210903,14 Dampier Crescent,FAIRFIELD WEST,NSW,2165,-33.8628159,150.9228,7,4,2,House,House,False,580,m2,False
2017063765,listing,/3-2-the-crescent-fairfield-nsw-2165-2017063765,410000,is-sold,Sold by private treaty 31 Aug 2021,20210831,3/2 The Crescent,FAIRFIELD,NSW,2165,-33.87083,150.959259,2,1,1,ApartmentUnitFlat,Apartment / Unit / Flat,False,0,m2,False
2017071027,listing,/543-the-horsley-drive-fairfield-nsw-2165-2017071027,730000,is-sold,Sold by private treaty 15 Sep 2021,20210915,543 The Horsley Drive,FAIRFIELD,NSW,2165,-33.85758,150.951172,3,1,2,House,House,False,452,m2,False
