id,listingType,url,price,tagClassName,tagText,date,street,suburb,state,postcode,lat,lng,beds,baths,parking,propertyType,propertyTypeFormatted,isRural,landSize,landUnit,isRetirement
2018301719,listing,/30-coonanga-avenue-budgewoi-nsw-2262-2018301719,686000,is-sold,Sold by private treaty 28 Feb 2023,20230228,30 Coonanga Avenue,BUDGEWOI,NSW,2262,-33.2295723,151.547974,3,3,3,House,House,False,0,m2,False
2018275818,listing,/9-lady-laurel-drive-blue-haven-nsw-2262-2018275818,865000,is-sold,Sold by private treaty 01 Mar 2023,20230301,9 Lady Laurel Drive,BLUE HAVEN,NSW,2262,-33.21173,151.498779,4,4,4,House,House,False,654,m2,False
2017983908,listing,/167-manoa-road-halekulani-nsw-2262-2017983908,,is-sold,Sold 24 Feb 2023,20230224,167 MANOA ROAD,HALEKULANI,NSW,2262,-33.2181053,151.554184,3,3,3,House,House,False,615,m2,False
2018025373,listing,/10-famata-avenue-blue-haven-nsw-2262-2018025373,735000,is-sold,Sold by private treaty 15 Feb 2023,20230215,10 Famata Avenue,BLUE HAVEN,NSW,2262,-33.21641,151.506332,4,4,4,House,House,False,474,m2,False
2018059066,listing,/35-barega-close-buff-point-nsw-2262-2018059066,765000,is-sold,Sold by private treaty 20 Feb 2023,20230220,35 Barega Close,BUFF POINT,NSW,2262,-33.2226563,151.533569,4,4,4,House,House,False,610,m2,False
2018123060,listing,/29-barega-close-buff-point-nsw-2262-2018123060,655000,is-sold,Sold by private treaty 11 Feb 2023,20230211,29 Barega Close,BUFF POINT,NSW,2262,-33.22265,151.534027,3,3,3,House,House,False,487,m2,False
2018131755,listing,/16-lukela-avenue-budgewoi-nsw-2262-2018131755,662000,is-sold,Sold by private treaty 17 Feb 2023,20230217,16 Lukela Avenue,BUDGEWOI,NSW,2262,-33.2267227,151.544235,3,3,3,House,House,False,607,m2,False
2018157466,listing,/21-barragoola-road-blue-haven-nsw-2262-2018157466,650000,is-sold,Sold by private treaty 14 Feb 2023,20230214,21 Barragoola Road,BLUE HAVEN,NSW,2262,-33.20973,151.503448,4,4,4,House,House,False,468,m2,False
2018165596,listing,/118a-2-macleay-drive-halekulani-nsw-2262-2018165596,,is-sold,Sold by private treaty 17 Feb 2023,20230217,118a/2 Macleay Drive,HALEKULANI,NSW,2262,-33.209095,151.560684,2,2,2,House,House,False,0,m2,True
2018181894,listing,/20-barragoola-road-blue-haven-nsw-2262-2018181894,640000,is-sold,Sold by private treaty 14 Feb 2023,20230214,20 Barragoola Road,BLUE HAVEN,NSW,2262,-33.209034,151.504227,3,3,3,House,House,False,390,m2,False
2018206102,listing,/19-yackerboom-avenue-buff-point-nsw-2262-2018206102,715000,is-sold,Sold by private treaty 14 Feb 2023,20230214,19 Yackerboom Avenue,BUFF POINT,NSW,2262,-33.23358,151.542,4,4,4,House,House,False,500,m2,False
2018232414,listing,/3-pine-court-blue-haven-nsw-2262-2018232414,,is-sold,Sold by private treaty 21 Feb 2023,20230221,3 Pine Court,BLUE HAVEN,NSW,2262,-33.2067032,151.503265,3,3,3,House,House,False,470,m2,False
2018242075,listing,/41-vincent-close-buff-point-nsw-2262-2018242075,620000,is-sold,Sold by private treaty 13 Feb 2023,20230213,41 Vincent Close,BUFF POINT,NSW,2262,-33.23002,151.539169,3,3,3,House,House,False,507,m2,False
2018250225,listing,/12-kawana-avenue-blue-haven-nsw-2262-2018250225,,is-sold,Sold by private treaty 14 Feb 2023,20230214,12 Kawana Avenue,BLUE HAVEN,NSW,2262,-33.21282,151.49675,3,3,3,House,House,False,556,m2,False
2018255461,listing,/21a-scenic-circle-budgewoi-nsw-2262-2018255461,583000,is-sold,Sold by private treaty 17 Feb 2023,20230217,21a Scenic Circle,BUDGEWOI,NSW,2262,-33.2275772,151.544312,3,3,3,House,House,False,0,m2,False
2018281573,listing,/11-186-sunrise-avenue-halekulani-nsw-2262-2018281573,,is-sold,Sold by private treaty 02 Mar 2023,20230302,11/186 Sunrise Avenue,HALEKULANI,NSW,2262,-33.2167473,151.5557,2,2,2,House,House,False,0,m2,True
2018304484,listing,/26-28-huene-avenue-halekulani-nsw-2262-2018304484,900000,is-sold,Sold by private treaty 22 Feb 2023,20230222,26-28 Huene Avenue,HALEKULANI,NSW,2262,-33.221386,151.552872,3,3,3,House,House,False,0,m2,False
2018308624,listing,/16-karingal-place-blue-haven-nsw-2262-2018308624,610000,is-sold,Sold by private treaty 13 Feb 2023,20230213,16 Karingal Place,BLUE HAVEN,NSW,2262,-33.21003,151.502518,3,3,3,House,House,False,0,m2,False
2018339400,listing,/16-kalani-street-budgewoi-nsw-2262-2018339400,665000,is-sold,Sold by private treaty 02 Mar 2023,20230302,16 Kalani Street,BUDGEWOI,NSW,2262,-33.2322578,151.5521,3,3,3,House,House,False,0,m2,False
2018339978,listing,/117-kallaroo-road-san-remo-nsw-2262-2018339978,795000,is-sold,Sold by private treaty 14 Feb 2023,20230214,117 Kallaroo Road,SAN REMO,NSW,2262,-33.20927,151.519028,4,4,4,House,House,False,575,m2,False
2018344698,listing,/3-white-swan-avenue-blue-haven-nsw-2262-2018344698,,is-sold,Sold by private treaty 03 Mar 2023,20230303,3 White Swan Avenue,BLUE HAVEN,NSW,2262,-33.21037,151.49826,4,4,4,House,House,False,576,m2,False
2018324214,listing,/15-barega-close-buff-point-nsw-2262-2018324214,660000,is-sold,Sold by private treaty 03 Mar 2023,20230303,15 Barega Close,BUFF POINT,NSW,2262,-33.2236023,151.535248,3,3,3,House,House,False,645,m2,False
2018234433,listing,/59-iluka-avenue-san-remo-nsw-2262-2018234433,640000,is-sold,Sold by private treaty 09 Mar 2023,20230309,59 Iluka Avenue,SAN REMO,NSW,2262,-33.21335,151.52124,3,1,1,House,House,False,809,m2,False
2018319285,listing,/25-natuna-avenue-budgewoi-nsw-2262-2018319285,980000,is-sold,Sold at auction 10 Mar 2023,20230310,25 Natuna Avenue,BUDGEWOI,NSW,2262,-33.2338028,151.559937,3,2,4,House,House,False,0,m2,False
2018284551,listing,/36-moola-road-buff-point-nsw-2262-2018284551,880000,is-sold,Sold by private treaty 03 Mar 2023,20230303,36 Moola Road,BUFF POINT,NSW,2262,-33.2354851,151.535385,3,2,1,House,House,False,917,m2,False
2018368039,listing,/61-pinehurst-way-blue-haven-nsw-2262-2018368039,677000,is-sold,Sold by private treaty 28 Feb 2023,20230228,61 Pinehurst Way,BLUE HAVEN,NSW,2262,-33.2124176,151.499344,3,2,1,House,House,False,621,m2,False
2017972128,listing,/18-marsden-road-blue-haven-nsw-2262-2017972128,761161,is-sold,Sold by private treaty 02 Feb 2023,20230202,18 Marsden Road,BLUE HAVEN,NSW,2262,-33.21418,151.5087,4,2,2,House,House,False,482,m2,False
2018109937,listing,/130-manoa-road-halekulani-nsw-2262-2018109937,690000,is-sold,Sold at auction 03 Feb 2023,20230203,130 Manoa Road,HALEKULANI,NSW,2262,-33.22092,151.552048,3,3,2,House,House,False,0,m2,False
2018116222,listing,/6-arnold-close-halekulani-nsw-2262-2018116222,820000,is-sold,Sold by private treaty 01 Feb 2023,20230201,6 Arnold Close,HALEKULANI,NSW,2262,-33.22118,151.550491,4,2,2,House,House,False,602,m2,False
2018205086,listing,/1-pacific-highway-san-remo-nsw-2262-2018205086,,is-sold,Sold by private treaty 08 Feb 2023,20230208,1 Pacific Highway,SAN REMO,NSW,2262,-33.2174377,151.5082,3,2,1,House,House,False,474,m2,False
2018224275,listing,/161-birdwood-drive-blue-haven-nsw-2262-2018224275,950000,is-sold,Sold by private treaty 01 Feb 2023,20230201,161 Birdwood Drive,BLUE HAVEN,NSW,2262,-33.21642,151.4952,3,2,2,House,House,False,563,m2,False
2018232629,listing,/13-denman-street-doyalson-nsw-2262-2018232629,625500,is-sold,Sold by private treaty 10 Feb 2023,20230210,13 Denman Street,DOYALSON,NSW,2262,-33.19926,151.530411,3,1,1,House,House,False,645,m2,False
2018258047,listing,/31-scenic-drive-budgewoi-nsw-2262-2018258047,580000,is-sold,Sold by private treaty 07 Feb 2023,20230207,31 Scenic Drive,BUDGEWOI,NSW,2262,-33.234993,151.558914,2,2,1,House,House,False,613,m2,False
2018261666,listing,/44-scenic-drive-budgewoi-nsw-2262-2018261666,610000,is-sold,Sold by private treaty 09 Feb 2023,20230209,44 Scenic Drive,BUDGEWOI,NSW,2262,-33.23545,151.558609,2,1,1,House,House,False,505,m2,False
2018268833,listing,/100-roper-road-blue-haven-nsw-2262-2018268833,640000,is-sold,Sold by private treaty 30 Jan 2023,20230130,100 Roper Road,BLUE HAVEN,NSW,2262,-33.20834,151.505325,4,2,1,House,House,False,536,m2,False
2018270866,listing,/232-scenic-drive-budgewoi-nsw-2262-2018270866,,is-sold,Sold by private treaty 30 Jan 2023,20230130,232 Scenic Drive,BUDGEWOI,NSW,2262,-33.2300262,151.5431,6,3,4,House,House,False,942,m2,False
2018289414,listing,/10-allambee-crescent-blue-haven-nsw-2262-2018289414,600000,is-sold,Sold by private treaty 03 Feb 2023,20230203,10 Allambee Crescent,BLUE HAVEN,NSW,2262,-33.2157059,151.506989,3,2,4,House,House,False,462,m2,False
2018298076,listing,/46-woodland-parkway-buff-point-nsw-2262-2018298076,1250000,is-sold,Sold by private treaty 08 Feb 2023,20230208,46 Woodland Parkway,BUFF POINT,NSW,2262,-33.2339134,151.543579,6,4,2,House,House,False,607,m2,False
2018302841,listing,/4-moran-road-buff-point-nsw-2262-2018302841,639000,is-sold,Sold by private treaty 10 Feb 2023,20230210,4 Moran Road,BUFF POINT,NSW,2262,-33.2293,151.532562,4,1,1,House,House,False,0,m2,False
2018307423,listing,/7-penguin-road-blue-haven-nsw-2262-2018307423,660000,is-sold,Sold by private treaty 02 Feb 2023,20230202,7 Penguin Road,BLUE HAVEN,NSW,2262,-33.2156754,151.4956,3,1,2,House,House,False,601,m2,False
2017809808,listing,/3-46-48-natuna-avenue-budgewoi-nsw-2262-2017809808,370000,is-sold,Sold by private treaty 03 Jan 2023,20230103,3/46-48 Natuna Avenue,BUDGEWOI,NSW,2262,-33.2325172,151.5577,2,1,1,ApartmentUnitFlat,Apartment / Unit / Flat,False,0,m2,False
2017934726,listing,/4-loch-close-blue-haven-nsw-2262-2017934726,640000,is-sold,Sold by private treaty 30 Dec 2022,20221230,4 Loch Close,BLUE HAVEN,NSW,2262,-33.210743,151.503632,4,1,1,House,House,False,480,m2,False
2018052387,listing,/8-law-place-blue-haven-nsw-2262-2018052387,570000,is-sold,Sold by private treaty 23 Dec 2022,20221223,8 Law Place,BLUE HAVEN,NSW,2262,-33.20633,151.499664,3,1,1,House,House,False,0,m2,False
2018087107,listing,/51-moola-road-buff-point-nsw-2262-2018087107,748000,is-sold,Sold by private treaty 22 Dec 2022,20221222,51 Moola Road,BUFF POINT,NSW,2262,-33.2344055,151.534286,4,1,2,House,House,False,1200,m2,False
2018138904,listing,/10-villa-close-budgewoi-nsw-2262-2018138904,900000,is-sold,Sold by private treaty 12 Jan 2023,20230112,10 Villa Close,BUDGEWOI,NSW,2262,-33.23623,151.565,3,2,2,House,House,False,556,m2,False
2018139049,listing,/154-manoa-road-halekulani-nsw-2262-2018139049,870000,is-sold,Sold by private treaty 05 Jan 2023,20230105,154 Manoa Road,HALEKULANI,NSW,2262,-33.218998,151.5529,6,3,5,House,House,False,796,m2,False
2018172041,listing,/19-iluka-avenue-san-remo-nsw-2262-2018172041,710000,is-sold,Sold by private treaty 13 Jan 2023,20230113,19 Iluka Avenue,SAN REMO,NSW,2262,-33.2162743,151.520691,3,1,3,House,House,False,575,m2,False
2018193769,listing,/5-maneela-road-buff-point-nsw-2262-2018193769,682000,is-sold,Sold by private treaty 11 Jan 2023,20230111,5 Maneela Road,BUFF POINT,NSW,2262,-33.2222023,151.5306,3,1,1,House,House,False,439,m2,False
2018194407,listing,/50-kallaroo-road-san-remo-nsw-2262-2018194407,487500,is-sold,Sold by private treaty 22 Dec 2022,20221222,50 Kallaroo Road,SAN REMO,NSW,2262,-33.21654,151.5169,2,1,2,House,House,False,588,m2,False
2018199962,listing,/109-perouse-avenue-san-remo-nsw-2262-2018199962,660000,is-sold,Sold by private treaty 13 Jan 2023,20230113,109 Perouse Avenue,SAN REMO,NSW,2262,-33.2106247,151.527313,3,3,2,House,House,False,469,m2,False
2018216621,listing,/22-150-tall-timbers-road-doyalson-north-nsw-2262-2018216621,270000,is-sold,Sold by private treaty 19 Jan 2023,20230119,22/150 Tall Timbers Road,DOYALSON NORTH,NSW,2262,-33.17608,151.55455,2,1,3,Villa,Villa,False,0,m2,True
2018216744,listing,/47-scenic-drive-budgewoi-nsw-2262-2018216744,525000,is-sold,Sold by private treaty 11 Jan 2023,20230111,47 Scenic Drive,BUDGEWOI,NSW,2262,-33.2345657,151.557648,3,1,,House,House,False,682,m2,False
2018220787,listing,/209-scenic-drive-budgewoi-nsw-2262-2018220787,600000,is-sold,Sold by private treaty 05 Jan 2023,20230105,209 Scenic Drive,BUDGEWOI,NSW,2262,-33.22887,151.542191,2,1,3,House,House,False,556,m2,False
2018228498,listing,/181-roper-road-blue-haven-nsw-2262-2018228498,750000,is-sold,Sold by private treaty 10 Jan 2023,20230110,181 Roper Road,BLUE HAVEN,NSW,2262,-33.2092552,151.51532,4,2,2,House,House,False,608,m2,False
2018230514,listing,/128-scenic-drive-budgewoi-nsw-2262-2018230514,735000,is-sold,Sold by private treaty 18 Jan 2023,20230118,128 Scenic Drive,BUDGEWOI,NSW,2262,-33.23334,151.55191,4,2,1,House,House,False,575,m2,False
2018231385,listing,/25-woodlawn-drive-budgewoi-nsw-2262-2018231385,605000,is-sold,Sold by private treaty 12 Jan 2023,20230112,25 Woodlawn Drive,BUDGEWOI,NSW,2262,-33.2290573,151.5504,3,1,1,House,House,False,0,m2,False
2018255091,listing,/7-elua-avenue-budgewoi-nsw-2262-2018255091,,is-sold,Sold by private treaty 11 Jan 2023,20230111,7 Elua Avenue,BUDGEWOI,NSW,2262,-33.23121,151.553864,4,2,2,House,House,False,0,m2,False
2018257866,listing,/8-wongala-avenue-blue-haven-nsw-2262-2018257866,627500,is-sold,Sold by private treaty 13 Jan 2023,20230113,8 Wongala Avenue,BLUE HAVEN,NSW,2262,-33.2067871,151.502,3,1,1,House,House,False,521,m2,False
2018314088,listing,/59-taronga-avenue-san-remo-nsw-2262-2018314088,455000,is-sold,Sold by private treaty 25 Jan 2023,20230125,59 Taronga Avenue,SAN REMO,NSW,2262,-33.21121,151.519638,,,,VacantLand,Vacant land,False,0,m2,False
2018346503,listing,/14-st-lawrence-avenue-blue-haven-nsw-2262-2018346503,690000,is-sold,Sold by private treaty 24 Jan 2023,20230124,14 St Lawrence Avenue,BLUE HAVEN,NSW,2262,-33.2096024,151.506516,4,2,2,House,House,False,769,m2,False
2017477928,listing,/doyalson-north-nsw-2262-2017477928,,is-sold,Sold by private treaty 07 Dec 2022,20221207,,DOYALSON NORTH,NSW,2262,-33.1863022,151.548843,2,1,1,House,House,False,0,m2,True
2018019521,listing,/83-coonanga-avenue-halekulani-nsw-2262-2018019521,682500,is-sold,Sold by private treaty 08 Dec 2022,20221208,83 Coonanga Avenue,HALEKULANI,NSW,2262,-33.2258224,151.54744,4,1,3,House,House,False,0,m2,False
2018085755,listing,/84-diamond-head-drive-budgewoi-nsw-2262-2018085755,1130000,is-sold,Sold by private treaty 09 Dec 2022,20221209,84 Diamond Head Drive,BUDGEWOI,NSW,2262,-33.2356758,151.555786,4,2,1,House,House,False,582,m2,False
2018097498,listing,/2-25-ulana-avenue-halekulani-nsw-2262-2018097498,535000,is-sold,Sold by private treaty 08 Dec 2022,20221208,2/25 Ulana Avenue,HALEKULANI,NSW,2262,-33.22329,151.548111,3,1,2,Duplex,Duplex,False,0,m2,False
2018098821,listing,/16-barragoola-road-blue-haven-nsw-2262-2018098821,690000,is-sold,Sold by private treaty 07 Dec 2022,20221207,16 Barragoola Road,BLUE HAVEN,NSW,2262,-33.2087555,151.504227,3,1,1,House,House,False,0,m2,False
2018140473,listing,/30-taronga-avenue-san-remo-nsw-2262-2018140473,650000,is-sold,Sold by private treaty 19 Dec 2022,20221219,30 Taronga Avenue,SAN REMO,NSW,2262,-33.2135239,151.518555,3,1,3,House,House,False,597,m2,False
2018164666,listing,/8-brava-avenue-san-remo-nsw-2262-2018164666,705000,is-sold,Sold by private treaty 15 Dec 2022,20221215,8 Brava Avenue,SAN REMO,NSW,2262,-33.2166977,151.50975,4,2,2,House,House,False,499,m2,False
2018164777,listing,/66-sunrise-avenue-halekulani-nsw-2262-2018164777,750000,is-sold,Sold by private treaty 19 Dec 2022,20221219,66 Sunrise Avenue,HALEKULANI,NSW,2262,-33.22603,151.552,3,2,2,House,House,False,677,m2,False
2018170612,listing,/46-walu-avenue-halekulani-nsw-2262-2018170612,682000,is-sold,Sold by private treaty 19 Dec 2022,20221219,46 Walu Avenue,HALEKULANI,NSW,2262,-33.2253761,151.543365,3,2,1,House,House,False,572,m2,False
2018171250,listing,/16-ulana-avenue-halekulani-nsw-2262-2018171250,725000,is-sold,Sold by private treaty 13 Dec 2022,20221213,16 Ulana Avenue,HALEKULANI,NSW,2262,-33.22351,151.545929,3,1,6,House,House,False,750,m2,False
2018176731,listing,/3-jeremy-close-halekulani-nsw-2262-2018176731,645000,is-sold,Sold by private treaty 16 Dec 2022,20221216,3 Jeremy Close,HALEKULANI,NSW,2262,-33.2253151,151.542969,3,1,1,House,House,False,469,m2,False
2018189238,listing,/92-buff-point-avenue-buff-point-nsw-2262-2018189238,935000,is-sold,Sold by private treaty 09 Dec 2022,20221209,92 Buff Point Avenue,BUFF POINT,NSW,2262,-33.2361946,151.536942,4,1,2,House,House,False,917,m2,False
2018197396,listing,/81-highview-avenue-san-remo-nsw-2262-2018197396,685000,is-sold,Sold by private treaty 19 Dec 2022,20221219,81 Highview Avenue,SAN REMO,NSW,2262,-33.216114,151.52742,3,2,2,House,House,False,557,m2,False
2018214996,listing,/99-manoa-road-halekulani-nsw-2262-2018214996,550000,is-sold,Sold by private treaty 15 Dec 2022,20221215,99 Manoa Road,HALEKULANI,NSW,2262,-33.2227058,151.551773,3,1,1,House,House,False,504,m2,False
2018219901,listing,/14-myall-close-blue-haven-nsw-2262-2018219901,540000,is-sold,Sold by private treaty 21 Dec 2022,20221221,14 Myall Close,BLUE HAVEN,NSW,2262,-33.206,151.501266,3,1,1,House,House,False,425,m2,False
2018223575,listing,/32-west-kahala-avenue-budgewoi-nsw-2262-2018223575,760000,is-sold,Sold at auction 16 Dec 2022,20221216,32 West Kahala Avenue,BUDGEWOI,NSW,2262,-33.23132,151.547668,4,2,2,House,House,False,575,m2,False
2018223741,listing,/45-katoomba-avenue-san-remo-nsw-2262-2018223741,720000,is-sold,Sold by private treaty 21 Dec 2022,20221221,45 Katoomba Avenue,SAN REMO,NSW,2262,-33.2119865,151.520462,4,2,2,House,House,False,575,m2,False
2018223742,listing,/45-katoomba-avenue-san-remo-nsw-2262-2018223742,720000,is-sold,Sold by private treaty 21 Dec 2022,20221221,45 Katoomba Avenue,SAN REMO,NSW,2262,-33.2119865,151.520462,4,2,2,House,House,False,575,m2,False
2018232573,listing,/62-iluka-avenue-san-remo-nsw-2262-2018232573,775000,is-sold,Sold by private treaty 09 Dec 2022,20221209,62 Iluka Avenue,SAN REMO,NSW,2262,-33.21108,151.5212,6,3,2,House,House,False,619,m2,False
2018257115,listing,/138-buff-point-avenue-buff-point-nsw-2262-2018257115,1250000,is-sold,Sold by private treaty 07 Dec 2022,20221207,138 Buff Point Avenue,BUFF POINT,NSW,2262,-33.2385674,151.534653,3,1,2,House,House,False,803,m2,False
2017910795,listing,/3-rosella-circuit-blue-haven-nsw-2262-2017910795,575000,is-sold,Sold by private treaty 14 Nov 2022,20221114,3 Rosella Circuit,BLUE HAVEN,NSW,2262,-33.2080345,151.49826,3,1,2,House,House,False,0,m2,False
2017946124,listing,/24-tenth-avenue-budgewoi-nsw-2262-2017946124,775000,is-sold,Sold by private treaty 22 Nov 2022,20221122,24 Tenth Avenue,BUDGEWOI,NSW,2262,-33.23448,151.558609,3,1,2,House,House,False,0,m2,False
2017948133,listing,/3-the-circuit-blue-haven-nsw-2262-2017948133,760000,is-sold,Sold by private treaty 16 Nov 2022,20221116,3 The Circuit,BLUE HAVEN,NSW,2262,-33.20816,151.4952,4,2,2,House,House,False,678,m2,False
2017970208,listing,/41-wandewoi-avenue-san-remo-nsw-2262-2017970208,709000,is-sold,Sold by private treaty 15 Nov 2022,20221115,41 Wandewoi Avenue,SAN REMO,NSW,2262,-33.2147369,151.521973,4,2,3,House,House,False,569,m2,False
2017983738,listing,/104-pinehurst-way-blue-haven-nsw-2262-2017983738,730000,is-sold,Sold by private treaty 05 Dec 2022,20221205,104 Pinehurst Way,BLUE HAVEN,NSW,2262,-33.21205,151.5003,4,2,2,House,House,False,403,m2,False
2018038168,listing,/6-white-swan-avenue-blue-haven-nsw-2262-2018038168,601500,is-sold,Sold by private treaty 16 Nov 2022,20221116,6 White Swan Avenue,BLUE HAVEN,NSW,2262,-33.21089,151.497757,3,1,2,House,House,False,542,m2,False
2018055662,listing,/11-waugh-close-blue-haven-nsw-2262-2018055662,695000,is-sold,Sold by private treaty 14 Nov 2022,20221114,11 Waugh Close,BLUE HAVEN,NSW,2262,-33.2123146,151.509476,3,1,2,House,House,False,0,m2,False
2018130618,listing,/49-scenic-drive-budgewoi-nsw-2262-2018130618,620000,is-sold,Sold by private treaty 18 Nov 2022,20221118,49 Scenic Drive,BUDGEWOI,NSW,2262,-33.2345352,151.557526,3,2,2,House,House,False,575,m2,False
2018131128,listing,/11-regent-street-buff-point-nsw-2262-2018131128,645000,is-sold,Sold by private treaty 14 Nov 2022,20221114,11 Regent Street,BUFF POINT,NSW,2262,-33.2305374,151.533157,2,2,2,House,House,False,573,m2,False
2018131599,listing,/42-woodlawn-drive-budgewoi-nsw-2262-2018131599,539000,is-sold,Sold by private treaty 30 Nov 2022,20221130,42 Woodlawn Drive,BUDGEWOI,NSW,2262,-33.2273827,151.549164,2,1,,House,House,False,557,m2,False
2018141606,listing,/54-elouera-avenue-buff-point-nsw-2262-2018141606,675000,is-sold,Sold by private treaty 18 Nov 2022,20221118,54 Elouera Avenue,BUFF POINT,NSW,2262,-33.22892,151.535568,3,2,2,House,House,False,885,m2,False
2018149491,listing,/6-coonanga-avenue-budgewoi-nsw-2262-2018149491,480000,is-sold,Sold by private treaty 25 Nov 2022,20221125,6 Coonanga Avenue,BUDGEWOI,NSW,2262,-33.2312469,151.54866,2,1,1,House,House,False,557,m2,False
2018161911,listing,/49-natuna-avenue-budgewoi-nsw-2262-2018161911,1025000,is-sold,Sold by private treaty 30 Nov 2022,20221130,49 Natuna Avenue,BUDGEWOI,NSW,2262,-33.232357,151.558975,3,2,4,House,House,False,657,m2,False
2018165263,listing,/156-186-sunrise-avenue-halekulani-nsw-2262-2018165263,,is-sold,Sold by private treaty 30 Nov 2022,20221130,156/186 Sunrise Avenue,HALEKULANI,NSW,2262,-33.2167473,151.5557,2,1,1,House,House,False,0,m2,True
2018174522,listing,/4-marri-close-blue-haven-nsw-2262-2018174522,726000,is-sold,Sold by private treaty 28 Nov 2022,20221128,4 Marri Close,BLUE HAVEN,NSW,2262,-33.20763,151.514954,4,2,2,House,House,False,521,m2,False
2018182086,listing,/66-68-richardson-road-san-remo-nsw-2262-2018182086,,is-sold,Sold by private treaty 02 Dec 2022,20221202,66-68 Richardson Road,SAN REMO,NSW,2262,-33.213398,151.524841,3,1,2,House,House,False,1100,m2,False
2018188433,listing,/73-wandewoi-avenue-san-remo-nsw-2262-2018188433,670000,is-sold,Sold by private treaty 28 Nov 2022,20221128,73 Wandewoi Avenue,SAN REMO,NSW,2262,-33.2125664,151.522476,5,2,1,House,House,False,588,m2,False
2018205667,listing,/28-katoomba-avenue-san-remo-nsw-2262-2018205667,642500,is-sold,Sold by private treaty 02 Dec 2022,20221202,28 Katoomba Avenue,SAN REMO,NSW,2262,-33.2135429,151.5196,3,1,1,House,House,False,462,m2,False
2018205722,listing,/40-walu-avenue-halekulani-nsw-2262-2018205722,675000,is-sold,Sold by private treaty 20 Nov 2022,20221120,40 Walu Avenue,HALEKULANI,NSW,2262,-33.2258,151.543289,3,2,3,House,House,False,557,m2,False
2018213323,listing,/94-perouse-avenue-san-remo-nsw-2262-2018213323,580000,is-sold,Sold by private treaty 28 Nov 2022,20221128,94 Perouse Avenue,SAN REMO,NSW,2262,-33.2115326,151.526581,3,1,2,House,House,False,645,m2,False
2017859171,listing,/24-noela-place-budgewoi-nsw-2262-2017859171,650000,is-sold,Sold by private treaty 28 Oct 2022,20221028,24 Noela Place,BUDGEWOI,NSW,2262,-33.232605,151.554459,3,1,2,House,House,False,556,m2,False
2017903204,listing,/49-kawana-avenue-blue-haven-nsw-2262-2017903204,517500,is-sold,Sold by private treaty 21 Oct 2022,20221021,49 Kawana Avenue,BLUE HAVEN,NSW,2262,-33.21071,151.497345,3,1,1,House,House,False,556,m2,False
2017934131,listing,/59-mckellar-boulevard-blue-haven-nsw-2262-2017934131,620000,is-sold,Sold by private treaty 31 Oct 2022,20221031,59 Mckellar Boulevard,BLUE HAVEN,NSW,2262,-33.208828,151.496429,3,1,1,House,House,False,556,m2,False
2017975479,listing,/9-marsden-road-blue-haven-nsw-2262-2017975479,800000,is-sold,Sold by private treaty 27 Oct 2022,20221027,9 Marsden Road,BLUE HAVEN,NSW,2262,-33.21279,151.510254,4,2,2,House,House,False,0,m2,False
2017990645,listing,/217-buff-point-avenue-buff-point-nsw-2262-2017990645,639000,is-sold,Sold by private treaty 27 Oct 2022,20221027,217 Buff Point Avenue,BUFF POINT,NSW,2262,-33.23011,151.5316,2,1,1,House,House,False,0,m2,False
2018000926,listing,/38-wailele-avenue-halekulani-nsw-2262-2018000926,695000,is-sold,Sold by private treaty 28 Oct 2022,20221028,38 Wailele Avenue,HALEKULANI,NSW,2262,-33.2175026,151.552734,4,2,2,House,House,False,575,m2,False
2018043948,listing,/115-sunrise-avenue-halekulani-nsw-2262-2018043948,1275000,is-sold,Sold by private treaty 04 Nov 2022,20221104,115 Sunrise Avenue,HALEKULANI,NSW,2262,-33.2225876,151.554047,4,3,2,House,House,False,556,m2,False
2018046746,listing,/15-katoomba-avenue-san-remo-nsw-2262-2018046746,735000,is-sold,Sold by private treaty 07 Nov 2022,20221107,15 Katoomba Avenue,SAN REMO,NSW,2262,-33.21429,151.52002,4,2,4,House,House,False,575,m2,False
2018053997,listing,/36-karangal-crescent-buff-point-nsw-2262-2018053997,670000,is-sold,Sold by private treaty 10 Nov 2022,20221110,36 Karangal Crescent,BUFF POINT,NSW,2262,-33.2317848,151.533157,3,1,1,House,House,False,545,m2,False
2018072193,listing,/8-regent-street-buff-point-nsw-2262-2018072193,870000,is-sold,Sold by private treaty 10 Nov 2022,20221110,8 Regent Street,BUFF POINT,NSW,2262,-33.2309074,151.5327,4,2,2,House,House,False,700,m2,False
2018075714,listing,/3-wandewoi-avenue-san-remo-nsw-2262-2018075714,420000,is-sold,Sold at auction 21 Oct 2022,20221021,3 Wandewoi Avenue,SAN REMO,NSW,2262,-33.2174644,151.521423,1,1,,House,House,False,0,m2,False
2018092396,listing,/6-31-girraween-street-buff-point-nsw-2262-2018092396,460000,is-sold,Sold by private treaty 28 Oct 2022,20221028,6/31 Girraween Street,BUFF POINT,NSW,2262,-33.22521,151.535385,2,1,1,House,House,False,0,m2,False
2018094112,listing,/30-barker-avenue-san-remo-nsw-2262-2018094112,545000,is-sold,Sold by private treaty 04 Nov 2022,20221104,30 Barker Avenue,SAN REMO,NSW,2262,-33.2171059,151.5263,2,1,3,House,House,False,462,m2,False
2018097495,listing,/30-catalina-road-san-remo-nsw-2262-2018097495,645000,is-sold,Sold by private treaty 03 Nov 2022,20221103,30 Catalina Road,SAN REMO,NSW,2262,-33.2152328,151.523483,3,1,2,House,House,False,556,m2,False
2018099728,listing,/248-scenic-drive-buff-point-nsw-2262-2018099728,625000,is-sold,Sold by private treaty 29 Oct 2022,20221029,248 Scenic Drive,BUFF POINT,NSW,2262,-33.2293053,151.541824,4,2,2,House,House,False,519,m2,False
2018106895,listing,/14-lilo-avenue-halekulani-nsw-2262-2018106895,785000,is-sold,Sold by private treaty 02 Nov 2022,20221102,14 Lilo Avenue,HALEKULANI,NSW,2262,-33.2204437,151.550125,3,1,1,House,House,False,638,m2,False
2018111459,listing,/2-canberry-close-buff-point-nsw-2262-2018111459,722000,is-sold,Sold by private treaty 11 Nov 2022,20221111,2 Canberry Close,BUFF POINT,NSW,2262,-33.2324333,151.533981,3,1,1,House,House,False,592,m2,False
2018126300,listing,/22-elouera-avenue-buff-point-nsw-2262-2018126300,755000,is-sold,Sold by private treaty 14 Nov 2022,20221114,22 Elouera Avenue,BUFF POINT,NSW,2262,-33.2293243,151.5385,5,2,1,House,House,False,930,m2,False
2018167404,listing,/5-penguin-road-blue-haven-nsw-2262-2018167404,590000,is-sold,Sold by private treaty 01 Nov 2022,20221101,5 Penguin Road,BLUE HAVEN,NSW,2262,-33.2158165,151.495514,3,1,,House,House,False,600,m2,False
2018170239,listing,/29-emu-drive-san-remo-nsw-2262-2018170239,705000,is-sold,Sold by private treaty 12 Nov 2022,20221112,29 Emu Drive,SAN REMO,NSW,2262,-33.2174,151.516129,3,2,2,House,House,False,695,m2,False
2017796681,listing,/7-pacific-highway-san-remo-nsw-2262-2017796681,560000,is-sold,Sold by private treaty 07 Oct 2022,20221007,7 Pacific Highway,SAN REMO,NSW,2262,-33.2170525,151.508423,3,1,2,House,House,False,486,m2,False
2017823288,listing,/22-olney-drive-blue-haven-nsw-2262-2017823288,780000,is-sold,Sold by private treaty 07 Oct 2022,20221007,22 Olney Drive,BLUE HAVEN,NSW,2262,-33.20857,151.494492,4,2,2,House,House,False,514,m2,False
2017846756,listing,/54-perouse-avenue-san-remo-nsw-2262-2017846756,530000,is-sold,Sold at auction 08 Oct 2022,20221008,54 Perouse Avenue,SAN REMO,NSW,2262,-33.21475,151.5259,2,1,1,House,House,False,645,m2,False
2017888707,listing,/39-kailua-avenue-budgewoi-nsw-2262-2017888707,950000,is-sold,Sold by private treaty 28 Sep 2022,20220928,39 Kailua Avenue,BUDGEWOI,NSW,2262,-33.2358551,151.558609,4,2,3,House,House,False,677,m2,False
2017911518,listing,/44-katoomba-avenue-san-remo-nsw-2262-2017911518,580000,is-sold,Sold by private treaty 28 Sep 2022,20220928,44 Katoomba Avenue,SAN REMO,NSW,2262,-33.21247,151.519836,3,1,1,House,House,False,575,m2,False
2017932373,listing,/53-emu-dr-san-remo-nsw-2262-2017932373,660000,is-sold,Sold by private treaty 27 Sep 2022,20220927,53 Emu Dr,SAN REMO,NSW,2262,-33.2157974,151.5165,4,2,2,House,House,False,689,m2,False
2017954468,listing,/64-diamond-head-drive-budgewoi-nsw-2262-2017954468,1137340,is-sold,Sold by private treaty 10 Oct 2022,20221010,64 Diamond Head Drive,BUDGEWOI,NSW,2262,-33.23631,151.5572,4,2,4,House,House,False,891,m2,False
2017955581,listing,/113-delia-avenue-halekulani-nsw-2262-2017955581,545000,is-sold,Sold by private treaty 28 Sep 2022,20220928,113 Delia Avenue,HALEKULANI,NSW,2262,-33.2239,151.5509,3,1,1,House,House,False,556,m2,False
2017967370,listing,/32-moola-road-buff-point-nsw-2262-2017967370,950000,is-sold,Sold by private treaty 13 Oct 2022,20221013,32 Moola Road,BUFF POINT,NSW,2262,-33.23534,151.535614,4,2,2,House,House,False,917,m2,False
2018034347,listing,/6-west-kahala-avenue-budgewoi-nsw-2262-2018034347,800000,is-sold,Sold by private treaty 04 Oct 2022,20221004,6 West Kahala Avenue,BUDGEWOI,NSW,2262,-33.23202,151.549667,5,3,3,House,House,False,575,m2,False
2018049183,listing,/49-wandewoi-avenue-san-remo-nsw-2262-2018049183,770000,is-sold,Sold prior to auction 14 Oct 2022,20221014,49 Wandewoi Avenue,SAN REMO,NSW,2262,-33.21422,151.522156,4,2,3,House,House,False,575,m2,False
2018058122,listing,/6-muru-close-blue-haven-nsw-2262-2018058122,700000,is-sold,Sold prior to auction 13 Oct 2022,20221013,6 Muru Close,BLUE HAVEN,NSW,2262,-33.21248,151.5126,3,2,2,House,House,False,0,m2,False
2018066497,listing,/13-scribbly-gum-close-san-remo-nsw-2262-2018066497,687000,is-sold,Sold by private treaty 17 Oct 2022,20221017,13 Scribbly Gum Close,SAN REMO,NSW,2262,-33.21518,151.511749,3,1,2,House,House,False,571,m2,False
2018072351,listing,/16-west-kahala-avenue-budgewoi-nsw-2262-2018072351,820000,is-sold,Sold by private treaty 13 Oct 2022,20221013,16 West Kahala Avenue,BUDGEWOI,NSW,2262,-33.2319374,151.548843,3,1,,House,House,False,910,m2,False
2018075956,listing,/1-wandewoi-avenue-san-remo-nsw-2262-2018075956,525000,is-sold,Sold at auction 21 Oct 2022,20221021,1 Wandewoi Avenue,SAN REMO,NSW,2262,-33.2176666,151.521423,3,2,1,House,House,False,798,m2,False
2018078575,listing,/7-walu-avenue-budgewoi-nsw-2262-2018078575,625000,is-sold,Sold by private treaty 20 Oct 2022,20221020,7 Walu Avenue,BUDGEWOI,NSW,2262,-33.2275162,151.54274,2,1,1,House,House,False,556,m2,False
2018079881,listing,/89-coonanga-avenue-halekulani-nsw-2262-2018079881,835000,is-sold,Sold by private treaty 05 Oct 2022,20221005,89 Coonanga Avenue,HALEKULANI,NSW,2262,-33.22542,151.547623,4,3,1,House,House,False,556,m2,False
2018091654,listing,/24-kawana-avenue-blue-haven-nsw-2262-2018091654,620000,is-sold,Sold by private treaty 08 Oct 2022,20221008,24 Kawana Avenue,BLUE HAVEN,NSW,2262,-33.2119827,151.4968,3,1,1,House,House,False,556,m2,False
2018095454,listing,/72-pinehurst-way-blue-haven-nsw-2262-2018095454,640000,is-sold,Sold by private treaty 04 Oct 2022,20221004,72 Pinehurst Way,BLUE HAVEN,NSW,2262,-33.21252,151.497665,3,1,2,House,House,False,527,m2,False
2018161861,listing,/119-scenic-drive-budgewoi-nsw-2262-2018161861,700000,is-sold,Sold by private treaty 18 Oct 2022,20221018,119 Scenic Drive,BUDGEWOI,NSW,2262,-33.23266,151.550949,3,1,3,House,House,False,569,m2,False
2017592104,listing,/78a-2-macleay-drive-halekulani-nsw-2262-2017592104,,is-sold,Sold by private treaty 09 Sep 2022,20220909,78a/2 Macleay Drive,HALEKULANI,NSW,2262,-33.209095,151.560684,2,1,1,House,House,False,0,m2,True
2017841356,listing,/70-mckellar-boulevard-blue-haven-nsw-2262-2017841356,645000,is-sold,Sold by private treaty 16 Sep 2022,20220916,70 McKellar Boulevard,BLUE HAVEN,NSW,2262,-33.2075233,151.4962,3,3,3,House,House,False,550,m2,False
2017875141,listing,/74-narambi-road-buff-point-nsw-2262-2017875141,650000,is-sold,Sold by private treaty 14 Sep 2022,20220914,74 Narambi Road,BUFF POINT,NSW,2262,-33.2304764,151.539764,3,1,4,House,House,False,532,m2,False
2017903230,listing,/6-5-dunlop-road-blue-haven-nsw-2262-2017903230,387000,is-sold,Sold by private treaty 08 Sep 2022,20220908,6/5 Dunlop Road,BLUE HAVEN,NSW,2262,-33.2133675,151.507629,1,1,1,ApartmentUnitFlat,Apartment / Unit / Flat,False,0,m2,False
2017915925,listing,/27-goorama-avenue-san-remo-nsw-2262-2017915925,615000,is-sold,Sold by private treaty 15 Sep 2022,20220915,27 Goorama Avenue,SAN REMO,NSW,2262,-33.21582,151.524216,3,1,2,House,House,False,556,m2,False
2017961323,listing,/9-wandewoi-avenue-san-remo-nsw-2262-2017961323,680000,is-sold,Sold by private treaty 19 Sep 2022,20220919,9 Wandewoi Avenue,SAN REMO,NSW,2262,-33.217083,151.521515,3,1,2,House,House,False,0,m2,False
2017966639,listing,/149-blueridge-drive-blue-haven-nsw-2262-2017966639,1155000,is-sold,Sold by private treaty 21 Sep 2022,20220921,149 Blueridge Drive,BLUE HAVEN,NSW,2262,-33.2089539,151.515732,7,3,3,House,House,False,813,m2,False
2017997321,listing,/28-elouera-avenue-buff-point-nsw-2262-2017997321,1075000,is-sold,Sold at auction 09 Sep 2022,20220909,28 Elouera Avenue,BUFF POINT,NSW,2262,-33.22936,151.538,6,4,2,House,House,False,0,m2,False
2018006338,listing,/20-iluka-avenue-san-remo-nsw-2262-2018006338,716000,is-sold,Sold by private treaty 08 Sep 2022,20220908,20 Iluka Avenue,SAN REMO,NSW,2262,-33.2141037,151.520554,4,2,1,House,House,False,0,m2,False
2018008775,listing,/120-birdwood-drive-blue-haven-nsw-2262-2018008775,870000,is-sold,Sold by private treaty 09 Sep 2022,20220909,120 Birdwood Drive,BLUE HAVEN,NSW,2262,-33.2156143,151.494064,4,2,7,House,House,False,936,m2,False
2018010825,listing,/77-roper-road-blue-haven-nsw-2262-2018010825,630000,is-sold,Sold by private treaty 15 Sep 2022,20220915,77 Roper Road,BLUE HAVEN,NSW,2262,-33.20774,151.5041,3,1,1,House,House,False,0,m2,False
2018015291,listing,/4-maneela-road-buff-point-nsw-2262-2018015291,675000,is-sold,Sold by private treaty 08 Sep 2022,20220908,4 Maneela Road,BUFF POINT,NSW,2262,-33.22263,151.530685,3,1,1,House,House,False,0,m2,False
2018016692,listing,/196-186-sunrise-avenue-halekulani-nsw-2262-2018016692,,is-sold,Sold by private treaty 23 Sep 2022,20220923,196/186 Sunrise Avenue,HALEKULANI,NSW,2262,-33.2167473,151.5557,2,2,2,House,House,False,0,m2,True
2018018480,listing,/11-grady-close-blue-haven-nsw-2262-2018018480,830000,is-sold,Sold by private treaty 16 Sep 2022,20220916,11 Grady Close,BLUE HAVEN,NSW,2262,-33.206295,151.511276,4,2,2,House,House,False,0,m2,False
2018034039,listing,/147-roper-road-blue-haven-nsw-2262-2018034039,745000,is-sold,Sold at auction 23 Sep 2022,20220923,147 Roper Road,BLUE HAVEN,NSW,2262,-33.20853,151.509979,4,2,2,House,House,False,570,m2,False
2018043949,listing,/34-coonanga-avenue-budgewoi-nsw-2262-2018043949,795000,is-sold,Sold by private treaty 09 Sep 2022,20220909,34 Coonanga Avenue,BUDGEWOI,NSW,2262,-33.2292976,151.5478,3,2,3,House,House,False,556,m2,False
2018049347,listing,/46-liamena-avenue-san-remo-nsw-2262-2018049347,925000,is-sold,Sold by private treaty 21 Sep 2022,20220921,46 Liamena Avenue,SAN REMO,NSW,2262,-33.2187,151.5226,4,2,2,House,House,False,708,m2,False
2018049864,listing,/175-roper-road-blue-haven-nsw-2262-2018049864,790000,is-sold,Sold by private treaty 19 Sep 2022,20220919,175 Roper Road,BLUE HAVEN,NSW,2262,-33.20921,151.514816,4,2,2,House,House,False,589,m2,False
2018059882,listing,/192-scenic-drive-budgewoi-nsw-2262-2018059882,730888,is-sold,Sold by private treaty 20 Sep 2022,20220920,192 Scenic Drive,BUDGEWOI,NSW,2262,-33.2317123,151.546448,3,2,1,House,House,False,500,m2,False
2018096524,listing,/149-manoa-road-halekulani-nsw-2262-2018096524,820000,is-sold,Sold by private treaty 07 Sep 2022,20220907,149 Manoa Road,HALEKULANI,NSW,2262,-33.2192268,151.5535,3,1,1,House,House,False,543,m2,False
2017877364,listing,/26-186-sunrise-avenue-halekulani-nsw-2262-2017877364,,is-sold,Sold by private treaty 31 Aug 2022,20220831,26/186 Sunrise Avenue,HALEKULANI,NSW,2262,-33.2167473,151.5557,2,1,1,House,House,False,0,m2,True
2017882171,listing,/45-catalina-road-san-remo-nsw-2262-2017882171,650000,is-sold,Sold by private treaty 27 Aug 2022,20220827,45 Catalina Road,SAN REMO,NSW,2262,-33.2146263,151.524124,3,1,1,House,House,False,556,m2,False
2017906371,listing,/51-st-lawrence-avenue-blue-haven-nsw-2262-2017906371,790000,is-sold,Sold by private treaty 19 Aug 2022,20220819,51 St Lawrence Avenue,BLUE HAVEN,NSW,2262,-33.21057,151.50975,4,2,2,House,House,False,552,m2,False
2017911314,listing,/14-goorama-avenue-san-remo-nsw-2262-2017911314,550000,is-sold,Sold by private treaty 26 Aug 2022,20220826,14 Goorama Avenue,SAN REMO,NSW,2262,-33.21564,151.519287,2,1,1,House,House,False,531,m2,False
2017913319,listing,/121-highview-avenue-san-remo-nsw-2262-2017913319,735000,is-sold,Sold by private treaty 06 Sep 2022,20220906,121 Highview Avenue,SAN REMO,NSW,2262,-33.219017,151.5268,4,2,2,House,House,False,557,m2,False
2017922016,listing,/185-sunrise-avenue-halekulani-nsw-2262-2017922016,1238000,is-sold,Sold by private treaty 27 Aug 2022,20220827,185 Sunrise Avenue,HALEKULANI,NSW,2262,-33.2178268,151.556473,4,3,2,House,House,False,575,m2,False
2017935872,listing,/11-woolana-avenue-budgewoi-nsw-2262-2017935872,535000,is-sold,Sold by private treaty 23 Aug 2022,20220823,11 Woolana Avenue,BUDGEWOI,NSW,2262,-33.2312,151.550262,2,1,2,House,House,False,695,m2,False
2017938475,listing,/16-karwin-close-buff-point-nsw-2262-2017938475,825000,is-sold,Sold by private treaty 26 Aug 2022,20220826,16 Karwin Close,BUFF POINT,NSW,2262,-33.223587,151.532928,3,2,2,House,House,False,520,m2,False
2017948317,listing,/63-elouera-avenue-buff-point-nsw-2262-2017948317,665000,is-sold,Sold by private treaty 29 Aug 2022,20220829,63 Elouera Avenue,BUFF POINT,NSW,2262,-33.2283745,151.534836,3,1,3,House,House,False,929,m2,False
2017953728,listing,/6-woodlawn-drive-budgewoi-nsw-2262-2017953728,700000,is-sold,Sold by private treaty 23 Aug 2022,20220823,6 Woodlawn Drive,BUDGEWOI,NSW,2262,-33.2297554,151.550125,4,1,1,House,House,False,556,m2,False
2017957343,listing,/11-marri-close-blue-haven-nsw-2262-2017957343,765000,is-sold,Sold by private treaty 24 Aug 2022,20220824,11 Marri Close,BLUE HAVEN,NSW,2262,-33.2079544,151.514374,4,2,2,House,House,False,595,m2,False
2017961542,listing,/27-tenth-avenue-budgewoi-nsw-2262-2017961542,780000,is-sold,Sold by private treaty 02 Sep 2022,20220902,27 Tenth Avenue,BUDGEWOI,NSW,2262,-33.233757,151.557159,3,2,2,House,House,False,613,m2,False
2017970297,listing,/5-keera-close-blue-haven-nsw-2262-2017970297,640000,is-sold,Sold by private treaty 19 Aug 2022,20220819,5 Keera Close,BLUE HAVEN,NSW,2262,-33.2055,151.503952,3,1,1,House,House,False,340,m2,False
2017971189,listing,/60-mccrea-boulevard-san-remo-nsw-2262-2017971189,635000,is-sold,Sold at auction 31 Aug 2022,20220831,60 McCrea Boulevard,SAN REMO,NSW,2262,-33.2133141,151.522888,3,1,1,House,House,False,550,m2,False
2017973282,listing,/47-coonanga-avenue-budgewoi-nsw-2262-2017973282,635000,is-sold,Sold by private treaty 02 Sep 2022,20220902,47 Coonanga Avenue,BUDGEWOI,NSW,2262,-33.2283859,151.548019,3,1,1,House,House,False,556,m2,False
2017991090,listing,/27-186-sunrise-avenue-halekulani-nsw-2262-2017991090,,is-sold,Sold by private treaty 01 Sep 2022,20220901,27/186 Sunrise Avenue,HALEKULANI,NSW,2262,-33.2167473,151.5557,2,1,2,House,House,False,0,m2,True
2017996810,listing,/2-muru-close-blue-haven-nsw-2262-2017996810,1010000,is-sold,Sold by private treaty 20 Aug 2022,20220820,2 Muru Close,BLUE HAVEN,NSW,2262,-33.21248,151.5126,4,2,2,House,House,False,732,m2,False
2018023798,listing,/102-colorado-drive-blue-haven-nsw-2262-2018023798,765000,is-sold,Sold by private treaty 27 Aug 2022,20220827,102 Colorado Drive,BLUE HAVEN,NSW,2262,-33.2116928,151.510208,4,2,2,House,House,False,566,m2,False
2018034345,listing,/67-roper-road-blue-haven-nsw-2262-2018034345,612000,is-sold,Sold by private treaty 06 Sep 2022,20220906,67 Roper Road,BLUE HAVEN,NSW,2262,-33.20756,151.502686,3,1,1,House,House,False,378,m2,False
2018036253,listing,/174-sunrise-avenue-halekulani-nsw-2262-2018036253,1100000,is-sold,Sold by private treaty 07 Sep 2022,20220907,174 Sunrise Avenue,HALEKULANI,NSW,2262,-33.2181969,151.5557,8,4,5,BlockOfUnits,Block of Units,False,796,m2,False
2017712982,listing,/108-barker-avenue-san-remo-nsw-2262-2017712982,652500,is-sold,Sold by private treaty 04 Aug 2022,20220804,108 Barker Avenue,SAN REMO,NSW,2262,-33.210865,151.527634,4,2,3,House,House,False,0,m2,False
2017736469,listing,/buff-point-nsw-2262-2017736469,950000,is-sold,Sold by private treaty 28 Jul 2022,20220728,,BUFF POINT,NSW,2262,-33.2297821,151.531464,3,2,2,House,House,False,663,m2,False
2017761479,listing,/37-moran-road-buff-point-nsw-2262-2017761479,680000,is-sold,Sold by private treaty 05 Aug 2022,20220805,37 Moran Road,BUFF POINT,NSW,2262,-33.22957,151.536072,3,1,,House,House,False,488,m2,False
2017795482,listing,/8-richardson-road-san-remo-nsw-2262-2017795482,650000,is-sold,Sold by private treaty 29 Jul 2022,20220729,8 Richardson Road,SAN REMO,NSW,2262,-33.2178345,151.5239,3,1,2,House,House,False,556,m2,False
2017811149,listing,/83-buff-point-avenue-buff-point-nsw-2262-2017811149,910000,is-sold,Sold by private treaty 18 Aug 2022,20220818,83 Buff Point Avenue,BUFF POINT,NSW,2262,-33.23602,151.536133,4,2,2,House,House,False,910,m2,False
2017831839,listing,/29-elouera-avenue-buff-point-nsw-2262-2017831839,650000,is-sold,Sold by private treaty 17 Aug 2022,20220817,29 Elouera Avenue,BUFF POINT,NSW,2262,-33.2288666,151.5379,2,1,1,House,House,False,961,m2,False
2017865024,listing,/68-doyle-avenue-halekulani-nsw-2262-2017865024,712000,is-sold,Sold by private treaty 10 Aug 2022,20220810,68 Doyle Avenue,HALEKULANI,NSW,2262,-33.224102,151.549438,3,2,1,House,House,False,481,m2,False
2017870656,listing,/153-delia-avenue-halekulani-nsw-2262-2017870656,650000,is-sold,Sold by private treaty 16 Aug 2022,20220816,153 Delia Avenue,HALEKULANI,NSW,2262,-33.2209625,151.5514,2,1,1,House,House,False,632,m2,False
2017877474,listing,/125-emu-drive-san-remo-nsw-2262-2017877474,697500,is-sold,Sold by private treaty 08 Aug 2022,20220808,125 Emu Drive,SAN REMO,NSW,2262,-33.2107124,151.517456,4,1,3,House,House,False,696,m2,False
2017903352,listing,/41-diamond-head-drive-budgewoi-nsw-2262-2017903352,1462000,is-sold,Sold by private treaty 12 Aug 2022,20220812,41 Diamond Head Drive,BUDGEWOI,NSW,2262,-33.2367,151.558563,5,2,2,House,House,False,655,m2,False
2017922499,listing,/15-scenic-drive-budgewoi-nsw-2262-2017922499,536000,is-sold,Sold prior to auction 28 Jul 2022,20220728,15 Scenic Drive,BUDGEWOI,NSW,2262,-33.23538,151.56044,2,1,1,House,House,False,0,m2,False
2017923055,listing,/75-perouse-avenue-san-remo-nsw-2262-2017923055,655000,is-sold,Sold by private treaty 29 Jul 2022,20220729,75 Perouse Avenue,SAN REMO,NSW,2262,-33.21349,151.526672,4,1,1,House,House,False,467,m2,False
2017940726,listing,/115-woolana-avenue-halekulani-nsw-2262-2017940726,725000,is-sold,Sold by private treaty 11 Aug 2022,20220811,115 Woolana Avenue,HALEKULANI,NSW,2262,-33.2217064,151.54953,5,2,2,House,House,False,923,m2,False
2017944101,listing,/43-kailua-avenue-budgewoi-nsw-2262-2017944101,640000,is-sold,Sold by private treaty 05 Aug 2022,20220805,43 Kailua Avenue,BUDGEWOI,NSW,2262,-33.2356224,151.558334,2,1,1,House,House,False,430,m2,False
2017946234,listing,/68-white-swan-avenue-blue-haven-nsw-2262-2017946234,805000,is-sold,Sold by private treaty 31 Jul 2022,20220731,68 White Swan Avenue,BLUE HAVEN,NSW,2262,-33.2104836,151.501633,4,2,2,House,House,False,573,m2,False
2017957117,listing,/16-reef-way-blue-haven-nsw-2262-2017957117,710000,is-sold,Sold by private treaty 19 Aug 2022,20220819,16 Reef Way,BLUE HAVEN,NSW,2262,-33.20897,151.507446,4,1,3,House,House,False,600,m2,False
2017959855,listing,/107-emu-drive-san-remo-nsw-2262-2017959855,780000,is-sold,Sold by private treaty 16 Aug 2022,20220816,107 Emu Drive,SAN REMO,NSW,2262,-33.21196,151.517273,3,2,1,House,House,False,695,m2,False
2017960407,listing,/36-barker-avenue-san-remo-nsw-2262-2017960407,620000,is-sold,Sold by private treaty 18 Aug 2022,20220818,36 Barker Avenue,SAN REMO,NSW,2262,-33.2166862,151.5264,3,1,2,House,House,False,448,m2,False
2017974788,listing,/31-barker-avenue-san-remo-nsw-2262-2017974788,680000,is-sold,Sold by private treaty 12 Aug 2022,20220812,31 Barker Avenue,SAN REMO,NSW,2262,-33.2170525,151.5269,3,1,4,House,House,False,462,m2,False
2017999848,listing,/94-coonanga-ave-halekulani-nsw-2262-2017999848,850000,is-sold,Sold by private treaty 19 Aug 2022,20220819,94 Coonanga Ave,HALEKULANI,NSW,2262,-33.2252579,151.547119,4,2,1,House,House,False,556,m2,False
2017721791,listing,/2-bancroft-close-blue-haven-nsw-2262-2017721791,715000,is-sold,Sold by private treaty 26 Jul 2022,20220726,2 Bancroft Close,BLUE HAVEN,NSW,2262,-33.206356,151.499939,3,2,2,House,House,False,433,m2,False
2017789185,listing,/30-scenic-circle-budgewoi-nsw-2262-2017789185,720000,is-sold,Sold by private treaty 18 Jul 2022,20220718,30 Scenic Circle,BUDGEWOI,NSW,2262,-33.2272453,151.543915,4,1,2,House,House,False,591,m2,False
2017790241,listing,/12-waugh-close-blue-haven-nsw-2262-2017790241,725000,is-sold,Sold by private treaty 11 Jul 2022,20220711,12 Waugh Close,BLUE HAVEN,NSW,2262,-33.21236,151.509659,3,1,2,House,House,False,0,m2,False
2017807919,listing,/157-roper-road-blue-haven-nsw-2262-2017807919,800000,is-sold,Sold by private treaty 27 Jul 2022,20220727,157 Roper Road,BLUE HAVEN,NSW,2262,-33.2088928,151.5129,4,2,4,House,House,False,684,m2,False
2017813061,listing,/9-mills-place-buff-point-nsw-2262-2017813061,650000,is-sold,Sold by private treaty 25 Jul 2022,20220725,9 Mills Place,BUFF POINT,NSW,2262,-33.23102,151.535751,3,1,2,House,House,False,522,m2,False
2017839584,listing,/6-scenic-drive-budgewoi-nsw-2262-2017839584,780000,is-sold,Sold at auction 08 Jul 2022,20220708,6 Scenic Drive,BUDGEWOI,NSW,2262,-33.23677,151.561234,3,2,2,House,House,False,0,m2,False
2017843026,listing,/35-white-swan-avenue-blue-haven-nsw-2262-2017843026,730000,is-sold,Sold at auction 08 Jul 2022,20220708,35 White Swan Avenue,BLUE HAVEN,NSW,2262,-33.2099648,151.500671,4,2,2,House,House,False,0,m2,False
2017859588,listing,/8-girraween-street-buff-point-nsw-2262-2017859588,770000,is-sold,Sold by private treaty 18 Jul 2022,20220718,8 Girraween Street,BUFF POINT,NSW,2262,-33.22378,151.531921,3,1,2,House,House,False,717,m2,False
2017860727,listing,/63-emu-drive-san-remo-nsw-2262-2017860727,610000,is-sold,Sold by private treaty 14 Jul 2022,20220714,63 Emu Drive,SAN REMO,NSW,2262,-33.2149048,151.516632,3,1,2,House,House,False,0,m2,False
2017864451,listing,/110-birdwood-drive-blue-haven-nsw-2262-2017864451,801000,is-sold,Sold by private treaty 21 Jul 2022,20220721,110 Birdwood Drive,BLUE HAVEN,NSW,2262,-33.215744,151.493286,5,2,3,House,House,False,734,m2,False
2017875842,listing,/132-diamond-head-drive-budgewoi-nsw-2262-2017875842,1410000,is-sold,Sold by private treaty 25 Jul 2022,20220725,132 Diamond Head Drive,BUDGEWOI,NSW,2262,-33.2343521,151.5521,4,3,2,House,House,False,550,m2,False
2017880630,listing,/3-kawana-avenue-blue-haven-nsw-2262-2017880630,610000,is-sold,Sold by private treaty 12 Jul 2022,20220712,3 Kawana Avenue,BLUE HAVEN,NSW,2262,-33.213974,151.4967,3,1,1,House,House,False,561,m2,False
2017880916,listing,/10-barker-avenue-san-remo-nsw-2262-2017880916,650000,is-sold,Sold by private treaty 14 Jul 2022,20220714,10 Barker Avenue,SAN REMO,NSW,2262,-33.2184372,151.525986,3,1,1,House,House,False,461,m2,False
2017886544,listing,/7-ourringo-street-budgewoi-nsw-2262-2017886544,835000,is-sold,Sold by private treaty 14 Jul 2022,20220714,7 Ourringo Street,BUDGEWOI,NSW,2262,-33.236805,151.566513,2,1,1,House,House,False,0,m2,False
2017892430,listing,/27-nerida-avenue-san-remo-nsw-2262-2017892430,650000,is-sold,Sold by private treaty 11 Jul 2022,20220711,27 Nerida Avenue,SAN REMO,NSW,2262,-33.2170639,151.517868,4,2,2,House,House,False,531,m2,False
2017893855,listing,/30-wailele-avenue-halekulani-nsw-2262-2017893855,955000,is-sold,Sold by private treaty 22 Jul 2022,20220722,30 Wailele Avenue,HALEKULANI,NSW,2262,-33.2180328,151.5526,5,2,2,House,House,False,588,m2,False
2017909560,listing,/112-150-tall-timbers-road-doyalson-north-nsw-2262-2017909560,224000,is-sold,Sold by private treaty 15 Jul 2022,20220715,112/150 Tall Timbers Road,DOYALSON NORTH,NSW,2262,-33.17608,151.55455,2,1,1,Villa,Villa,False,0,m2,True
2017922934,listing,/170-roper-road-blue-haven-nsw-2262-2017922934,905000,is-sold,Sold by private treaty 27 Jul 2022,20220727,170 Roper Road,BLUE HAVEN,NSW,2262,-33.2093544,151.512558,4,2,2,House,House,False,540,m2,False
2017934463,listing,/56-blueridge-drive-blue-haven-nsw-2262-2017934463,735000,is-sold,Sold by private treaty 23 Jul 2022,20220723,56 Blueridge Drive,BLUE HAVEN,NSW,2262,-33.2072067,151.507233,4,1,2,House,House,False,408,m2,False
2017935984,listing,/21-liamena-avenue-san-remo-nsw-2262-2017935984,700000,is-sold,Sold by private treaty 28 Jul 2022,20220728,21 Liamena Avenue,SAN REMO,NSW,2262,-33.2187271,151.5244,3,1,2,House,House,False,645,m2,False
2017500552,listing,/172-314-buff-point-avenue-buff-point-nsw-2262-2017500552,205000,is-sold,Sold by private treaty 29 Jun 2022,20220629,172/314 Buff Point Avenue,BUFF POINT,NSW,2262,-33.2234955,151.5293,2,1,1,House,House,False,0,m2,True
2017624102,listing,/13-2-macleay-drive-halekulani-nsw-2262-2017624102,,is-sold,Sold by private treaty 27 Jun 2022,20220627,13/2 Macleay Drive,HALEKULANI,NSW,2262,-33.209095,151.560684,2,1,1,House,House,False,0,m2,True
2017731259,listing,/99-highview-avenue-san-remo-nsw-2262-2017731259,742500,is-sold,Sold by private treaty 06 Jul 2022,20220706,99 Highview Avenue,SAN REMO,NSW,2262,-33.2174759,151.527069,4,2,2,House,House,False,0,m2,False
2017738672,listing,/7-boomerang-street-budgewoi-nsw-2262-2017738672,1200000,is-sold,Sold by private treaty 24 Jun 2022,20220624,7 Boomerang Street,BUDGEWOI,NSW,2262,-33.2387848,151.565231,3,2,1,House,House,False,582,m2,False
2017753440,listing,/2-harry-close-blue-haven-nsw-2262-2017753440,830000,is-sold,Sold by private treaty 16 Jun 2022,20220616,2 Harry Close,BLUE HAVEN,NSW,2262,-33.2071533,151.505981,4,2,2,House,House,False,495,m2,False
2017758524,listing,/10-olney-dr-blue-haven-nsw-2262-2017758524,816800,is-sold,Sold by private treaty 28 Jun 2022,20220628,10 Olney Dr,BLUE HAVEN,NSW,2262,-33.20789,151.494919,4,2,2,House,House,False,512,m2,False
2017773138,listing,/24-pinehurst-way-blue-haven-nsw-2262-2017773138,791750,is-sold,Sold by private treaty 06 Jul 2022,20220706,24 Pinehurst Way,BLUE HAVEN,NSW,2262,-33.2132072,151.5014,4,2,2,House,House,False,539,m2,False
2017800878,listing,/21-diamond-head-drive-budgewoi-nsw-2262-2017800878,725000,is-sold,Sold by private treaty 07 Jul 2022,20220707,21 Diamond Head Drive,BUDGEWOI,NSW,2262,-33.2373962,151.56012,5,3,2,House,House,False,512,m2,False
2017813111,listing,/20-lukela-avenue-budgewoi-nsw-2262-2017813111,720000,is-sold,Sold by private treaty 20 Jun 2022,20220620,20 Lukela Avenue,BUDGEWOI,NSW,2262,-33.22668,151.543915,3,1,3,House,House,False,613,m2,False
2017815815,listing,/183-scenic-drive-budgewoi-nsw-2262-2017815815,662500,is-sold,Sold by private treaty 05 Jul 2022,20220705,183 Scenic Drive,BUDGEWOI,NSW,2262,-33.23073,151.545609,3,1,,House,House,False,715,m2,False
2017831961,listing,/41-coonanga-avenue-budgewoi-nsw-2262-2017831961,607000,is-sold,Sold by private treaty 27 Jun 2022,20220627,41 Coonanga Avenue,BUDGEWOI,NSW,2262,-33.22877,151.548111,2,2,1,House,House,False,556,m2,False
2017833745,listing,/283-buff-point-avenue-buff-point-nsw-2262-2017833745,993000,is-sold,Sold by private treaty 07 Jul 2022,20220707,283 Buff Point Avenue,BUFF POINT,NSW,2262,-33.22327,151.531326,4,2,7,House,House,False,680,m2,False
2017836937,listing,/28-laelana-avenue-budgewoi-nsw-2262-2017836937,630000,is-sold,Sold by private treaty 24 Jun 2022,20220624,28 Laelana Avenue,BUDGEWOI,NSW,2262,-33.2285652,151.546478,2,1,1,House,House,False,556,m2,False
2017847037,listing,/32-katoomba-avenue-san-remo-nsw-2262-2017847037,685000,is-sold,Sold by private treaty 27 Jun 2022,20220627,32 Katoomba Avenue,SAN REMO,NSW,2262,-33.2132721,151.519653,4,1,1,House,House,False,584,m2,False
2017855158,listing,/121-manoa-road-halekulani-nsw-2262-2017855158,658500,is-sold,Sold by private treaty 05 Jul 2022,20220705,121 Manoa Road,HALEKULANI,NSW,2262,-33.2212524,151.552414,3,1,2,House,House,False,556,m2,False
2017869764,listing,/9-loch-close-blue-haven-nsw-2262-2017869764,748000,is-sold,Sold by private treaty 21 Jun 2022,20220621,9 Loch Close,BLUE HAVEN,NSW,2262,-33.2111931,151.5035,4,2,1,House,House,False,442,m2,False
2017876873,listing,/3-villa-close-budgewoi-nsw-2262-2017876873,925000,is-sold,Sold by private treaty 06 Jul 2022,20220706,3 Villa Close,BUDGEWOI,NSW,2262,-33.2368546,151.564835,4,2,2,House,House,False,882,m2,False
2017893163,listing,/13-kalani-street-budgewoi-nsw-2262-2017893163,680000,is-sold,Sold by private treaty 29 Jun 2022,20220629,13 Kalani Street,BUDGEWOI,NSW,2262,-33.23126,151.551956,2,1,1,House,House,False,474,m2,False
2017893557,listing,/76-nelmes-road-blue-haven-nsw-2262-2017893557,695000,is-sold,Sold by private treaty 27 Jun 2022,20220627,76 Nelmes Road,BLUE HAVEN,NSW,2262,-33.2150955,151.508011,3,2,1,House,House,False,0,m2,False
2017918723,listing,/220-buff-point-avenue-buff-point-nsw-2262-2017918723,970000,is-sold,Sold by private treaty 03 Jul 2022,20220703,220 Buff Point Avenue,BUFF POINT,NSW,2262,-33.2334747,151.530869,2,1,1,House,House,False,980,m2,False
2017510480,listing,/90-2-macleay-drive-halekulani-nsw-2262-2017510480,,is-sold,Sold by private treaty 14 Jun 2022,20220614,90/2 Macleay Drive,HALEKULANI,NSW,2262,-33.209095,151.560684,2,1,1,House,House,False,0,m2,True
2017690928,listing,/24-diamond-head-drive-budgewoi-nsw-2262-2017690928,,is-sold,Sold by private treaty 02 Jun 2022,20220602,24 Diamond Head Drive,BUDGEWOI,NSW,2262,-33.23797,151.559982,7,4,5,House,House,False,809,m2,False
2017728452,listing,/84-186-sunrise-avenue-halekulani-nsw-2262-2017728452,,is-sold,Sold by private treaty 31 May 2022,20220531,84/186 Sunrise Avenue,HALEKULANI,NSW,2262,-33.2167473,151.5557,2,1,2,House,House,False,0,m2,True
2017739161,listing,/43-goorama-avenue-san-remo-nsw-2262-2017739161,815000,is-sold,Sold by private treaty 10 Jun 2022,20220610,43 Goorama Avenue,SAN REMO,NSW,2262,-33.2155228,151.5222,4,2,2,House,House,False,550,m2,False
2017748916,listing,/126-colorado-drive-blue-haven-nsw-2262-2017748916,1003000,is-sold,Sold by private treaty 16 Jun 2022,20220616,126 Colorado Drive,BLUE HAVEN,NSW,2262,-33.2119141,151.513046,4,3,2,House,House,False,595,m2,False
2017751107,listing,/182-roper-road-blue-haven-nsw-2262-2017751107,885000,is-sold,Sold by private treaty 02 Jun 2022,20220602,182 Roper Road,BLUE HAVEN,NSW,2262,-33.2095222,151.513809,4,2,2,House,House,False,541,m2,False
2017768505,listing,/56-2-macleay-drive-halekulani-nsw-2262-2017768505,,is-sold,Sold by private treaty 16 Jun 2022,20220616,56/2 Macleay Drive,HALEKULANI,NSW,2262,-33.209095,151.560684,2,2,1,House,House,False,0,m2,True
2017776160,listing,/7-marina-street-budgewoi-nsw-2262-2017776160,650000,is-sold,Sold by private treaty 02 Jun 2022,20220602,7 Marina Street,BUDGEWOI,NSW,2262,-33.2326546,151.557617,2,1,1,House,House,False,575,m2,False
2017779032,listing,/40-186-sunrise-avenue-halekulani-nsw-2262-2017779032,220000,is-sold,Sold by private treaty 06 Jun 2022,20220606,40/186 Sunrise Avenue,HALEKULANI,NSW,2262,-33.2167473,151.5557,2,1,2,ApartmentUnitFlat,Apartment / Unit / Flat,False,0,m2,True
2017788819,listing,/153-manoa-road-halekulani-nsw-2262-2017788819,685000,is-sold,Sold by private treaty 01 Jun 2022,20220601,153 Manoa Road,HALEKULANI,NSW,2262,-33.21899,151.55368,3,1,3,House,House,False,544,m2,False
2017795227,listing,/75-roper-road-blue-haven-nsw-2262-2017795227,690000,is-sold,Sold by private treaty 30 May 2022,20220530,75 Roper Road,BLUE HAVEN,NSW,2262,-33.2077065,151.5039,3,1,1,House,House,False,324,m2,False
2017801805,listing,/2-huene-avenue-halekulani-nsw-2262-2017801805,620000,is-sold,Sold by private treaty 07 Jun 2022,20220607,2 Huene Avenue,HALEKULANI,NSW,2262,-33.22321,151.5523,2,1,1,House,House,False,556,m2,False
2017811482,listing,/109-iluka-avenue-san-remo-nsw-2262-2017811482,670000,is-sold,Sold by private treaty 15 Jun 2022,20220615,109 Iluka Avenue,SAN REMO,NSW,2262,-33.20986,151.521973,3,1,1,House,House,False,575,m2,False
2017812865,listing,/13-ulana-avenue-halekulani-nsw-2262-2017812865,1125000,is-sold,Sold by private treaty 02 Jun 2022,20220602,13 Ulana Avenue,HALEKULANI,NSW,2262,-33.2233658,151.549408,5,3,2,House,House,False,556,m2,False
2017816392,listing,/5-elouera-ave-buff-point-nsw-2262-2017816392,1025000,is-sold,Sold by private treaty 15 Jun 2022,20220615,5 Elouera Ave,BUFF POINT,NSW,2262,-33.2291222,151.539948,4,2,3,House,House,False,961,m2,False
2017824641,listing,/7-pine-court-blue-haven-nsw-2262-2017824641,673100,is-sold,Sold by private treaty 10 Jun 2022,20220610,7 Pine Court,BLUE HAVEN,NSW,2262,-33.2062531,151.502777,3,1,2,House,House,False,453,m2,False
2017829075,listing,/9-alpine-avenue-san-remo-nsw-2262-2017829075,820000,is-sold,Sold by private treaty 07 Jun 2022,20220607,9 Alpine Avenue,SAN REMO,NSW,2262,-33.209362,151.527267,4,2,2,House,House,False,645,m2,False
2017834394,listing,/113-2-macleay-drive-halekulani-nsw-2262-2017834394,485000,is-sold,Sold by private treaty 15 Jun 2022,20220615,113/2 Macleay Drive,HALEKULANI,NSW,2262,-33.209095,151.560684,3,2,2,House,House,False,0,m2,True
2017857748,listing,/139-314-buff-point-avenue-buff-point-nsw-2262-2017857748,349000,is-sold,Sold by private treaty 08 Jun 2022,20220608,139/314 Buff Point Avenue,BUFF POINT,NSW,2262,-33.2234955,151.5293,2,1,1,House,House,False,0,m2,True
2017860943,listing,/22-tenth-avenue-budgewoi-nsw-2262-2017860943,920000,is-sold,Sold by private treaty 15 Jun 2022,20220615,22 Tenth Avenue,BUDGEWOI,NSW,2262,-33.23456,151.558746,3,2,2,House,House,False,556,m2,False
2017656340,listing,/19-weemala-street-budgewoi-nsw-2262-2017656340,1325000,is-sold,Sold by private treaty 20 May 2022,20220520,19 Weemala Street,BUDGEWOI,NSW,2262,-33.23582,151.564819,4,2,2,House,House,False,651,m2,False
2017667748,listing,/1-mckellar-boulevard-blue-haven-nsw-2262-2017667748,670000,is-sold,Sold by private treaty 24 May 2022,20220524,1 McKellar Boulevard,BLUE HAVEN,NSW,2262,-33.2130661,151.496292,3,1,1,House,House,False,658,m2,False
2017688519,listing,/113-scenic-drive-budgewoi-nsw-2262-2017688519,820000,is-sold,Sold by private treaty 13 May 2022,20220513,113 Scenic Drive,BUDGEWOI,NSW,2262,-33.2326355,151.5515,3,2,1,House,House,False,626,m2,False
2017724829,listing,/183-birdwood-drive-blue-haven-nsw-2262-2017724829,630000,is-sold,Sold at auction 13 May 2022,20220513,183 Birdwood Drive,BLUE HAVEN,NSW,2262,-33.2172,151.496872,,,,VacantLand,Vacant land,False,0,m2,False
2017731253,listing,/64-scenic-drive-budgewoi-nsw-2262-2017731253,610000,is-sold,Sold at auction 26 May 2022,20220526,64 Scenic Drive,BUDGEWOI,NSW,2262,-33.23501,151.556839,3,1,1,House,House,False,0,m2,False
2017732432,listing,/11-waugh-close-blue-haven-nsw-2262-2017732432,750000,is-sold,Sold by private treaty 21 May 2022,20220521,11 Waugh Close,BLUE HAVEN,NSW,2262,-33.212326,151.509521,3,1,2,House,House,False,387,m2,False
2017737520,listing,/3-lukela-avenue-halekulani-nsw-2262-2017737520,700000,is-sold,Sold by private treaty 30 May 2022,20220530,3 Lukela Avenue,HALEKULANI,NSW,2262,-33.22646,151.545288,3,1,1,House,House,False,556,m2,False
2017741584,listing,/121-186-sunrise-avenue-halekulani-nsw-2262-2017741584,,is-sold,Sold by private treaty 16 May 2022,20220516,121/186 Sunrise Avenue,HALEKULANI,NSW,2262,-33.2167473,151.5557,2,1,1,House,House,False,0,m2,True
2017746459,listing,/69-186-sunrise-avenue-halekulani-nsw-2262-2017746459,,is-sold,Sold by private treaty 25 May 2022,20220525,69/186 Sunrise Avenue,HALEKULANI,NSW,2262,-33.2167473,151.5557,2,1,1,House,House,False,0,m2,True
2017747515,listing,/49-sunrise-avenue-budgewoi-nsw-2262-2017747515,1250000,is-sold,Sold by private treaty 27 May 2022,20220527,49 Sunrise Avenue,BUDGEWOI,NSW,2262,-33.2273026,151.5529,5,2,4,House,House,False,720,m2,False
2017748537,listing,/30-laelana-avenue-budgewoi-nsw-2262-2017748537,746000,is-sold,Sold by private treaty 16 May 2022,20220516,30 Laelana Avenue,BUDGEWOI,NSW,2262,-33.2284355,151.546432,6,2,2,House,House,False,556,m2,False
2017749792,listing,/14-mootay-close-buff-point-nsw-2262-2017749792,815000,is-sold,Sold prior to auction 27 May 2022,20220527,14 Mootay Close,BUFF POINT,NSW,2262,-33.23182,151.5371,4,2,3,House,House,False,0,m2,False
2017752213,listing,/19-kawana-avenue-blue-haven-nsw-2262-2017752213,605000,is-sold,Sold by private treaty 20 May 2022,20220520,19 Kawana Avenue,BLUE HAVEN,NSW,2262,-33.21295,151.4973,3,2,2,House,House,False,556,m2,False
2017758857,listing,/142-birdwood-drive-blue-haven-nsw-2262-2017758857,700000,is-sold,Sold by private treaty 13 May 2022,20220513,142 Birdwood Drive,BLUE HAVEN,NSW,2262,-33.2165871,151.496841,3,2,1,House,House,False,601,m2,False
2017769056,listing,/36-liamena-avenue-san-remo-nsw-2262-2017769056,975000,is-sold,Sold by private treaty 30 May 2022,20220530,36 Liamena Avenue,SAN REMO,NSW,2262,-33.21885,151.523438,3,2,2,House,House,False,588,m2,False
2017769549,listing,/149-roper-road-blue-haven-nsw-2262-2017769549,937500,is-sold,Sold at auction 27 May 2022,20220527,149 Roper Road,BLUE HAVEN,NSW,2262,-33.2085457,151.510208,6,3,2,House,House,False,0,m2,False
2017795033,listing,/4-barwon-close-blue-haven-nsw-2262-2017795033,890000,is-sold,Sold by private treaty 25 May 2022,20220525,4 Barwon Close,BLUE HAVEN,NSW,2262,-33.21078,151.508087,4,2,2,House,House,False,664,m2,False
2017802884,listing,/1-mckellar-boulevard-blue-haven-nsw-2262-2017802884,670000,is-sold,Sold by private treaty 24 May 2022,20220524,1 Mckellar Boulevard,BLUE HAVEN,NSW,2262,-33.2130661,151.496292,3,1,1,House,House,False,658,m2,False
2017810679,listing,/15-turner-close-blue-haven-nsw-2262-2017810679,731250,is-sold,Sold by private treaty 26 May 2022,20220526,15 Turner Close,BLUE HAVEN,NSW,2262,-33.2120628,151.49501,3,1,2,House,House,False,531,m2,False
2017835246,listing,/1-famata-avenue-blue-haven-nsw-2262-2017835246,882000,is-sold,Sold by private treaty 26 May 2022,20220526,1 Famata Avenue,BLUE HAVEN,NSW,2262,-33.2163734,151.5076,5,2,2,House,House,False,0,m2,False
2017598262,listing,/90-birdwood-drive-blue-haven-nsw-2262-2017598262,701000,is-sold,Sold by private treaty 21 Apr 2022,20220421,90 Birdwood Drive,BLUE HAVEN,NSW,2262,-33.2159157,151.491547,3,1,1,House,House,False,569,m2,False
2017611104,listing,/25-scenic-drive-budgewoi-nsw-2262-2017611104,670000,is-sold,Sold by private treaty 21 Apr 2022,20220421,25 Scenic Drive,BUDGEWOI,NSW,2262,-33.23516,151.5596,3,1,2,House,House,False,556,m2,False
2017633390,listing,/5-woodland-parkway-buff-point-nsw-2262-2017633390,745000,is-sold,Sold by private treaty 21 Apr 2022,20220421,5 Woodland Parkway,BUFF POINT,NSW,2262,-33.23283,151.544327,2,1,1,House,House,False,726,m2,False
2017654229,listing,/28-kobada-avenue-buff-point-nsw-2262-2017654229,670000,is-sold,Sold by private treaty 26 Apr 2022,20220426,28 Kobada Avenue,BUFF POINT,NSW,2262,-33.2322464,151.540649,2,1,2,House,House,False,600,m2,False
2017672762,listing,/4-hyam-close-blue-haven-nsw-2262-2017672762,842250,is-sold,Sold by private treaty 02 May 2022,20220502,4 Hyam Close,BLUE HAVEN,NSW,2262,-33.21446,151.509018,4,2,2,House,House,False,480,m2,False
2017674800,listing,/55-belyando-crescent-blue-haven-nsw-2262-2017674800,610000,is-sold,Sold by private treaty 04 May 2022,20220504,55 Belyando Crescent,BLUE HAVEN,NSW,2262,-33.2116432,151.512512,,,,VacantLand,Vacant land,False,568,m2,False
2017679520,listing,/55-emu-drive-san-remo-nsw-2262-2017679520,650000,is-sold,Sold by private treaty 08 May 2022,20220508,55 Emu Drive,SAN REMO,NSW,2262,-33.2154732,151.5165,3,1,2,House,House,False,689,m2,False
2017683703,listing,/61-wandewoi-avenue-san-remo-nsw-2262-2017683703,780000,is-sold,Sold by private treaty 21 Apr 2022,20220421,61 Wandewoi Avenue,SAN REMO,NSW,2262,-33.2134171,151.522339,4,1,2,House,House,False,582,m2,False
2017697286,listing,/184-scenic-drive-budgewoi-nsw-2262-2017697286,1240000,is-sold,Sold by private treaty 23 Apr 2022,20220423,184 Scenic Drive,BUDGEWOI,NSW,2262,-33.2320251,151.546936,5,3,2,House,House,False,620,m2,False
2017699715,listing,/19-alexandra-street-budgewoi-nsw-2262-2017699715,685250,is-sold,Sold by private treaty 04 May 2022,20220504,19 Alexandra Street,BUDGEWOI,NSW,2262,-33.2329,151.555939,3,2,,House,House,False,575,m2,False
2017702911,listing,/150-kallaroo-road-san-remo-nsw-2262-2017702911,750000,is-sold,Sold by private treaty 28 Apr 2022,20220428,150 Kallaroo Road,SAN REMO,NSW,2262,-33.2096,151.518326,3,1,2,House,House,False,581,m2,False
2017703274,listing,/38-kailua-avenue-budgewoi-nsw-2262-2017703274,705000,is-sold,Sold by private treaty 06 May 2022,20220506,38 Kailua Avenue,BUDGEWOI,NSW,2262,-33.23622,151.558319,2,2,1,House,House,False,467,m2,False
2017717202,listing,/84-314-buff-point-avenue-buff-point-nsw-2262-2017717202,310000,is-sold,Sold by private treaty 05 May 2022,20220505,84/314 Buff Point Avenue,BUFF POINT,NSW,2262,-33.2234955,151.5293,2,1,1,ApartmentUnitFlat,Apartment / Unit / Flat,False,0,m2,True
2017719258,listing,/25-wyndora-avenue-san-remo-nsw-2262-2017719258,713000,is-sold,Sold by private treaty 28 Apr 2022,20220428,25 Wyndora Avenue,SAN REMO,NSW,2262,-33.21623,151.518234,3,1,4,House,House,False,531,m2,False
2017729858,listing,/33-buff-point-avenue-buff-point-nsw-2262-2017729858,720000,is-sold,Sold at auction 13 May 2022,20220513,33 Buff Point Avenue,BUFF POINT,NSW,2262,-33.2341537,151.540085,3,2,1,House,House,False,0,m2,False
2017731919,listing,/11-ahina-avenue-halekulani-nsw-2262-2017731919,746000,is-sold,Sold by private treaty 29 Apr 2022,20220429,11 Ahina Avenue,HALEKULANI,NSW,2262,-33.22386,151.545319,4,1,2,House,House,False,556,m2,False
2017732153,listing,/70-iluka-avenue-san-remo-nsw-2262-2017732153,780000,is-sold,Sold by private treaty 10 May 2022,20220510,70 Iluka Avenue,SAN REMO,NSW,2262,-33.2105751,151.521317,3,2,2,House,House,False,620,m2,False
2017732672,listing,/11-bancroft-close-blue-haven-nsw-2262-2017732672,835000,is-sold,Sold by private treaty 01 May 2022,20220501,11 Bancroft Close,BLUE HAVEN,NSW,2262,-33.2064819,151.500443,4,2,2,House,House,False,449,m2,False
2017784628,listing,/17-wongala-avenue-blue-haven-nsw-2262-2017784628,660000,is-sold,Sold by private treaty 11 May 2022,20220511,17 Wongala Avenue,BLUE HAVEN,NSW,2262,-33.2071953,151.502182,3,1,1,House,House,False,0,m2,False
2017804406,listing,/113-scenic-drive-budgewoi-nsw-2262-2017804406,820000,is-sold,Sold by private treaty 13 May 2022,20220513,113 Scenic Drive,BUDGEWOI,NSW,2262,-33.2326355,151.5515,4,2,1,House,House,False,626,m2,False
2017491094,listing,/166-birdwood-drive-blue-haven-nsw-2262-2017491094,575000,is-sold,Sold by private treaty 07 Apr 2022,20220407,166 Birdwood Drive,BLUE HAVEN,NSW,2262,-33.216713,151.4988,3,1,1,House,House,False,600,m2,False
2017505580,listing,/23-kawana-avenue-blue-haven-nsw-2262-2017505580,760000,is-sold,Sold by private treaty 04 Apr 2022,20220404,23 Kawana Avenue,BLUE HAVEN,NSW,2262,-33.21269,151.497208,3,2,2,House,House,False,556,m2,False
2017585541,listing,/21-wyndora-avenue-san-remo-nsw-2262-2017585541,690000,is-sold,Sold by private treaty 13 Apr 2022,20220413,21 Wyndora Avenue,SAN REMO,NSW,2262,-33.2161827,151.518585,4,1,2,House,House,False,531,m2,False
2017606336,listing,/87-barker-avenue-san-remo-nsw-2262-2017606336,830000,is-sold,Sold by private treaty 06 Apr 2022,20220406,87 Barker Avenue,SAN REMO,NSW,2262,-33.21281,151.527679,5,2,1,House,House,False,462,m2,False
2017606379,listing,/195-scenic-drive-budgewoi-nsw-2262-2017606379,840000,is-sold,Sold by private treaty 04 Apr 2022,20220404,195 Scenic Drive,BUDGEWOI,NSW,2262,-33.2302475,151.544647,5,2,4,House,House,False,626,m2,False
2017622301,listing,/27-kawana-avenue-blue-haven-nsw-2262-2017622301,615000,is-sold,Sold by private treaty 08 Apr 2022,20220408,27 Kawana Avenue,BLUE HAVEN,NSW,2262,-33.2124176,151.497253,2,2,,House,House,False,556,m2,False
2017628048,listing,/20-kowandi-close-buff-point-nsw-2262-2017628048,1200000,is-sold,Sold by private treaty 01 Apr 2022,20220401,20 Kowandi Close,BUFF POINT,NSW,2262,-33.2262573,151.530045,5,3,3,House,House,False,508,m2,False
2017638445,listing,/107-186-sunrise-avenue-halekulani-nsw-2262-2017638445,277000,is-sold,Sold by private treaty 01 Apr 2022,20220401,107/186 Sunrise Avenue,HALEKULANI,NSW,2262,-33.2167473,151.5557,2,1,1,ApartmentUnitFlat,Apartment / Unit / Flat,False,0,m2,True
2017638785,listing,/16-regent-street-buff-point-nsw-2262-2017638785,707500,is-sold,Sold by private treaty 04 Apr 2022,20220404,16 Regent Street,BUFF POINT,NSW,2262,-33.23099,151.533524,3,1,1,House,House,False,686,m2,False
2017657070,listing,/4-talia-court-blue-haven-nsw-2262-2017657070,640000,is-sold,Sold by private treaty 08 Apr 2022,20220408,4 Talia Court,BLUE HAVEN,NSW,2262,-33.2059364,151.502686,3,1,1,House,House,False,0,m2,False
2017657983,listing,/25-nelmes-road-blue-haven-nsw-2262-2017657983,820000,is-sold,Sold by private treaty 14 Apr 2022,20220414,25 Nelmes Road,BLUE HAVEN,NSW,2262,-33.21408,151.510254,4,1,1,House,House,False,0,m2,False
2017658244,listing,/8-elua-avenue-budgewoi-nsw-2262-2017658244,835000,is-sold,Sold by private treaty 19 Apr 2022,20220419,8 Elua Avenue,BUDGEWOI,NSW,2262,-33.23163,151.553772,3,2,1,House,House,False,493,m2,False
2017667815,listing,/50-belyando-crescent-blue-haven-nsw-2262-2017667815,980000,is-sold,Sold by private treaty 07 Apr 2022,20220407,50 Belyando Crescent,BLUE HAVEN,NSW,2262,-33.21106,151.512741,4,2,2,House,House,False,526,m2,False
2017669230,listing,/25-ocean-street-budgewoi-nsw-2262-2017669230,1160000,is-sold,Sold at auction 06 Apr 2022,20220406,25 Ocean Street,BUDGEWOI,NSW,2262,-33.2377472,151.5656,3,2,3,House,House,False,695,m2,False
2017672037,listing,/17-5-dunlop-road-blue-haven-nsw-2262-2017672037,440000,is-sold,Sold by private treaty 12 Apr 2022,20220412,17/5 Dunlop Road,BLUE HAVEN,NSW,2262,-33.21332,151.507523,2,2,1,ApartmentUnitFlat,Apartment / Unit / Flat,False,0,m2,False
2017681172,listing,/44-menindee-avenue-blue-haven-nsw-2262-2017681172,950000,is-sold,Sold by private treaty 06 Apr 2022,20220406,44 Menindee Avenue,BLUE HAVEN,NSW,2262,-33.2097473,151.513367,4,2,2,House,House,False,560,m2,False
2017715264,listing,/28-scribbly-gum-close-san-remo-nsw-2262-2017715264,715000,is-sold,Sold by private treaty 19 Apr 2022,20220419,28 Scribbly Gum Close,SAN REMO,NSW,2262,-33.21539,151.5134,3,1,2,House,House,False,583,m2,False
2017717712,listing,/84-pinehurst-way-blue-haven-nsw-2262-2017717712,870000,is-sold,Sold by private treaty 11 Apr 2022,20220411,84 Pinehurst Way,BLUE HAVEN,NSW,2262,-33.2120056,151.498352,4,1,2,House,House,False,658,m2,False
2017726024,listing,/56-rosella-circuit-blue-haven-nsw-2262-2017726024,955000,is-sold,Sold by private treaty 15 Apr 2022,20220415,56 Rosella Circuit,BLUE HAVEN,NSW,2262,-33.2074966,151.497314,4,2,2,House,House,False,931,m2,False
2017745457,listing,/38-moran-road-buff-point-nsw-2262-2017745457,870000,is-sold,Sold by private treaty 19 Apr 2022,20220419,38 Moran Road,BUFF POINT,NSW,2262,-33.2300262,151.536362,3,2,2,House,House,False,553,m2,False
2017530138,listing,/19-186-sunrise-avenue-halekulani-nsw-2262-2017530138,,is-sold,Sold by private treaty 29 Mar 2022,20220329,19/186 Sunrise Avenue,HALEKULANI,NSW,2262,-33.2167473,151.5557,2,1,1,House,House,False,0,m2,True
2017531280,listing,/9-iluka-avenue-san-remo-nsw-2262-2017531280,,is-sold,Sold by private treaty 21 Mar 2022,20220321,9 Iluka Avenue,SAN REMO,NSW,2262,-33.21695,151.520645,3,1,3,House,House,False,691,m2,False
2017555124,listing,/160-186-sunrise-avenue-halekulani-nsw-2262-2017555124,285000,is-sold,Sold by private treaty 22 Mar 2022,20220322,160/186 Sunrise Avenue,HALEKULANI,NSW,2262,-33.2167473,151.5557,2,1,1,ApartmentUnitFlat,Apartment / Unit / Flat,False,0,m2,True
2017569998,listing,/5-iluka-avenue-san-remo-nsw-2262-2017569998,693000,is-sold,Sold by private treaty 25 Mar 2022,20220325,5 Iluka Avenue,SAN REMO,NSW,2262,-33.2172241,151.520508,3,2,2,House,House,False,575,m2,False
2017580615,listing,/30-iluka-avenue-san-remo-nsw-2262-2017580615,721000,is-sold,Sold by private treaty 25 Mar 2022,20220325,30 Iluka Avenue,SAN REMO,NSW,2262,-33.2133026,151.520737,3,1,1,House,House,False,885,m2,False
2017598325,listing,/53-coonanga-avenue-budgewoi-nsw-2262-2017598325,640000,is-sold,Sold by private treaty 23 Mar 2022,20220323,53 Coonanga Avenue,BUDGEWOI,NSW,2262,-33.22801,151.5478,3,1,3,House,House,False,556,m2,False
2017602255,listing,/18-nerida-avenue-san-remo-nsw-2262-2017602255,640000,is-sold,Sold by private treaty 25 Mar 2022,20220325,18 Nerida Avenue,SAN REMO,NSW,2262,-33.21742,151.518646,2,1,2,House,House,False,531,m2,False
2017617222,listing,/19-ulana-avenue-halekulani-nsw-2262-2017617222,990000,is-sold,Sold by private treaty 19 Mar 2022,20220319,19 Ulana Avenue,HALEKULANI,NSW,2262,-33.2233353,151.548935,5,3,2,House,House,False,721,m2,False
2017619702,listing,/19-5-dunlop-road-blue-haven-nsw-2262-2017619702,465000,is-sold,Sold by private treaty 25 Mar 2022,20220325,19/5 Dunlop Road,BLUE HAVEN,NSW,2262,-33.21332,151.507523,2,2,1,House,House,False,0,m2,False
2017620630,listing,/52-ourringo-street-budgewoi-nsw-2262-2017620630,750000,is-sold,Sold at auction 18 Mar 2022,20220318,52 Ourringo Street,BUDGEWOI,NSW,2262,-33.2397156,151.566055,1,1,1,House,House,False,582,m2,False
2017625304,listing,/113-highview-avenue-san-remo-nsw-2262-2017625304,800000,is-sold,Sold prior to auction 18 Mar 2022,20220318,113 Highview Avenue,SAN REMO,NSW,2262,-33.2184639,151.5269,4,2,2,House,House,False,0,m2,False
2017633566,listing,/30-delia-avenue-budgewoi-nsw-2262-2017633566,650000,is-sold,Sold by private treaty 24 Mar 2022,20220324,30 Delia Avenue,BUDGEWOI,NSW,2262,-33.2296638,151.551224,2,1,1,House,House,False,556,m2,False
2017638663,listing,/6-manoa-road-budgewoi-nsw-2262-2017638663,799000,is-sold,Sold by private treaty 24 Mar 2022,20220324,6 Manoa Road,BUDGEWOI,NSW,2262,-33.2298927,151.552353,3,1,6,House,House,False,556,m2,False
2017645671,listing,/109-emu-drive-san-remo-nsw-2262-2017645671,538000,is-sold,Sold by private treaty 18 Mar 2022,20220318,109 Emu Drive,SAN REMO,NSW,2262,-33.21181,151.517441,2,1,1,House,House,False,695,m2,False
2017651143,listing,/137-blueridge-drive-blue-haven-nsw-2262-2017651143,900000,is-sold,Sold by private treaty 31 Mar 2022,20220331,137 Blueridge Drive,BLUE HAVEN,NSW,2262,-33.208168,151.516129,4,2,2,House,House,False,652,m2,False
2017660382,listing,/18-kawana-avenue-blue-haven-nsw-2262-2017660382,700000,is-sold,Sold by private treaty 18 Mar 2022,20220318,18 Kawana Avenue,BLUE HAVEN,NSW,2262,-33.2124138,151.49675,4,1,1,House,House,False,0,m2,False
2017671382,listing,/63-mckellar-boulevard-blue-haven-nsw-2262-2017671382,668000,is-sold,Sold by private treaty 26 Mar 2022,20220326,63 McKellar Boulevard,BLUE HAVEN,NSW,2262,-33.20857,151.496521,3,1,1,House,House,False,556,m2,False
2017684720,listing,/8-bangalay-close-blue-haven-nsw-2262-2017684720,840000,is-sold,Sold by private treaty 29 Mar 2022,20220329,8 Bangalay Close,BLUE HAVEN,NSW,2262,-33.2074432,151.512009,4,2,2,House,House,False,500,m2,False
2017700129,listing,/22-catalina-road-san-remo-nsw-2262-2017700129,555000,is-sold,Sold prior to auction 28 Mar 2022,20220328,22 Catalina Road,SAN REMO,NSW,2262,-33.2162132,151.523209,1,1,1,House,House,False,0,m2,False
2017706787,listing,/blue-haven-nsw-2262-2017706787,980000,is-sold,Sold by private treaty 24 Mar 2022,20220324,,BLUE HAVEN,NSW,2262,-33.20785,151.503372,4,2,3,House,House,False,0,m2,False
2017227046,listing,/buff-point-nsw-2262-2017227046,,is-sold,Sold by private treaty 25 Feb 2022,20220225,,BUFF POINT,NSW,2262,-33.2297821,151.531464,2,1,1,House,House,False,0,m2,False
2017502615,listing,/11-scribbly-gum-close-san-remo-nsw-2262-2017502615,710000,is-sold,Sold by private treaty 03 Mar 2022,20220303,11 Scribbly Gum Close,SAN REMO,NSW,2262,-33.21515,151.512115,3,1,1,House,House,False,614,m2,False
2017511045,listing,/127-delia-avenue-halekulani-nsw-2262-2017511045,735000,is-sold,Sold by private treaty 26 Feb 2022,20220226,127 Delia Avenue,HALEKULANI,NSW,2262,-33.22275,151.550812,4,1,4,House,House,False,556,m2,False
2017575167,listing,/37-wailele-avenue-halekulani-nsw-2262-2017575167,750000,is-sold,Sold prior to auction 08 Mar 2022,20220308,37 Wailele Avenue,HALEKULANI,NSW,2262,-33.2174873,151.553314,4,2,1,House,House,False,588,m2,False
2017579762,listing,/93-birdwood-drive-blue-haven-nsw-2262-2017579762,970000,is-sold,Sold by private treaty 25 Feb 2022,20220225,93 Birdwood Drive,BLUE HAVEN,NSW,2262,-33.21496,151.4916,3,1,2,House,House,False,891,m2,False
2017580612,listing,/38-woolana-avenue-budgewoi-nsw-2262-2017580612,707000,is-sold,Sold by private treaty 15 Mar 2022,20220315,38 Woolana Avenue,BUDGEWOI,NSW,2262,-33.22926,151.548935,3,1,1,House,House,False,556,m2,False
2017582411,listing,/3-elouera-avenue-buff-point-nsw-2262-2017582411,1100000,is-sold,Sold by private treaty 08 Mar 2022,20220308,3 Elouera Avenue,BUFF POINT,NSW,2262,-33.229126,151.540131,5,3,5,House,House,False,961,m2,False
2017585630,listing,/34-emu-drive-san-remo-nsw-2262-2017585630,750000,is-sold,Sold by private treaty 02 Mar 2022,20220302,34 Emu Drive,SAN REMO,NSW,2262,-33.2180061,151.5155,3,2,1,House,House,False,606,m2,False
2017589153,listing,/3-timbara-crescent-blue-haven-nsw-2262-2017589153,800000,is-sold,Sold by private treaty 04 Mar 2022,20220304,3 Timbara Crescent,BLUE HAVEN,NSW,2262,-33.2117081,151.505417,4,2,2,House,House,False,552,m2,False
2017595436,listing,/94-woolana-avenue-halekulani-nsw-2262-2017595436,720000,is-sold,Sold by private treaty 07 Mar 2022,20220307,94 Woolana Avenue,HALEKULANI,NSW,2262,-33.2254562,151.548065,3,2,4,House,House,False,556,m2,False
2017596214,listing,/22-daintree-crescent-blue-haven-nsw-2262-2017596214,1051000,is-sold,Sold by private treaty 08 Mar 2022,20220308,22 Daintree Crescent,BLUE HAVEN,NSW,2262,-33.20943,151.5097,4,2,3,House,House,False,721,m2,False
2017597463,listing,/48-buff-point-avenue-buff-point-nsw-2262-2017597463,1237000,is-sold,Sold by private treaty 28 Feb 2022,20220228,48 Buff Point Avenue,BUFF POINT,NSW,2262,-33.2348,151.540085,3,1,1,House,House,False,866,m2,False
2017601451,listing,/37-roper-road-blue-haven-nsw-2262-2017601451,735000,is-sold,Sold by private treaty 16 Mar 2022,20220316,37 Roper Road,BLUE HAVEN,NSW,2262,-33.2072372,151.5004,3,1,1,House,House,False,374,m2,False
2017602476,listing,/20-kailua-avenue-budgewoi-nsw-2262-2017602476,1700000,is-sold,Sold at auction 13 Mar 2022,20220313,20 Kailua Avenue,BUDGEWOI,NSW,2262,-33.23669,151.559708,5,3,1,House,House,False,626,m2,False
2017607460,listing,/41-birdwood-drive-blue-haven-nsw-2262-2017607460,790000,is-sold,Sold by private treaty 14 Mar 2022,20220314,41 Birdwood Drive,BLUE HAVEN,NSW,2262,-33.21453,151.496017,4,2,3,House,House,False,645,m2,False
2017616564,listing,/181-buff-point-avenue-buff-point-nsw-2262-2017616564,885000,is-sold,Sold by private treaty 17 Mar 2022,20220317,181 Buff Point Avenue,BUFF POINT,NSW,2262,-33.23274,151.531143,3,2,2,House,House,False,1378,m2,False
2017620598,listing,/46-rosella-circuit-blue-haven-nsw-2262-2017620598,805000,is-sold,Sold by private treaty 04 Mar 2022,20220304,46 Rosella Circuit,BLUE HAVEN,NSW,2262,-33.2083168,151.49704,3,2,1,House,House,False,612,m2,False
2017630302,listing,/22-st-lawrence-avenue-blue-haven-nsw-2262-2017630302,859000,is-sold,Sold by private treaty 15 Mar 2022,20220315,22 St Lawrence Avenue,BLUE HAVEN,NSW,2262,-33.2096939,151.507446,4,2,2,House,House,False,602,m2,False
2017633402,listing,/5-belyando-crescent-blue-haven-nsw-2262-2017633402,840000,is-sold,Sold by private treaty 07 Mar 2022,20220307,5 Belyando Crescent,BLUE HAVEN,NSW,2262,-33.2114258,151.508652,3,2,2,House,House,False,597,m2,False
2017663856,listing,/23-alexandra-street-budgewoi-nsw-2262-2017663856,1063500,is-sold,Sold by private treaty 17 Mar 2022,20220317,23 Alexandra Street,BUDGEWOI,NSW,2262,-33.2331619,151.5558,4,2,2,House,House,False,555,m2,False
2016509218,listing,/24-katoomba-avenue-san-remo-nsw-2262-2016509218,481050,is-sold,Sold by private treaty 22 Feb 2022,20220222,24 Katoomba Avenue,SAN REMO,NSW,2262,-33.2138138,151.519562,3,1,4,House,House,False,575,m2,False
2017054677,listing,/88-186-sunrise-avenue-halekulani-nsw-2262-2017054677,,is-sold,Sold by private treaty 23 Feb 2022,20220223,88/186 Sunrise Avenue,HALEKULANI,NSW,2262,-33.2167473,151.5557,2,1,1,House,House,False,0,m2,True
2017224502,listing,/1-5-dunlop-road-blue-haven-nsw-2262-2017224502,350000,is-sold,Sold by private treaty 17 Feb 2022,20220217,1/5 Dunlop Road,BLUE HAVEN,NSW,2262,-33.21332,151.507523,1,1,1,ApartmentUnitFlat,Apartment / Unit / Flat,False,0,m2,False
2017287867,listing,/69-elouera-avenue-buff-point-nsw-2262-2017287867,780000,is-sold,Sold by private treaty 18 Feb 2022,20220218,69 Elouera Avenue,BUFF POINT,NSW,2262,-33.2283,151.5342,3,2,2,House,House,False,930,m2,False
2017390653,listing,/188-buff-point-avenue-buff-point-nsw-2262-2017390653,1700000,is-sold,Sold by private treaty 18 Feb 2022,20220218,188 Buff Point Avenue,BUFF POINT,NSW,2262,-33.23555,151.532043,4,2,4,House,House,False,765,m2,False
2017439677,listing,/130-blueridge-drive-blue-haven-nsw-2262-2017439677,910000,is-sold,Sold by private treaty 09 Feb 2022,20220209,130 Blueridge Drive,BLUE HAVEN,NSW,2262,-33.2071342,151.5155,4,2,2,House,House,False,605,m2,False
2017466227,listing,/45-barega-close-buff-point-nsw-2262-2017466227,675000,is-sold,Sold by private treaty 17 Feb 2022,20220217,45 Barega Close,BUFF POINT,NSW,2262,-33.2223625,151.533234,4,1,1,House,House,False,420,m2,False
2017473742,listing,/16-tandara-close-blue-haven-nsw-2262-2017473742,775000,is-sold,Sold by private treaty 11 Feb 2022,20220211,16 Tandara Close,BLUE HAVEN,NSW,2262,-33.206646,151.502411,4,1,3,House,House,False,556,m2,False
2017482157,listing,/95-highview-avenue-san-remo-nsw-2262-2017482157,780000,is-sold,Sold by private treaty 21 Feb 2022,20220221,95 Highview Avenue,SAN REMO,NSW,2262,-33.21724,151.527176,4,2,2,House,House,False,557,m2,False
2017508385,listing,/38-186-sunrise-avenue-halekulani-nsw-2262-2017508385,,is-sold,Sold by private treaty 17 Feb 2022,20220217,38/186 Sunrise Avenue,HALEKULANI,NSW,2262,-33.2167473,151.5557,2,1,1,House,House,False,0,m2,True
2017509211,listing,/13-belyando-crescent-blue-haven-nsw-2262-2017509211,826500,is-sold,Sold by private treaty 10 Feb 2022,20220210,13 Belyando Crescent,BLUE HAVEN,NSW,2262,-33.2112122,151.509247,4,2,2,House,House,False,544,m2,False
2017531417,listing,/13-landhaven-avenue-blue-haven-nsw-2262-2017531417,810000,is-sold,Sold at auction 10 Feb 2022,20220210,13 Landhaven Avenue,BLUE HAVEN,NSW,2262,-33.2076073,151.514038,4,2,2,House,House,False,548,m2,False
2017545733,listing,/24-mccrea-boulevard-san-remo-nsw-2262-2017545733,670000,is-sold,Sold by private treaty 18 Feb 2022,20220218,24 McCrea Boulevard,SAN REMO,NSW,2262,-33.21622,151.522217,3,1,,House,House,False,556,m2,False
2017559066,listing,/360-scenic-drive-san-remo-nsw-2262-2017559066,665000,is-sold,Sold by private treaty 22 Feb 2022,20220222,360 Scenic Drive,SAN REMO,NSW,2262,-33.2110672,151.528778,3,1,1,House,House,False,0,m2,False
2017560748,listing,/115-barker-avenue-san-remo-nsw-2262-2017560748,615000,is-sold,Sold by private treaty 18 Feb 2022,20220218,115 Barker Avenue,SAN REMO,NSW,2262,-33.2108955,151.528091,2,1,2,House,House,False,462,m2,False
2017564196,listing,/147-blueridge-drive-blue-haven-nsw-2262-2017564196,1120000,is-sold,Sold by private treaty 18 Feb 2022,20220218,147 Blueridge Drive,BLUE HAVEN,NSW,2262,-33.2089462,151.515991,4,2,2,House,House,False,815,m2,False
2017569508,listing,/9-daintree-crescent-blue-haven-nsw-2262-2017569508,761100,is-sold,Sold by private treaty 15 Feb 2022,20220215,9 Daintree Crescent,BLUE HAVEN,NSW,2262,-33.2095375,151.508514,3,1,1,House,House,False,562,m2,False
2017576462,listing,/80-pinehurst-way-blue-haven-nsw-2262-2017576462,875000,is-sold,Sold by private treaty 14 Feb 2022,20220214,80 Pinehurst Way,BLUE HAVEN,NSW,2262,-33.2120132,151.4979,5,2,2,House,House,False,582,m2,False
2017585204,listing,/91-highview-avenue-san-remo-nsw-2262-2017585204,785000,is-sold,Sold by private treaty 14 Feb 2022,20220214,91 Highview Avenue,SAN REMO,NSW,2262,-33.21697,151.527222,4,2,2,House,House,False,557,m2,False
2017601039,listing,/97-99-sunrise-avenue-halekulani-nsw-2262-2017601039,2430000,is-sold,Sold by private treaty 16 Feb 2022,20220216,97-99 Sunrise Avenue,HALEKULANI,NSW,2262,-33.2238159,151.553543,6,4,2,House,House,False,0,m2,False
2016811361,listing,/21-5-dunlop-road-blue-haven-nsw-2262-2016811361,430000,is-sold,Sold by private treaty 31 Jan 2022,20220131,21/5 Dunlop Road,BLUE HAVEN,NSW,2262,-33.21332,151.507523,2,2,1,ApartmentUnitFlat,Apartment / Unit / Flat,False,0,m2,False
2017119261,listing,/82-186-sunrise-avenue-halekulani-nsw-2262-2017119261,,is-sold,Sold by private treaty 07 Feb 2022,20220207,82/186 Sunrise Avenue,HALEKULANI,NSW,2262,-33.2167473,151.5557,1,1,2,House,House,False,0,m2,True
2017360149,listing,/27-2-macleay-drive-halekulani-nsw-2262-2017360149,,is-sold,Sold by private treaty 07 Feb 2022,20220207,27/2 Macleay Drive,HALEKULANI,NSW,2262,-33.209095,151.560684,2,2,1,House,House,False,0,m2,True
2017416911,listing,/3-hyam-close-blue-haven-nsw-2262-2017416911,800000,is-sold,Sold by private treaty 08 Feb 2022,20220208,3 Hyam Close,BLUE HAVEN,NSW,2262,-33.214386,151.508881,4,2,5,House,House,False,530,m2,False
2017419315,listing,/83-colorado-drive-blue-haven-nsw-2262-2017419315,754000,is-sold,Sold by private treaty 24 Jan 2022,20220124,83 Colorado Drive,BLUE HAVEN,NSW,2262,-33.2127457,151.508286,4,2,2,House,House,False,0,m2,False
2017468863,listing,/7-mogo-close-blue-haven-nsw-2262-2017468863,1002000,is-sold,Sold by private treaty 01 Feb 2022,20220201,7 Mogo Close,BLUE HAVEN,NSW,2262,-33.21058,151.513062,4,2,2,House,House,False,525,m2,False
2017469441,listing,/49-barega-close-buff-point-nsw-2262-2017469441,645000,is-sold,Sold by private treaty 01 Feb 2022,20220201,49 Barega Close,BUFF POINT,NSW,2262,-33.2224045,151.533524,3,1,1,House,House,False,315,m2,False
2017469643,listing,/68-emu-drive-san-remo-nsw-2262-2017469643,640000,is-sold,Sold at auction 28 Jan 2022,20220128,68 Emu Drive,SAN REMO,NSW,2262,-33.21571,151.515778,2,1,1,House,House,False,626,m2,False
2017471015,listing,/14-birdwood-drive-blue-haven-nsw-2262-2017471015,745000,is-sold,Sold by private treaty 28 Jan 2022,20220128,14 Birdwood Drive,BLUE HAVEN,NSW,2262,-33.2142334,151.498077,4,1,1,House,House,False,638,m2,False
2017473095,listing,/3-lilo-avenue-halekulani-nsw-2262-2017473095,685000,is-sold,Sold by private treaty 04 Feb 2022,20220204,3 Lilo Avenue,HALEKULANI,NSW,2262,-33.220253,151.551636,3,1,4,House,House,False,556,m2,False
2017480002,listing,/103-blueridge-drive-blue-haven-nsw-2262-2017480002,730000,is-sold,Sold by private treaty 04 Feb 2022,20220204,103 Blueridge Drive,BLUE HAVEN,NSW,2262,-33.2065964,151.513474,4,2,2,House,House,False,591,m2,False
2017480768,listing,/18-hulani-street-budgewoi-nsw-2262-2017480768,760000,is-sold,Sold by private treaty 05 Feb 2022,20220205,18 Hulani Street,BUDGEWOI,NSW,2262,-33.2298737,151.5467,4,2,3,House,House,False,556,m2,False
2017483160,listing,/129-woolana-avenue-halekulani-nsw-2262-2017483160,850000,is-sold,Sold by private treaty 27 Jan 2022,20220127,129 Woolana Avenue,HALEKULANI,NSW,2262,-33.2208,151.549728,3,1,2,House,House,False,556,m2,False
2017488119,listing,/162-scenic-drive-budgewoi-nsw-2262-2017488119,1155000,is-sold,Sold by private treaty 24 Jan 2022,20220124,162 Scenic Drive,BUDGEWOI,NSW,2262,-33.2328949,151.5488,3,2,1,House,House,False,626,m2,False
2017490383,listing,/1-bangalay-close-blue-haven-nsw-2262-2017490383,815000,is-sold,Sold by private treaty 01 Feb 2022,20220201,1 Bangalay Close,BLUE HAVEN,NSW,2262,-33.2068634,151.512665,4,2,2,House,House,False,513,m2,False
2017490642,listing,/54-walu-avenue-halekulani-nsw-2262-2017490642,638000,is-sold,Sold by private treaty 04 Feb 2022,20220204,54 Walu Avenue,HALEKULANI,NSW,2262,-33.2248459,151.5435,2,1,1,House,House,False,556,m2,False
2017500602,listing,/272-buff-point-avenue-buff-point-nsw-2262-2017500602,910000,is-sold,Sold prior to auction 04 Feb 2022,20220204,272 Buff Point Avenue,BUFF POINT,NSW,2262,-33.22941,151.531372,4,2,3,House,House,False,461,m2,False
2017517442,listing,/143-colorado-drive-blue-haven-nsw-2262-2017517442,900000,is-sold,Sold by private treaty 02 Feb 2022,20220202,143 Colorado Drive,BLUE HAVEN,NSW,2262,-33.2122231,151.512589,5,2,2,House,House,False,594,m2,False
2017519891,listing,/91-birdwood-drive-blue-haven-nsw-2262-2017519891,850000,is-sold,Sold by private treaty 28 Jan 2022,20220128,91 Birdwood Drive,BLUE HAVEN,NSW,2262,-33.2148438,151.491776,3,1,1,House,House,False,815,m2,False
2017522293,listing,/18-parton-close-buff-point-nsw-2262-2017522293,870000,is-sold,Sold by private treaty 02 Feb 2022,20220202,18 Parton Close,BUFF POINT,NSW,2262,-33.2272377,151.531982,3,1,2,House,House,False,660,m2,False
2017348826,listing,/22-woolana-avenue-budgewoi-nsw-2262-2017348826,760000,is-sold,Sold by private treaty 19 Jan 2022,20220119,22 Woolana Avenue,BUDGEWOI,NSW,2262,-33.2304077,151.549362,3,2,1,House,House,False,0,m2,False
2017388174,listing,/30-menindee-avenue-blue-haven-nsw-2262-2017388174,885000,is-sold,Sold by private treaty 14 Jan 2022,20220114,30 Menindee Avenue,BLUE HAVEN,NSW,2262,-33.2099342,151.513336,4,2,2,House,House,False,559,m2,False
2017405704,listing,/9-costa-avenue-san-remo-nsw-2262-2017405704,735000,is-sold,Sold by private treaty 09 Jan 2022,20220109,9 Costa Avenue,SAN REMO,NSW,2262,-33.21791,151.509933,2,1,1,House,House,False,0,m2,False
2017417749,listing,/97-314-buff-point-avenue-buff-point-nsw-2262-2017417749,250000,is-sold,Sold by private treaty 13 Jan 2022,20220113,97/314 Buff Point Avenue,BUFF POINT,NSW,2262,-33.2234955,151.5293,2,1,1,House,House,False,0,m2,True
2017424808,listing,/101-colorado-drive-blue-haven-nsw-2262-2017424808,855000,is-sold,Sold by private treaty 14 Jan 2022,20220114,101 Colorado Drive,BLUE HAVEN,NSW,2262,-33.2120438,151.509521,4,3,2,House,House,False,409,m2,False
2017431462,listing,/68-blueridge-drive-blue-haven-nsw-2262-2017431462,719000,is-sold,Sold by private treaty 24 Dec 2021,20211224,68 Blueridge Drive,BLUE HAVEN,NSW,2262,-33.2074242,151.508926,3,1,2,House,House,False,647,m2,False
2017435022,listing,/140-colorado-drive-blue-haven-nsw-2262-2017435022,1005000,is-sold,Sold by private treaty 17 Jan 2022,20220117,140 Colorado Drive,BLUE HAVEN,NSW,2262,-33.21161,151.513565,5,2,2,House,House,False,658,m2,False
2017437680,listing,/1-45-pinehurst-way-blue-haven-nsw-2262-2017437680,566000,is-sold,Sold by private treaty 19 Jan 2022,20220119,1/45 Pinehurst Way,BLUE HAVEN,NSW,2262,-33.2127533,151.498169,3,2,2,House,House,False,0,m2,False
2017448148,listing,/1-timbara-crescent-blue-haven-nsw-2262-2017448148,780000,is-sold,Sold by private treaty 13 Jan 2022,20220113,1 Timbara Crescent,BLUE HAVEN,NSW,2262,-33.21191,151.505417,4,2,2,House,House,False,844,m2,False
2017461454,listing,/10-mckellar-boulevard-blue-haven-nsw-2262-2017461454,565000,is-sold,Sold by private treaty 20 Jan 2022,20220120,10 McKellar Boulevard,BLUE HAVEN,NSW,2262,-33.21387,151.496231,,,,NewLand,New land,False,611,m2,False
2017465644,listing,/7-popran-way-blue-haven-nsw-2262-2017465644,870000,is-sold,Sold by private treaty 13 Jan 2022,20220113,7 Popran Way,BLUE HAVEN,NSW,2262,-33.2077675,151.493469,4,2,2,House,House,False,613,m2,False
2017467114,listing,/83-diamond-head-drive-budgewoi-nsw-2262-2017467114,1085000,is-sold,Sold by private treaty 06 Jan 2022,20220106,83 Diamond Head Drive,BUDGEWOI,NSW,2262,-33.2350578,151.554916,3,2,1,House,House,False,430,m2,False
2017471942,listing,/19-nagle-crescent-blue-haven-nsw-2262-2017471942,732000,is-sold,Sold by private treaty 07 Jan 2022,20220107,19 Nagle Crescent,BLUE HAVEN,NSW,2262,-33.206028,151.5098,3,1,3,House,House,False,543,m2,False
2017472453,listing,/45-sunrise-avenue-budgewoi-nsw-2262-2017472453,1550000,is-sold,Sold by private treaty 11 Jan 2022,20220111,45 Sunrise Avenue,BUDGEWOI,NSW,2262,-33.2276459,151.553085,4,3,2,House,House,False,670,m2,False
2017485730,listing,/18-scenic-circle-budgewoi-nsw-2262-2017485730,840000,is-sold,Sold by private treaty 14 Jan 2022,20220114,18 Scenic Circle,BUDGEWOI,NSW,2262,-33.22825,151.543732,3,1,2,House,House,False,551,m2,False
2017488763,listing,/4-kala-avenue-halekulani-nsw-2262-2017488763,780000,is-sold,Sold by private treaty 13 Jan 2022,20220113,4 Kala Avenue,HALEKULANI,NSW,2262,-33.2260437,151.545212,3,1,2,House,House,False,556,m2,False
2017492385,listing,/3-colorado-drive-blue-haven-nsw-2262-2017492385,840000,is-sold,Sold by private treaty 31 Dec 2021,20211231,3 Colorado Drive,BLUE HAVEN,NSW,2262,-33.208477,151.502945,4,2,2,House,House,False,565,m2,False
2017493172,listing,/10-keera-close-blue-haven-nsw-2262-2017493172,655000,is-sold,Sold by private treaty 14 Jan 2022,20220114,10 Keera Close,BLUE HAVEN,NSW,2262,-33.2056,151.504425,3,1,1,House,House,False,447,m2,False
2017516963,listing,/1-brava-avenue-san-remo-nsw-2262-2017516963,690100,is-sold,Sold by private treaty 24 Jan 2022,20220124,1 Brava Avenue,SAN REMO,NSW,2262,-33.2172737,151.5098,3,1,1,House,House,False,509,m2,False
2017534832,listing,/1-storm-crescent-blue-haven-nsw-2262-2017534832,980000,is-sold,Sold by private treaty 22 Jan 2022,20220122,1 Storm Crescent,BLUE HAVEN,NSW,2262,-33.20782,151.510529,5,3,4,House,House,False,650,m2,False
2017040533,listing,/44-2-macleay-drive-halekulani-nsw-2262-2017040533,,is-sold,Sold by private treaty 20 Dec 2021,20211220,44/2 Macleay Drive,HALEKULANI,NSW,2262,-33.209095,151.560684,2,2,2,House,House,False,0,m2,True
2017388029,listing,/204-scenic-drive-budgewoi-nsw-2262-2017388029,750000,is-sold,Sold by private treaty 23 Dec 2021,20211223,204 Scenic Drive,BUDGEWOI,NSW,2262,-33.2311859,151.545334,4,1,3,House,House,False,0,m2,False
2017391242,listing,/125-colorado-drive-blue-haven-nsw-2262-2017391242,750000,is-sold,Sold by private treaty 23 Dec 2021,20211223,125 Colorado Drive,BLUE HAVEN,NSW,2262,-33.212204,151.510574,3,2,4,SemiDetached,Semi-Detached,False,325,m2,False
2017414377,listing,/2-jeremy-close-budgewoi-nsw-2262-2017414377,720000,is-sold,Sold by private treaty 22 Dec 2021,20211222,2 Jeremy Close,BUDGEWOI,NSW,2262,-33.225338,151.54274,3,2,2,House,House,False,453,m2,False
2017417878,listing,/48-tenth-avenue-budgewoi-nsw-2262-2017417878,835000,is-sold,Sold by private treaty 17 Dec 2021,20211217,48 Tenth Avenue,BUDGEWOI,NSW,2262,-33.2341042,151.556641,3,2,1,House,House,False,556,m2,False
2017420118,listing,/31-wyndora-avenue-san-remo-nsw-2262-2017420118,780000,is-sold,Sold by private treaty 23 Dec 2021,20211223,31 Wyndora Avenue,SAN REMO,NSW,2262,-33.2163162,151.517776,4,1,1,House,House,False,531,m2,False
2017425467,listing,/1-elm-place-blue-haven-nsw-2262-2017425467,695000,is-sold,Sold by private treaty 21 Dec 2021,20211221,1 Elm Place,BLUE HAVEN,NSW,2262,-33.20875,151.50589,3,1,2,House,House,False,511,m2,False
2017435910,listing,/153-colorado-drive-blue-haven-nsw-2262-2017435910,865000,is-sold,Sold by private treaty 17 Dec 2021,20211217,153 Colorado Drive,BLUE HAVEN,NSW,2262,-33.2122231,151.512589,3,2,2,House,House,False,595,m2,False
2017446725,listing,/9-nelmes-road-blue-haven-nsw-2262-2017446725,725000,is-sold,Sold by private treaty 21 Dec 2021,20211221,9 Nelmes Road,BLUE HAVEN,NSW,2262,-33.213295,151.510986,3,2,1,House,House,False,447,m2,False
2017454816,listing,/132-manoa-road-halekulani-nsw-2262-2017454816,,is-sold,Sold by private treaty 17 Dec 2021,20211217,132 Manoa Road,HALEKULANI,NSW,2262,-33.220768,151.5521,3,2,2,House,House,False,556,m2,False
2017455585,listing,/53-delia-avenue-budgewoi-nsw-2262-2017455585,683500,is-sold,Sold by private treaty 17 Dec 2021,20211217,53 Delia Avenue,BUDGEWOI,NSW,2262,-33.2283249,151.551147,3,1,2,House,House,False,556,m2,False
2017465089,listing,/7-newton-place-blue-haven-nsw-2262-2017465089,680000,is-sold,Sold by private treaty 23 Dec 2021,20211223,7 Newton Place,BLUE HAVEN,NSW,2262,-33.20624,151.506836,3,1,1,House,House,False,0,m2,False
2017466277,listing,/12-5-dunlop-avenue-blue-haven-nsw-2262-2017466277,500000,is-sold,Sold by private treaty 17 Dec 2021,20211217,12/5 Dunlop Avenue,BLUE HAVEN,NSW,2262,-33.21332,151.507523,2,2,1,ApartmentUnitFlat,Apartment / Unit / Flat,False,0,m2,False
2017468605,listing,/20-wongala-avenue-blue-haven-nsw-2262-2017468605,680000,is-sold,Sold by private treaty 23 Dec 2021,20211223,20 Wongala Avenue,BLUE HAVEN,NSW,2262,-33.2066,151.500763,3,1,1,House,House,False,0,m2,False
2017469031,listing,/42-white-swan-avenue-blue-haven-nsw-2262-2017469031,671000,is-sold,Sold by private treaty 15 Dec 2021,20211215,42 White Swan Avenue,BLUE HAVEN,NSW,2262,-33.2094231,151.499619,3,1,1,House,House,False,527,m2,False
2017473839,listing,/2-st-lawrence-avenue-blue-haven-nsw-2262-2017473839,700000,is-sold,Sold by private treaty 20 Dec 2021,20211220,2 St Lawrence Avenue,BLUE HAVEN,NSW,2262,-33.2087364,151.506317,3,1,2,House,House,False,0,m2,False
2017475236,listing,/27-highview-avenue-san-remo-nsw-2262-2017475236,825000,is-sold,Sold by private treaty 23 Dec 2021,20211223,27 Highview Avenue,SAN REMO,NSW,2262,-33.2124519,151.528183,4,2,2,House,House,False,557,m2,False
2017481328,listing,/49-iluka-avenue-san-remo-nsw-2262-2017481328,410000,is-sold,Sold by private treaty 23 Dec 2021,20211223,49 Iluka Avenue,SAN REMO,NSW,2262,-33.21406,151.521164,,,,VacantLand,Vacant land,False,575,m2,False
2017491129,listing,/22a-woolana-avenue-budgewoi-nsw-2262-2017491129,740000,is-sold,Sold by private treaty 15 Dec 2021,20211215,22a Woolana Avenue,BUDGEWOI,NSW,2262,-33.2304077,151.549362,3,2,1,House,House,False,0,m2,False
2017558122,listing,/3-barega-close-buff-point-nsw-2262-2017558122,785000,is-sold,Sold by private treaty 18 Dec 2021,20211218,3 Barega Close,BUFF POINT,NSW,2262,-33.2244835,151.535385,3,1,3,House,House,False,557,m2,False
2017300552,listing,/doyalson-north-nsw-2262-2017300552,277000,is-sold,Sold by private treaty 13 Dec 2021,20211213,,DOYALSON NORTH,NSW,2262,-33.1863022,151.548843,2,1,2,Villa,Villa,False,0,m2,True
2017334258,listing,/21-boomerang-street-budgewoi-nsw-2262-2017334258,1850000,is-sold,Sold by private treaty 13 Dec 2021,20211213,21 Boomerang Street,BUDGEWOI,NSW,2262,-33.24008,151.566559,5,3,3,House,House,False,619,m2,False
2017378408,listing,/10-kirrajong-place-san-remo-nsw-2262-2017378408,840000,is-sold,Sold by private treaty 13 Dec 2021,20211213,10 Kirrajong Place,SAN REMO,NSW,2262,-33.2128448,151.5155,4,1,2,House,House,False,0,m2,False
2017390069,listing,/12-narrunga-road-buff-point-nsw-2262-2017390069,760000,is-sold,Sold by private treaty 15 Dec 2021,20211215,12 Narrunga Road,BUFF POINT,NSW,2262,-33.22965,151.541092,3,1,2,House,House,False,860,m2,False
2017391794,listing,/buff-point-nsw-2262-2017391794,285000,is-sold,Sold by private treaty 13 Dec 2021,20211213,,BUFF POINT,NSW,2262,-33.2297821,151.531464,2,1,2,Villa,Villa,False,0,m2,True
2017401793,listing,/11-shearer-crescent-blue-haven-nsw-2262-2017401793,675000,is-sold,Sold by private treaty 08 Dec 2021,20211208,11 Shearer Crescent,BLUE HAVEN,NSW,2262,-33.2077179,151.506546,3,1,1,House,House,False,386,m2,False
2017406547,listing,/108-a-2-macleay-drive-halekulani-nsw-2262-2017406547,,is-sold,Sold by private treaty 15 Dec 2021,20211215,108 A/2 Macleay Drive,HALEKULANI,NSW,2262,-33.209095,151.560684,3,2,1,House,House,False,0,m2,True
2017409333,listing,/137-314-buff-point-avenue-buff-point-nsw-2262-2017409333,280000,is-sold,Sold by private treaty 10 Dec 2021,20211210,137/314 Buff Point Avenue,BUFF POINT,NSW,2262,-33.2234955,151.5293,3,1,1,ApartmentUnitFlat,Apartment / Unit / Flat,False,0,m2,True
2017419532,listing,/38-kalele-avenue-halekulani-nsw-2262-2017419532,750000,is-sold,Sold by private treaty 10 Dec 2021,20211210,38 Kalele Avenue,HALEKULANI,NSW,2262,-33.2173424,151.551773,3,1,3,House,House,False,697,m2,False
2017426482,listing,/40-catalina-road-san-remo-nsw-2262-2017426482,685000,is-sold,Sold by private treaty 10 Dec 2021,20211210,40 Catalina Road,SAN REMO,NSW,2262,-33.2145424,151.523621,2,1,2,House,House,False,556,m2,False
