id,listingType,url,price,tagClassName,tagText,date,street,suburb,state,postcode,lat,lng,beds,baths,parking,propertyType,propertyTypeFormatted,isRural,landSize,landUnit,isRetirement
2017912350,listing,/13-denise-street-lake-heights-nsw-2502-2017912350,730000,is-sold,Sold by private treaty 20 Jan 2023,20230120,13 Denise Street,LAKE HEIGHTS,NSW,2502,-34.4868774,150.871185,3,3,3,House,House,False,556,m2,False
2018034383,listing,/88-hassan-street-lake-heights-nsw-2502-2018034383,1120000,is-sold,Sold by private treaty 16 Feb 2023,20230216,88 Hassan Street,LAKE HEIGHTS,NSW,2502,-34.482357,150.861343,4,4,4,House,House,False,1083,m2,False
2018162899,listing,/13-windang-road-primbee-nsw-2502-2018162899,769000,is-sold,Sold by private treaty 30 Nov 2022,20221130,13 Windang Road,PRIMBEE,NSW,2502,-34.5056267,150.875641,3,3,3,House,House,False,1309,m2,False
2018196703,listing,/250-northcliffe-drive-lake-heights-nsw-2502-2018196703,810000,is-sold,Sold prior to auction 08 Dec 2022,20221208,250 Northcliffe Drive,LAKE HEIGHTS,NSW,2502,-34.4914246,150.873276,3,3,3,House,House,False,556,m2,False
2018200742,listing,/298-northcliffe-drive-lake-heights-nsw-2502-2018200742,980000,is-sold,Sold by private treaty 08 Dec 2022,20221208,298 Northcliffe Drive,LAKE HEIGHTS,NSW,2502,-34.4901962,150.868546,6,6,6,House,House,False,626,m2,False
2018204743,listing,/10-canberra-road-lake-heights-nsw-2502-2018204743,1200000,is-sold,Sold by private treaty 21 Dec 2022,20221221,10 Canberra Road,LAKE HEIGHTS,NSW,2502,-34.48886,150.872452,4,4,4,House,House,False,575,m2,False
2018208534,listing,/27-illowra-crescent-primbee-nsw-2502-2018208534,825000,is-sold,Sold at auction 06 Dec 2022,20221206,27 Illowra Crescent,PRIMBEE,NSW,2502,-34.5004578,150.884857,3,3,3,House,House,False,577,m2,False
2018212225,listing,/32-lakeview-parade-primbee-nsw-2502-2018212225,1451000,is-sold,Sold at auction 17 Dec 2022,20221217,32 Lakeview parade,PRIMBEE,NSW,2502,-34.4984779,150.885941,2,2,2,House,House,False,809,m2,False
2018224869,listing,/32-buena-vista-avenue-lake-heights-nsw-2502-2018224869,750000,is-sold,Sold by private treaty 09 Dec 2022,20221209,32 Buena Vista Avenue,LAKE HEIGHTS,NSW,2502,-34.4867325,150.868,2,2,2,House,House,False,658,m2,False
2018229886,listing,/3-4-werrang-road-primbee-nsw-2502-2018229886,565000,is-sold,Sold by private treaty 25 Jan 2023,20230125,3/4 Werrang Road,PRIMBEE,NSW,2502,-34.50508,150.876724,3,3,3,Villa,Villa,False,0,m2,False
2018251751,listing,/63-whimbrel-avenue-lake-heights-nsw-2502-2018251751,920000,is-sold,Sold by private treaty 17 Dec 2022,20221217,63 Whimbrel Avenue,LAKE HEIGHTS,NSW,2502,-34.4782639,150.866089,4,4,4,House,House,False,692,m2,False
2018280001,listing,/150-northcliffe-drive-warrawong-nsw-2502-2018280001,651750,is-sold,Sold at auction 04 Feb 2023,20230204,150 Northcliffe Drive,WARRAWONG,NSW,2502,-34.48774,150.8844,3,3,3,House,House,False,667,m2,False
2018281960,listing,/54-bent-street-warrawong-nsw-2502-2018281960,593000,is-sold,Sold at auction 08 Feb 2023,20230208,54 Bent Street,WARRAWONG,NSW,2502,-34.48291,150.884262,3,3,3,House,House,False,670,m2,False
2018283424,listing,/30-karrabah-crescent-lake-heights-nsw-2502-2018283424,801000,is-sold,Sold at auction 04 Feb 2023,20230204,30 Karrabah Crescent,LAKE HEIGHTS,NSW,2502,-34.481636,150.8699,4,4,4,House,House,False,542,m2,False
2018287022,listing,/12-noble-parade-lake-heights-nsw-2502-2018287022,750000,is-sold,Sold by private treaty 19 Jan 2023,20230119,12 Noble Parade,LAKE HEIGHTS,NSW,2502,-34.4816551,150.8628,3,3,3,House,House,False,780,m2,False
2018288221,listing,/49b-whimbrel-avenue-lake-heights-nsw-2502-2018288221,860000,is-sold,Sold by private treaty 22 Feb 2023,20230222,49B Whimbrel Avenue,LAKE HEIGHTS,NSW,2502,-34.47862,150.8651,4,4,4,House,House,False,579,m2,False
2018298945,listing,/6-korrongulla-crescent-primbee-nsw-2502-2018298945,1020000,is-sold,Sold by private treaty 21 Feb 2023,20230221,6 Korrongulla Crescent,PRIMBEE,NSW,2502,-34.5017929,150.8863,4,4,4,BlockOfUnits,Block of Units,False,0,m2,False
2018326925,listing,/39-greene-street-warrawong-nsw-2502-2018326925,795000,is-sold,Sold by private treaty 17 Feb 2023,20230217,39 Greene Street,WARRAWONG,NSW,2502,-34.4850731,150.883591,3,3,3,House,House,False,562,m2,False
2018339677,listing,/74-vermont-road-warrawong-nsw-2502-2018339677,720000,is-sold,Sold by private treaty 28 Feb 2023,20230228,74 Vermont Road,WARRAWONG,NSW,2502,-34.4873657,150.879456,3,3,3,House,House,False,702,m2,False
2018354795,listing,/44-jane-ave-warrawong-nsw-2502-2018354795,725000,is-sold,Sold prior to auction 20 Feb 2023,20230220,44 Jane ave,WARRAWONG,NSW,2502,-34.4843254,150.874771,5,5,5,House,House,False,645,m2,False
2017743332,listing,/32-hurry-crescent-warrawong-nsw-2502-2017743332,1050000,is-sold,Sold by private treaty 10 Oct 2022,20221010,32 Hurry Crescent,WARRAWONG,NSW,2502,-34.4846039,150.875992,6,6,6,House,House,False,790,m2,False
2017900104,listing,/5-minnegang-street-warrawong-nsw-2502-2017900104,620000,is-sold,Sold by private treaty 23 Sep 2022,20220923,5 Minnegang Street,WARRAWONG,NSW,2502,-34.48299,150.878632,2,2,2,House,House,False,676,m2,False
2017974922,listing,/1-112-lake-avenue-cringila-nsw-2502-2017974922,1007500,is-sold,Sold by private treaty 21 Oct 2022,20221021,1/112 Lake Avenue,CRINGILA,NSW,2502,-34.473362,150.870865,4,4,4,House,House,False,731,m2,False
2017978601,listing,/7-illowra-crescent-primbee-nsw-2502-2017978601,780000,is-sold,Sold by private treaty 07 Oct 2022,20221007,7 Illowra Crescent,PRIMBEE,NSW,2502,-34.4999275,150.886627,2,2,2,House,House,False,695,m2,False
2017983343,listing,/5-derowie-crescent-lake-heights-nsw-2502-2017983343,717000,is-sold,Sold by private treaty 01 Nov 2022,20221101,5 Derowie Crescent,LAKE HEIGHTS,NSW,2502,-34.4850731,150.868958,5,5,5,House,House,False,569,m2,False
2018040371,listing,/89-denise-street-lake-heights-nsw-2502-2018040371,700000,is-sold,Sold by private treaty 24 Nov 2022,20221124,89 Denise Street,LAKE HEIGHTS,NSW,2502,-34.49073,150.873047,3,3,3,House,House,False,0,m2,False
2018061538,listing,/93-first-avenue-warrawong-nsw-2502-2018061538,482000,is-sold,Sold by private treaty 20 Oct 2022,20221020,93 First Avenue,WARRAWONG,NSW,2502,-34.48428,150.883713,1,1,1,House,House,False,536,m2,False
2018065781,listing,/6-arnold-crescent-lake-heights-nsw-2502-2018065781,660000,is-sold,Sold by private treaty 23 Sep 2022,20220923,6 Arnold Crescent,LAKE HEIGHTS,NSW,2502,-34.4831963,150.8625,2,2,2,House,House,False,0,m2,False
2018068467,listing,/1-anna-avenue-warrawong-nsw-2502-2018068467,765000,is-sold,Sold by private treaty 28 Oct 2022,20221028,1 Anna Avenue,WARRAWONG,NSW,2502,-34.48324,150.874863,5,5,5,House,House,False,624,m2,False
2018089799,listing,/157-northcliffe-drive-lake-heights-nsw-2502-2018089799,1005000,is-sold,Sold by private treaty 26 Oct 2022,20221026,157 Northcliffe Drive,LAKE HEIGHTS,NSW,2502,-34.48619,150.860458,5,5,5,House,House,False,582,m2,False
2018092735,listing,/29-hassan-street-lake-heights-nsw-2502-2018092735,920000,is-sold,Sold by private treaty 03 Nov 2022,20221103,29 Hassan Street,LAKE HEIGHTS,NSW,2502,-34.48606,150.862091,4,4,4,House,House,False,556,m2,False
2018097805,listing,/18-bruce-road-warrawong-nsw-2502-2018097805,693000,is-sold,Sold by private treaty 14 Oct 2022,20221014,18 Bruce Road,WARRAWONG,NSW,2502,-34.4806824,150.881943,3,3,3,House,House,False,519,m2,False
2018108293,listing,/6-lee-warrawong-nsw-2502-2018108293,730000,is-sold,Sold at auction 26 Oct 2022,20221026,6 lee,WARRAWONG,NSW,2502,-34.4860878,150.883224,3,3,3,House,House,False,563,m2,False
2018109273,listing,/50-bent-street-warrawong-nsw-2502-2018109273,750000,is-sold,Sold by private treaty 25 Nov 2022,20221125,50 Bent Street,WARRAWONG,NSW,2502,-34.4826164,150.884354,4,4,4,House,House,False,1094,m2,False
2018124134,listing,/14-minnegang-street-warrawong-nsw-2502-2018124134,725000,is-sold,Sold at auction 16 Nov 2022,20221116,14 Minnegang Street,WARRAWONG,NSW,2502,-34.48278,150.878128,3,3,3,House,House,False,638,m2,False
2018132621,listing,/33-second-avenue-north-warrawong-nsw-2502-2018132621,580000,is-sold,Sold by private treaty 01 Nov 2022,20221101,33 Second Avenue North,WARRAWONG,NSW,2502,-34.4826927,150.882355,4,4,4,House,House,False,632,m2,False
2018163394,listing,/17-lakeview-parade-primbee-nsw-2502-2018163394,780000,is-sold,Sold by private treaty 11 Nov 2022,20221111,17 Lakeview Parade,PRIMBEE,NSW,2502,-34.4989166,150.886536,2,2,2,House,House,False,695,m2,False
2018170704,listing,/9-malcolm-avenue-cringila-nsw-2502-2018170704,563000,is-sold,Sold by private treaty 01 Nov 2022,20221101,9 Malcolm Avenue,CRINGILA,NSW,2502,-34.47772,150.873138,3,3,3,House,House,False,670,m2,False
2018178484,listing,/96-lake-heights-road-lake-heights-nsw-2502-2018178484,755000,is-sold,Sold by private treaty 21 Nov 2022,20221121,96 Lake Heights Road,LAKE HEIGHTS,NSW,2502,-34.486187,150.865356,2,2,2,House,House,False,885,m2,False
2018197178,listing,/12-malcolm-avenue-cringila-nsw-2502-2018197178,480000,is-sold,Sold by private treaty 24 Nov 2022,20221124,12 Malcolm Avenue,CRINGILA,NSW,2502,-34.4783859,150.8725,3,3,3,House,House,False,758,m2,False
2017696725,listing,/4-43-bent-street-warrawong-nsw-2502-2017696725,490000,is-sold,Sold by private treaty 29 Jul 2022,20220729,4/43 Bent Street,WARRAWONG,NSW,2502,-34.48308,150.884766,3,3,3,ApartmentUnitFlat,Apartment / Unit / Flat,False,0,m2,False
2017785617,listing,/8-blaxland-avenue-warrawong-nsw-2502-2017785617,720000,is-sold,Sold by private treaty 05 Aug 2022,20220805,8 Blaxland Avenue,WARRAWONG,NSW,2502,-34.48023,150.882172,3,3,3,House,House,False,556,m2,False
2017820237,listing,/2-buena-vista-avenue-lake-heights-nsw-2502-2017820237,880000,is-sold,Sold by private treaty 28 Jul 2022,20220728,2 Buena Vista Avenue,LAKE HEIGHTS,NSW,2502,-34.4853249,150.866272,4,4,4,House,House,False,830,m2,False
2017824666,listing,/21a-backhouse-road-lake-heights-nsw-2502-2017824666,850000,is-sold,Sold by private treaty 07 Sep 2022,20220907,21a Backhouse Road,LAKE HEIGHTS,NSW,2502,-34.47958,150.866486,3,3,3,Duplex,Duplex,False,282,m2,False
2017853349,listing,/44-mirrabooka-road-lake-heights-nsw-2502-2017853349,825000,is-sold,Sold by private treaty 17 Aug 2022,20220817,44 Mirrabooka Road,LAKE HEIGHTS,NSW,2502,-34.48485,150.870544,4,4,4,House,House,False,556,m2,False
2017857938,listing,/56-first-avenue-north-warrawong-nsw-2502-2017857938,850000,is-sold,Sold by private treaty 25 Aug 2022,20220825,56 First Avenue NORTH,WARRAWONG,NSW,2502,-34.4815636,150.884262,3,3,3,House,House,False,533,m2,False
2017886893,listing,/24-wilma-avenue-warrawong-nsw-2502-2017886893,755000,is-sold,Sold by private treaty 12 Sep 2022,20220912,24 Wilma Avenue,WARRAWONG,NSW,2502,-34.48596,150.877548,3,3,3,House,House,False,778,m2,False
2017903224,listing,/54-54a-lee-street-warrawong-nsw-2502-2017903224,1093000,is-sold,Sold by private treaty 05 Aug 2022,20220805,54 & 54A Lee Street,WARRAWONG,NSW,2502,-34.4889145,150.880157,6,6,6,House,House,False,569,m2,False
2017903297,listing,/3-bent-street-warrawong-nsw-2502-2017903297,650000,is-sold,Sold by private treaty 04 Aug 2022,20220804,3 Bent Street,WARRAWONG,NSW,2502,-34.4810677,150.886169,3,3,3,House,House,False,759,m2,False
2017905798,listing,/47-denise-street-lake-heights-nsw-2502-2017905798,686000,is-sold,Sold by private treaty 29 Aug 2022,20220829,47 Denise Street,LAKE HEIGHTS,NSW,2502,-34.4876938,150.873856,4,4,4,House,House,False,1334,m2,False
2017909607,listing,/27-chisholm-road-warrawong-nsw-2502-2017909607,810000,is-sold,Sold by private treaty 01 Aug 2022,20220801,27 Chisholm Road,WARRAWONG,NSW,2502,-34.48442,150.873322,3,3,3,House,House,False,1057,m2,False
2017910017,listing,/1-derowie-crescent-lake-heights-nsw-2502-2017910017,700000,is-sold,Sold by private treaty 02 Aug 2022,20220802,1 Derowie Crescent,LAKE HEIGHTS,NSW,2502,-34.4851227,150.869461,3,3,3,House,House,False,613,m2,False
2017912877,listing,/6-denise-street-lake-heights-nsw-2502-2017912877,650000,is-sold,Sold by private treaty 25 Aug 2022,20220825,6 Denise Street,LAKE HEIGHTS,NSW,2502,-34.4869423,150.8699,3,3,3,House,House,False,556,m2,False
2017932503,listing,/2-19-backhouse-road-lake-heights-nsw-2502-2017932503,736500,is-sold,Sold by private treaty 09 Sep 2022,20220909,2/19 Backhouse Road,LAKE HEIGHTS,NSW,2502,-34.4796257,150.866531,4,4,4,SemiDetached,Semi-Detached,False,274,m2,False
2017948364,listing,/178-lakeview-parade-primbee-nsw-2502-2017948364,1250000,is-sold,Sold by private treaty 10 Aug 2022,20220810,178 Lakeview Parade,PRIMBEE,NSW,2502,-34.5001678,150.874588,6,6,6,House,House,False,418,m2,False
2017976020,listing,/6-second-ave-north-warrawong-nsw-2502-2017976020,950000,is-sold,Sold by private treaty 14 Sep 2022,20220914,6 Second Ave North,WARRAWONG,NSW,2502,-34.4839478,150.881851,5,5,5,House,House,False,519,m2,False
2017984799,listing,/111-shearwater-drive-lake-heights-nsw-2502-2017984799,1090000,is-sold,Sold at auction 03 Sep 2022,20220903,111 Shearwater Drive,LAKE HEIGHTS,NSW,2502,-34.4772377,150.863815,5,5,5,House,House,False,631,m2,False
2018025787,listing,/17-monteith-street-cringila-nsw-2502-2018025787,620000,is-sold,Sold by private treaty 25 Aug 2022,20220825,17 Monteith Street,CRINGILA,NSW,2502,-34.4740257,150.872955,3,3,3,House,House,False,582,m2,False
2018029017,listing,/30-buena-vista-avenue-lake-heights-nsw-2502-2018029017,887000,is-sold,Sold by private treaty 05 Sep 2022,20220905,30 Buena Vista Avenue,LAKE HEIGHTS,NSW,2502,-34.48666,150.867889,3,3,3,House,House,False,650,m2,False
2018042212,listing,/22-barry-street-cringila-nsw-2502-2018042212,649000,is-sold,Sold by private treaty 06 Sep 2022,20220906,22 Barry Street,CRINGILA,NSW,2502,-34.4675827,150.87027,3,3,3,House,House,False,487,m2,False
2017517109,listing,/130-windang-road-primbee-nsw-2502-2017517109,1700000,is-sold,Sold by private treaty 08 Jun 2022,20220608,130 Windang Road,PRIMBEE,NSW,2502,-34.5153275,150.8724,3,3,3,House,House,False,1777,m2,False
2017663486,listing,/2b-backhouse-road-lake-heights-nsw-2502-2017663486,455000,is-sold,Sold by private treaty 21 Jun 2022,20220621,2b Backhouse Road,LAKE HEIGHTS,NSW,2502,-34.4800072,150.8675,NaN,NaN,NaN,VacantLand,Vacant land,False,0,m2,False
2017680650,listing,/61-ranchby-avenue-lake-heights-nsw-2502-2017680650,1500000,is-sold,Sold by private treaty 15 Jul 2022,20220715,61 Ranchby Avenue,LAKE HEIGHTS,NSW,2502,-34.484417,150.864914,6,6,6,House,House,False,0,m2,False
2017687026,listing,/113-shearwater-drive-lake-heights-nsw-2502-2017687026,1100000,is-sold,Sold by private treaty 23 Jun 2022,20220623,113 Shearwater Drive,LAKE HEIGHTS,NSW,2502,-34.4772835,150.864075,4,4,4,House,House,False,599,m2,False
2017724533,listing,/2-mcgovern-street-cringila-nsw-2502-2017724533,770000,is-sold,Sold by private treaty 22 Jul 2022,20220722,2 McGovern Street,CRINGILA,NSW,2502,-34.47524,150.87381,3,3,3,House,House,False,847,m2,False
2017777831,listing,/348-northcliffe-drive-lake-heights-nsw-2502-2017777831,1030000,is-sold,Sold by private treaty 01 Jul 2022,20220701,348 Northcliffe Drive,LAKE HEIGHTS,NSW,2502,-34.48773,150.86409,4,4,4,House,House,False,1441,m2,False
2017782357,listing,/129-cowper-street-warrawong-nsw-2502-2017782357,615000,is-sold,Sold by private treaty 13 Jul 2022,20220713,129 Cowper Street,WARRAWONG,NSW,2502,-34.479805,150.877014,2,2,2,House,House,False,664,m2,False
2017814518,listing,/52-stuart-road-warrawong-nsw-2502-2017814518,1120000,is-sold,Sold by private treaty 15 Jun 2022,20220615,52 Stuart Road,WARRAWONG,NSW,2502,-34.4895,150.881409,5,5,5,House,House,False,708,m2,False
2017827096,listing,/17-korrongulla-crescent-primbee-nsw-2502-2017827096,935000,is-sold,Sold by private treaty 18 Jul 2022,20220718,17 Korrongulla Crescent,PRIMBEE,NSW,2502,-34.502594,150.885,3,3,3,House,House,False,942,m2,False
2017841394,listing,/54-stuart-road-warrawong-nsw-2502-2017841394,691000,is-sold,Sold by private treaty 23 Jun 2022,20220623,54 Stuart Road,WARRAWONG,NSW,2502,-34.4895172,150.88118,3,3,3,House,House,False,696,m2,False
2017843913,listing,/25-lake-heights-road-lake-heights-nsw-2502-2017843913,845000,is-sold,Sold at auction 27 Jun 2022,20220627,25 Lake Heights Road,LAKE HEIGHTS,NSW,2502,-34.48122,150.868317,5,5,5,House,House,False,777,m2,False
2017844866,listing,/7-23-first-avenue-south-warrawong-nsw-2502-2017844866,400000,is-sold,Sold by private treaty 20 Jun 2022,20220620,7/23 First Avenue South,WARRAWONG,NSW,2502,-34.4871674,150.884949,2,2,2,ApartmentUnitFlat,Apartment / Unit / Flat,False,887,m2,False
2017845263,listing,/70-ranchby-ave-lake-heights-nsw-2502-2017845263,680000,is-sold,Sold at auction 25 Jun 2022,20220625,70 Ranchby Ave,LAKE HEIGHTS,NSW,2502,-34.48478,150.863861,2,2,2,House,House,False,0,m2,False
2017848332,listing,/2-59-vermont-road-warrawong-nsw-2502-2017848332,530000,is-sold,Sold by private treaty 17 Jun 2022,20220617,2/59 Vermont Road,WARRAWONG,NSW,2502,-34.4873657,150.87854,3,3,3,ApartmentUnitFlat,Apartment / Unit / Flat,False,0,m2,False
2017872320,listing,/21-bent-street-warrawong-nsw-2502-2017872320,550000,is-sold,Sold at auction 14 Jul 2022,20220714,21 Bent street,WARRAWONG,NSW,2502,-34.4824524,150.8863,3,3,3,House,House,False,718,m2,False
2017875313,listing,/53-denise-street-lake-heights-nsw-2502-2017875313,850000,is-sold,Sold by private treaty 06 Jul 2022,20220706,53 Denise Street,LAKE HEIGHTS,NSW,2502,-34.4881554,150.873947,5,5,5,House,House,False,936,m2,False
2017881722,listing,/14-lee-street-warrawong-nsw-2502-2017881722,780000,is-sold,Sold by private treaty 22 Jul 2022,20220722,14 Lee Street,WARRAWONG,NSW,2502,-34.4866257,150.882889,4,4,4,House,House,False,639,m2,False
2017922046,listing,/17-6-eyre-place-warrawong-nsw-2502-2017922046,400000,is-sold,Sold by private treaty 27 Jul 2022,20220727,17/6 Eyre Place,WARRAWONG,NSW,2502,-34.48127,150.879868,2,2,2,ApartmentUnitFlat,Apartment / Unit / Flat,False,0,m2,False
2017932803,listing,/50-second-avenue-warrawong-nsw-2502-2017932803,860000,is-sold,Sold by private treaty 06 Jul 2022,20220706,50 Second Avenue,WARRAWONG,NSW,2502,-34.48095,150.883133,3,3,3,House,House,False,563,m2,False
2018018116,listing,/29a-moore-ave-warrawong-nsw-2502-2018018116,975000,is-sold,Sold by private treaty 27 Jul 2022,20220727,29a Moore Ave,WARRAWONG,NSW,2502,-34.4880371,150.880814,5,5,5,House,House,False,797,m2,False
2017339354,listing,/2c-shellharbour-road-primbee-nsw-2502-2017339354,470000,is-sold,Sold by private treaty 12 Apr 2022,20220412,2c Shellharbour Road,PRIMBEE,NSW,2502,-34.5003,150.88681,NaN,NaN,NaN,VacantLand,Vacant land,False,0,m2,False
2017367467,listing,/11-jane-avenue-warrawong-nsw-2502-2017367467,965000,is-sold,Sold by private treaty 03 May 2022,20220503,11 Jane Avenue,WARRAWONG,NSW,2502,-34.48326,150.875854,5,5,5,House,House,False,689,m2,False
2017607734,listing,/40-stuart-road-warrawong-nsw-2502-2017607734,800000,is-sold,Sold by private treaty 27 May 2022,20220527,40 Stuart Road,WARRAWONG,NSW,2502,-34.4889565,150.882217,3,3,3,House,House,False,639,m2,False
2017632387,listing,/21-backhouse-road-lake-heights-nsw-2502-2017632387,850000,is-sold,Sold by private treaty 23 May 2022,20220523,21 Backhouse Road,LAKE HEIGHTS,NSW,2502,-34.47958,150.866486,3,3,3,Duplex,Duplex,False,282,m2,False
2017643418,listing,/31-noble-parade-lake-heights-nsw-2502-2017643418,860000,is-sold,Sold by private treaty 07 Apr 2022,20220407,31 Noble Parade,LAKE HEIGHTS,NSW,2502,-34.48287,150.864136,3,3,3,House,House,False,961,m2,False
2017664001,listing,/91b-whimbrel-avenue-lake-heights-nsw-2502-2017664001,880000,is-sold,Sold by private treaty 07 Apr 2022,20220407,91B Whimbrel Avenue,LAKE HEIGHTS,NSW,2502,-34.4784,150.8688,4,4,4,House,House,False,0,m2,False
2017670848,listing,/133-northcliffe-drive-lake-heights-nsw-2502-2017670848,1700000,is-sold,Sold by private treaty 01 Jun 2022,20220601,133 Northcliffe Drive,LAKE HEIGHTS,NSW,2502,-34.4873772,150.862274,4,4,4,House,House,False,556,m2,False
2017699032,listing,/326-cowper-street-warrawong-nsw-2502-2017699032,715000,is-sold,Sold at auction 28 Apr 2022,20220428,326 Cowper Street,WARRAWONG,NSW,2502,-34.483448,150.880081,2,2,2,House,House,False,0,m2,False
2017712614,listing,/61-denise-street-lake-heights-nsw-2502-2017712614,820000,is-sold,Sold prior to auction 28 Apr 2022,20220428,61 Denise Street,LAKE HEIGHTS,NSW,2502,-34.4887352,150.8739,5,5,5,House,House,False,0,m2,False
2017717281,listing,/40-illowra-crescent-primbee-nsw-2502-2017717281,820000,is-sold,Sold by private treaty 20 May 2022,20220520,40 Illowra Crescent,PRIMBEE,NSW,2502,-34.5002861,150.884308,2,2,2,House,House,False,696,m2,False
2017719035,listing,/127-northcliffe-drive-lake-heights-nsw-2502-2017719035,1135000,is-sold,Sold by private treaty 06 May 2022,20220506,127 Northcliffe Drive,LAKE HEIGHTS,NSW,2502,-34.48756,150.862686,6,6,6,House,House,False,556,m2,False
2017724765,listing,/13-first-avenue-south-warrawong-nsw-2502-2017724765,705000,is-sold,Sold by private treaty 19 Apr 2022,20220419,13 First Avenue South,WARRAWONG,NSW,2502,-34.48638,150.884811,3,3,3,House,House,False,601,m2,False
2017732253,listing,/1-59-vermont-road-warrawong-nsw-2502-2017732253,500000,is-sold,Sold by private treaty 29 Apr 2022,20220429,1/59 Vermont Road,WARRAWONG,NSW,2502,-34.48742,150.878586,3,3,3,ApartmentUnitFlat,Apartment / Unit / Flat,False,0,m2,False
2017734873,listing,/19-19a-lake-heights-road-lake-heights-nsw-2502-2017734873,940000,is-sold,Sold by private treaty 26 May 2022,20220526,19 & 19A Lake Heights Road,LAKE HEIGHTS,NSW,2502,-34.48081,150.868408,4,4,4,House,House,False,0,m2,False
2017759393,listing,/6-kemblawarra-road-warrawong-nsw-2502-2017759393,1600000,is-sold,Sold by private treaty 27 Apr 2022,20220427,6 Kemblawarra Road,WARRAWONG,NSW,2502,-34.4909973,150.8928,8,8,8,BlockOfUnits,Block of Units,False,784,m2,False
2017760502,listing,/288-flagstaff-road-lake-heights-nsw-2502-2017760502,750000,is-sold,Sold by private treaty 27 May 2022,20220527,288 Flagstaff Road,LAKE HEIGHTS,NSW,2502,-34.47983,150.8645,3,3,3,House,House,False,601,m2,False
2017783932,listing,/19-karrabah-crescent-lake-heights-nsw-2502-2017783932,800000,is-sold,Sold by private treaty 13 May 2022,20220513,19 Karrabah Crescent,LAKE HEIGHTS,NSW,2502,-34.4821243,150.87027,3,3,3,House,House,False,556,m2,False
2017812088,listing,/53-lakeview-parade-primbee-nsw-2502-2017812088,1050000,is-sold,Sold prior to auction 08 Jun 2022,20220608,53 Lakeview Parade,PRIMBEE,NSW,2502,-34.49975,150.8835,2,2,2,House,House,False,841,m2,False
2017812602,listing,/262-northcliffe-drive-lake-heights-nsw-2502-2017812602,905000,is-sold,Sold prior to auction 03 Jun 2022,20220603,262 Northcliffe Drive,LAKE HEIGHTS,NSW,2502,-34.4913445,150.87204,4,4,4,House,House,False,588,m2,False
2017932802,listing,/30-hassan-street-lake-heights-nsw-2502-2017932802,1210000,is-sold,Sold at auction 21 May 2022,20220521,30 Hassan Street,LAKE HEIGHTS,NSW,2502,-34.48579,150.86319,3,3,3,House,House,False,708,m2,False
2017255052,listing,/34-newcastle-street-cringila-nsw-2502-2017255052,940000,is-sold,Sold by private treaty 05 Apr 2022,20220405,34 Newcastle Street,CRINGILA,NSW,2502,-34.4695053,150.872635,11,11,11,BlockOfUnits,Block of Units,False,569,m2,False
2017492673,listing,/141b-shearwater-drive-lake-heights-nsw-2502-2017492673,930000,is-sold,Sold by private treaty 04 Mar 2022,20220304,141B Shearwater Drive,LAKE HEIGHTS,NSW,2502,-34.47737,150.866653,4,4,4,House,House,False,0,m2,False
2017517517,listing,/18-backhouse-road-lake-heights-nsw-2502-2017517517,980000,is-sold,Sold by private treaty 10 Feb 2022,20220210,18 Backhouse Road,LAKE HEIGHTS,NSW,2502,-34.479908,150.866058,4,4,4,House,House,False,604,m2,False
2017543761,listing,/12-lakeview-parade-primbee-nsw-2502-2017543761,1350000,is-sold,Sold prior to auction 15 Feb 2022,20220215,12 Lakeview Parade,PRIMBEE,NSW,2502,-34.49832,150.8875,4,4,4,House,House,False,0,m2,False
2017546415,listing,/21-ranchby-avenue-lake-heights-nsw-2502-2017546415,820000,is-sold,Sold by private treaty 22 Feb 2022,20220222,21 Ranchby Avenue,LAKE HEIGHTS,NSW,2502,-34.48199,150.866089,3,3,3,House,House,False,860,m2,False
2017550080,listing,/11-hassan-street-lake-heights-nsw-2502-2017550080,945000,is-sold,Sold prior to auction 11 Feb 2022,20220211,11 Hassan Street,LAKE HEIGHTS,NSW,2502,-34.48617,150.864044,3,3,3,House,House,False,0,m2,False
2017562058,listing,/84-lake-heights-road-lake-heights-nsw-2502-2017562058,720000,is-sold,Sold by private treaty 17 Feb 2022,20220217,84 Lake Heights Road,LAKE HEIGHTS,NSW,2502,-34.48485,150.8666,3,3,3,House,House,False,0,m2,False
2017562612,listing,/90-lakeview-parade-primbee-nsw-2502-2017562612,1300000,is-sold,Sold by private treaty 11 Feb 2022,20220211,90 Lakeview Parade,PRIMBEE,NSW,2502,-34.49897,150.8816,4,4,4,House,House,False,802,m2,False
2017568289,listing,/24-denise-street-lake-heights-nsw-2502-2017568289,805000,is-sold,Sold by private treaty 14 Feb 2022,20220214,24 Denise Street,LAKE HEIGHTS,NSW,2502,-34.4873619,150.871414,5,5,5,House,House,False,556,m2,False
2017571354,listing,/8-overhill-road-primbee-nsw-2502-2017571354,777500,is-sold,Sold by private treaty 24 Mar 2022,20220324,8 Overhill Road,PRIMBEE,NSW,2502,-34.5030022,150.877716,3,3,3,House,House,False,450,m2,False
2017591063,listing,/23-lee-street-warrawong-nsw-2502-2017591063,650000,is-sold,Sold at auction 12 Mar 2022,20220312,23 Lee Street,WARRAWONG,NSW,2502,-34.48731,150.883041,3,3,3,House,House,False,0,m2,False
2017591396,listing,/34-minnegang-street-warrawong-nsw-2502-2017591396,716000,is-sold,Sold at auction 12 Mar 2022,20220312,34 Minnegang Street,WARRAWONG,NSW,2502,-34.4842453,150.8769,2,2,2,House,House,False,0,m2,False
2017593567,listing,/1-164-shearwater-drive-lake-heights-nsw-2502-2017593567,Price Withheld,is-sold,Sold by private treaty 14 Feb 2022,20220214,1/164 Shearwater Drive,LAKE HEIGHTS,NSW,2502,-34.4769936,150.868576,5,5,5,House,House,False,430,m2,False
2017608569,listing,/1-windang-road-primbee-nsw-2502-2017608569,1900000,is-sold,Sold at auction 30 Mar 2022,20220330,1 Windang Road,PRIMBEE,NSW,2502,-34.50487,150.875763,6,6,6,House,House,False,2792,m2,False
2017610392,listing,/40-mirrabooka-road-lake-heights-nsw-2502-2017610392,825000,is-sold,Sold prior to auction 16 Mar 2022,20220316,40 Mirrabooka Road,LAKE HEIGHTS,NSW,2502,-34.484787,150.870956,4,4,4,House,House,False,759,m2,False
2017625391,listing,/33-carlotta-cresent-warrawong-nsw-2502-2017625391,1660000,is-sold,Sold at auction 30 Mar 2022,20220330,33 Carlotta Cresent,WARRAWONG,NSW,2502,-34.4897,150.889816,8,8,8,BlockOfUnits,Block of Units,False,593,m2,False
2017664088,listing,/214-lakeview-parade-primbee-nsw-2502-2017664088,975000,is-sold,Sold by private treaty 25 Mar 2022,20220325,214 Lakeview Parade,PRIMBEE,NSW,2502,-34.5026474,150.87468,3,3,3,House,House,False,836,m2,False
2017675418,listing,/8-kemblawarra-road-warrawong-nsw-2502-2017675418,1000000,is-sold,Sold by private treaty 05 Apr 2022,20220405,8 Kemblawarra Road,WARRAWONG,NSW,2502,-34.49111,150.892487,4,4,4,House,House,False,0,m2,False
2017677429,listing,/54a-primbee-crescent-primbee-nsw-2502-2017677429,855000,is-sold,Sold by private treaty 04 Apr 2022,20220404,54a Primbee Crescent,PRIMBEE,NSW,2502,-34.5012932,150.877914,3,3,3,House,House,False,361,m2,False
2017831578,listing,/8-overhill-road-primbee-nsw-2502-2017831578,777500,is-sold,Sold by private treaty 24 Mar 2022,20220324,8 Overhill Road,PRIMBEE,NSW,2502,-34.5030022,150.877716,3,3,3,House,House,False,450,m2,False
2017392590,listing,/65-denise-street-lake-heights-nsw-2502-2017392590,780000,is-sold,Sold by private treaty 08 Dec 2021,20211208,65 Denise Street,LAKE HEIGHTS,NSW,2502,-34.4889565,150.873672,4,4,4,House,House,False,809,m2,False
2017397088,listing,/5-illowra-crescent-primbee-nsw-2502-2017397088,800000,is-sold,Sold at auction 06 Dec 2021,20211206,5 Illowra Crescent,PRIMBEE,NSW,2502,-34.49992,150.88678,3,3,3,House,House,False,690,m2,False
2017412509,listing,/46-mirrabooka-road-lake-heights-nsw-2502-2017412509,950000,is-sold,Sold by private treaty 24 Jan 2022,20220124,46 Mirrabooka Road,LAKE HEIGHTS,NSW,2502,-34.484993,150.870361,5,5,5,House,House,False,556,m2,False
2017428312,listing,/25-northcliffe-drive-lake-heights-nsw-2502-2017428312,1238000,is-sold,Sold at auction 11 Dec 2021,20211211,25 Northcliffe Drive,LAKE HEIGHTS,NSW,2502,-34.49146,150.870361,4,4,4,House,House,False,696,m2,False
2017431607,listing,/49-barina-avenue-lake-heights-nsw-2502-2017431607,600000,is-sold,Sold by private treaty 01 Dec 2021,20211201,49 Barina Avenue,LAKE HEIGHTS,NSW,2502,-34.4861221,150.869232,2,2,2,House,House,False,556,m2,False
2017453409,listing,/6-canberra-road-lake-heights-nsw-2502-2017453409,810000,is-sold,Sold by private treaty 10 Dec 2021,20211210,6 Canberra Road,LAKE HEIGHTS,NSW,2502,-34.48885,150.872818,3,3,3,House,House,False,702,m2,False
2017457951,listing,/90-hassan-street-lake-heights-nsw-2502-2017457951,950000,is-sold,Sold by private treaty 04 Feb 2022,20220204,90 Hassan Street,LAKE HEIGHTS,NSW,2502,-34.4821854,150.861374,4,4,4,House,House,False,817,m2,False
2017458436,listing,/52-primbee-crescent-primbee-nsw-2502-2017458436,957000,is-sold,Sold at auction 13 Dec 2021,20211213,52 Primbee Crescent,PRIMBEE,NSW,2502,-34.50119,150.877762,3,3,3,House,House,False,765,m2,False
2017467397,listing,/2-4-werrang-road-primbee-nsw-2502-2017467397,600000,is-sold,Sold by private treaty 21 Dec 2021,20211221,2/4 Werrang Road,PRIMBEE,NSW,2502,-34.50508,150.876724,3,3,3,Villa,Villa,False,0,m2,False
2017467956,listing,/91-denise-street-lake-heights-nsw-2502-2017467956,730000,is-sold,Sold by private treaty 08 Dec 2021,20211208,91 Denise Street,LAKE HEIGHTS,NSW,2502,-34.49094,150.8731,3,3,3,House,House,False,0,m2,False
2017470124,listing,/8-gregory-street-cringila-nsw-2502-2017470124,555000,is-sold,Sold by private treaty 04 Feb 2022,20220204,8 Gregory Street,CRINGILA,NSW,2502,-34.47617,150.873276,3,3,3,House,House,False,558,m2,False
2017477864,listing,/103-weringa-avenue-lake-heights-nsw-2502-2017477864,710000,is-sold,Sold by private treaty 21 Jan 2022,20220121,103 Weringa Avenue,LAKE HEIGHTS,NSW,2502,-34.4862823,150.870453,3,3,3,House,House,False,560,m2,False
2017477964,listing,/7-monteith-street-cringila-nsw-2502-2017477964,618000,is-sold,Sold by private treaty 21 Jan 2022,20220121,7 Monteith Street,CRINGILA,NSW,2502,-34.4741631,150.8736,3,3,3,House,House,False,712,m2,False
2017486593,listing,/5-bent-street-warrawong-nsw-2502-2017486593,888000,is-sold,Sold by private treaty 24 Dec 2021,20211224,5 Bent Street,WARRAWONG,NSW,2502,-34.48135,150.88623,4,4,4,House,House,False,880,m2,False
2017495455,listing,/51-third-avenue-north-warrawong-nsw-2502-2017495455,755000,is-sold,Sold by private treaty 13 Jan 2022,20220113,51 Third Avenue North,WARRAWONG,NSW,2502,-34.4840279,150.88063,2,2,2,House,House,False,670,m2,False
2017506933,listing,/2-15-hingston-close-lake-heights-nsw-2502-2017506933,668000,is-sold,Sold by private treaty 24 Jan 2022,20220124,2/15 Hingston Close,LAKE HEIGHTS,NSW,2502,-34.4816628,150.865067,3,3,3,Townhouse,Townhouse,False,0,m2,False
2017514309,listing,/1-ranchby-avenue-lake-heights-nsw-2502-2017514309,890000,is-sold,Sold at auction 31 Jan 2022,20220131,1 Ranchby Avenue,LAKE HEIGHTS,NSW,2502,-34.48092,150.867462,2,2,2,House,House,False,964,m2,False
2017528743,listing,/13-gloria-crescent-lake-heights-nsw-2502-2017528743,817000,is-sold,Sold prior to auction 07 Feb 2022,20220207,13 Gloria Crescent,LAKE HEIGHTS,NSW,2502,-34.4878769,150.867722,2,2,2,House,House,False,790,m2,False
2017535004,listing,/2-127-shearwater-drive-lake-heights-nsw-2502-2017535004,900000,is-sold,Sold by private treaty 04 Feb 2022,20220204,2/127 Shearwater Drive,LAKE HEIGHTS,NSW,2502,-34.4771156,150.865219,3,3,3,House,House,False,474,m2,False
2017563276,listing,/12-first-ave-north-avenue-warrawong-nsw-2502-2017563276,965000,is-sold,Sold by private treaty 31 Jan 2022,20220131,12 First Ave North Avenue,WARRAWONG,NSW,2502,-34.47989,150.885864,5,5,5,House,House,False,683,m2,False
2017139078,listing,/16-birmingham-street-cringila-nsw-2502-2017139078,700000,is-sold,Sold by private treaty 24 Nov 2021,20211124,16 Birmingham Street,CRINGILA,NSW,2502,-34.46771,150.874268,5,5,5,House,House,False,499,m2,False
2017278339,listing,/51-hassan-street-lake-heights-nsw-2502-2017278339,933000,is-sold,Sold at auction 16 Oct 2021,20211016,51 Hassan Street,LAKE HEIGHTS,NSW,2502,-34.48478,150.860825,4,4,4,House,House,False,670,m2,False
2017289367,listing,/14-canberra-road-lake-heights-nsw-2502-2017289367,790000,is-sold,Sold at auction 28 Oct 2021,20211028,14 Canberra Road,LAKE HEIGHTS,NSW,2502,-34.4888458,150.872086,3,3,3,House,House,False,689,m2,False
2017289768,listing,/21-fairfax-road-warrawong-nsw-2502-2017289768,855500,is-sold,Sold at auction 18 Oct 2021,20211018,21 Fairfax Road,WARRAWONG,NSW,2502,-34.4872742,150.881989,5,5,5,House,House,False,594,m2,False
2017299324,listing,/23-greene-street-warrawong-nsw-2502-2017299324,1010000,is-sold,Sold at auction 30 Oct 2021,20211030,23 Greene Street,WARRAWONG,NSW,2502,-34.4848022,150.885574,2,2,2,House,House,False,0,m2,False
2017312463,listing,/123-shearwater-drive-lake-heights-nsw-2502-2017312463,1320000,is-sold,Sold by private treaty 29 Oct 2021,20211029,123 Shearwater Drive,LAKE HEIGHTS,NSW,2502,-34.47753,150.864914,4,4,4,House,House,False,723,m2,False
2017337678,listing,/67-mirrabooka-road-lake-heights-nsw-2502-2017337678,700000,is-sold,Sold prior to auction 10 Nov 2021,20211110,67 Mirrabooka Road,LAKE HEIGHTS,NSW,2502,-34.48537,150.870453,3,3,3,House,House,False,556,m2,False
2017343554,listing,/7-jackson-avenue-warrawong-nsw-2502-2017343554,910000,is-sold,Sold at auction 24 Nov 2021,20211124,7 Jackson avenue,WARRAWONG,NSW,2502,-34.4878464,150.877045,5,5,5,House,House,False,613,m2,False
2017349050,listing,/1-2-2-blaxland-avenue-warrawong-nsw-2502-2017349050,550000,is-sold,Sold by private treaty 16 Nov 2021,20211116,1&2/2 Blaxland Avenue,WARRAWONG,NSW,2502,-34.4798164,150.8818,3,3,3,ApartmentUnitFlat,Apartment / Unit / Flat,False,0,m2,False
2017361472,listing,/60-grand-view-parade-lake-heights-nsw-2502-2017361472,874000,is-sold,Sold by private treaty 29 Nov 2021,20211129,60 Grand View Parade,LAKE HEIGHTS,NSW,2502,-34.48675,150.864136,3,3,3,House,House,False,689,m2,False
2017369265,listing,/6-barry-street-cringila-nsw-2502-2017369265,750000,is-sold,Sold by private treaty 02 Nov 2021,20211102,6 Barry Street,CRINGILA,NSW,2502,-34.46672,150.870392,4,4,4,House,House,False,0,m2,False
2017372500,listing,/3-denise-street-lake-heights-nsw-2502-2017372500,790000,is-sold,Sold by private treaty 21 Nov 2021,20211121,3 Denise Street,LAKE HEIGHTS,NSW,2502,-34.48669,150.870361,3,3,3,House,House,False,582,m2,False
2017372844,listing,/192-northcliffe-drive-warrawong-nsw-2502-2017372844,801000,is-sold,Sold at auction 18 Nov 2021,20211118,192 Northcliffe Drive,WARRAWONG,NSW,2502,-34.4902878,150.881851,3,3,3,House,House,False,613,m2,False
2017389601,listing,/39-minnegang-street-warrawong-nsw-2502-2017389601,740000,is-sold,Sold by private treaty 23 Nov 2021,20211123,39 Minnegang Street,WARRAWONG,NSW,2502,-34.48577,150.876221,5,5,5,House,House,False,556,m2,False
2017398185,listing,/98-flagstaff-road-warrawong-nsw-2502-2017398185,785000,is-sold,Sold by private treaty 24 Nov 2021,20211124,98 Flagstaff Road,WARRAWONG,NSW,2502,-34.4793968,150.879715,4,4,4,House,House,False,0,m2,False
2017399015,listing,/20-bruce-road-warrawong-nsw-2502-2017399015,762000,is-sold,Sold by private treaty 19 Nov 2021,20211119,20 Bruce Road,WARRAWONG,NSW,2502,-34.4807739,150.881989,3,3,3,House,House,False,519,m2,False
2017399983,listing,/94-flagstaff-road-warrawong-nsw-2502-2017399983,795000,is-sold,Sold by private treaty 23 Nov 2021,20211123,94 Flagstaff Road,WARRAWONG,NSW,2502,-34.4794426,150.880219,3,3,3,House,House,False,601,m2,False
2017411362,listing,/4-wilma-avenue-warrawong-nsw-2502-2017411362,795000,is-sold,Sold by private treaty 11 Nov 2021,20211111,4 Wilma Avenue,WARRAWONG,NSW,2502,-34.4846039,150.877365,3,3,3,House,House,False,0,m2,False
2017440727,listing,/24-hurry-crescent-warrawong-nsw-2502-2017440727,435000,is-sold,Sold by private treaty 26 Nov 2021,20211126,24 Hurry Crescent,WARRAWONG,NSW,2502,-34.4839325,150.875992,NaN,NaN,NaN,AcreageSemiRural,Acreage / Semi-Rural,True,558,m2,False
2017933193,listing,/22-lake-heights-road-lake-heights-nsw-2502-2017933193,815000,is-sold,Sold by private treaty 21 Oct 2021,20211021,22 Lake Heights Road,LAKE HEIGHTS,NSW,2502,-34.4809837,150.867859,3,3,3,House,House,False,0,m2,False
2016832875,listing,/35-weringa-avenue-lake-heights-nsw-2502-2016832875,350000,is-sold,Sold by private treaty 15 Oct 2021,20211015,35 Weringa Avenue,LAKE HEIGHTS,NSW,2502,-34.48243,150.872772,NaN,NaN,NaN,VacantLand,Vacant land,False,556,m2,False
2017048560,listing,/9-newcastle-street-cringila-nsw-2502-2017048560,680000,is-sold,Sold by private treaty 31 Aug 2021,20210831,9 Newcastle Street,CRINGILA,NSW,2502,-34.4701424,150.874176,3,3,3,House,House,False,557,m2,False
2017126234,listing,/60-windang-road-primbee-nsw-2502-2017126234,860000,is-sold,Sold by private treaty 09 Sep 2021,20210909,60 Windang Road,PRIMBEE,NSW,2502,-34.5092354,150.874725,3,3,3,House,House,False,0,m2,False
2017178469,listing,/107-flagstaff-road-warrawong-nsw-2502-2017178469,575000,is-sold,Sold by private treaty 08 Oct 2021,20211008,107 Flagstaff Road,WARRAWONG,NSW,2502,-34.47983,150.878952,3,3,3,House,House,False,455,m2,False
2017184996,listing,/17-jane-avenue-warrawong-nsw-2502-2017184996,720000,is-sold,Sold by private treaty 27 Aug 2021,20210827,17 Jane Avenue,WARRAWONG,NSW,2502,-34.4836769,150.875641,3,3,3,House,House,False,556,m2,False
2017193794,listing,/4-1-hingston-close-lake-heights-nsw-2502-2017193794,662000,is-sold,Sold by private treaty 09 Sep 2021,20210909,4/1 Hingston Close,LAKE HEIGHTS,NSW,2502,-34.4801064,150.8658,3,3,3,Townhouse,Townhouse,False,0,m2,False
2017218304,listing,/158b-shearwater-drive-lake-heights-nsw-2502-2017218304,790000,is-sold,Sold by private treaty 03 Sep 2021,20210903,158B Shearwater Drive,LAKE HEIGHTS,NSW,2502,-34.4768524,150.867981,4,4,4,House,House,False,371,m2,False
2017219547,listing,/82a-b-lakeview-parade-primbee-nsw-2502-2017219547,1600000,is-sold,Sold by private treaty 14 Sep 2021,20210914,82a&b Lakeview Parade,PRIMBEE,NSW,2502,-34.499157,150.882187,4,4,4,House,House,False,972,m2,False
2017220669,listing,/9-canberra-road-lake-heights-nsw-2502-2017220669,950000,is-sold,Sold prior to auction 22 Sep 2021,20210922,9 Canberra Road,LAKE HEIGHTS,NSW,2502,-34.4895058,150.8716,4,4,4,House,House,False,677,m2,False
2017230629,listing,/92-flagstaff-road-warrawong-nsw-2502-2017230629,810111,is-sold,Sold by private treaty 09 Sep 2021,20210909,92 Flagstaff Road,WARRAWONG,NSW,2502,-34.4794235,150.880447,3,3,3,House,House,False,620,m2,False
2017235666,listing,/23-trevor-avenue-lake-heights-nsw-2502-2017235666,695000,is-sold,Sold at auction 08 Oct 2021,20211008,23 Trevor Avenue,LAKE HEIGHTS,NSW,2502,-34.48853,150.870728,2,2,2,House,House,False,0,m2,False
2017239657,listing,/19-lakeview-parade-primbee-nsw-2502-2017239657,1305000,is-sold,Sold prior to auction 23 Sep 2021,20210923,19 Lakeview Parade,PRIMBEE,NSW,2502,-34.49904,150.8864,3,3,3,House,House,False,695,m2,False
2017243500,listing,/76-ranchby-avenue-lake-heights-nsw-2502-2017243500,740000,is-sold,Sold by private treaty 24 Sep 2021,20210924,76 Ranchby Avenue,LAKE HEIGHTS,NSW,2502,-34.4852028,150.863815,3,3,3,House,House,False,626,m2,False
2017252354,listing,/7-illowra-parkway-primbee-nsw-2502-2017252354,780000,is-sold,Sold by private treaty 01 Oct 2021,20211001,7 Illowra Parkway,PRIMBEE,NSW,2502,-34.50106,150.885178,3,3,3,House,House,False,594,m2,False
2017255000,listing,/25-second-avenue-warrawong-nsw-2502-2017255000,705000,is-sold,Sold by private treaty 15 Oct 2021,20211015,25 Second Avenue,WARRAWONG,NSW,2502,-34.4831734,150.882187,3,3,3,House,House,False,619,m2,False
2017256816,listing,/36-nicolle-road-primbee-nsw-2502-2017256816,810000,is-sold,Sold by private treaty 13 Oct 2021,20211013,36 Nicolle Road,PRIMBEE,NSW,2502,-34.50415,150.874557,2,2,2,BlockOfUnits,Block of Units,False,696,m2,False
2017256890,listing,/4-15-hingston-close-lake-heights-nsw-2502-2017256890,615000,is-sold,Sold by private treaty 01 Oct 2021,20211001,4/15 Hingston Close,LAKE HEIGHTS,NSW,2502,-34.4816628,150.865067,3,3,3,Townhouse,Townhouse,False,0,m2,False
2017269251,listing,/5-19-kemblawarra-road-warrawong-nsw-2502-2017269251,337000,is-sold,Sold by private treaty 08 Oct 2021,20211008,5/19 Kemblawarra Road,WARRAWONG,NSW,2502,-34.49183,150.8919,2,2,2,ApartmentUnitFlat,Apartment / Unit / Flat,False,0,m2,False
2017269474,listing,/74-ranchby-avenue-lake-heights-nsw-2502-2017269474,720000,is-sold,Sold by private treaty 23 Sep 2021,20210923,74 Ranchby Avenue,LAKE HEIGHTS,NSW,2502,-34.4850845,150.863815,2,2,2,House,House,False,626,m2,False
2017294498,listing,/16-werrang-road-primbee-nsw-2502-2017294498,885000,is-sold,Sold by private treaty 01 Oct 2021,20211001,16 Werrang Road,PRIMBEE,NSW,2502,-34.50608,150.87677,3,3,3,House,House,False,0,m2,False
2016948338,listing,/71-jarvie-road-cringila-nsw-2502-2016948338,1300000,is-sold,Sold by private treaty 21 Aug 2021,20210821,71 Jarvie Road,CRINGILA,NSW,2502,-34.4694023,150.86705,3,3,3,AcreageSemiRural,Acreage / Semi-Rural,True,5023,m2,False
2017013485,listing,/27a-windang-road-primbee-nsw-2502-2017013485,450000,is-sold,Sold by private treaty 23 Aug 2021,20210823,27a Windang Road,PRIMBEE,NSW,2502,-34.506588,150.87619,NaN,NaN,NaN,VacantLand,Vacant land,False,798,m2,False
2017016127,listing,/30-weringa-avenue-lake-heights-nsw-2502-2017016127,640000,is-sold,Sold by private treaty 09 Jul 2021,20210709,30 Weringa Avenue,LAKE HEIGHTS,NSW,2502,-34.4815063,150.872314,3,3,3,House,House,False,556,m2,False
2017058109,listing,/282-northcliffe-drive-lake-heights-nsw-2502-2017058109,770000,is-sold,Sold by private treaty 20 Aug 2021,20210820,282 Northcliffe Drive,LAKE HEIGHTS,NSW,2502,-34.490818,150.870178,2,2,2,House,House,False,746,m2,False
2017072568,listing,/17-overhill-road-primbee-nsw-2502-2017072568,780000,is-sold,Sold at auction 10 Jul 2021,20210710,17 Overhill Road,PRIMBEE,NSW,2502,-34.5035629,150.878357,3,3,3,House,House,False,1013,m2,False
2017076510,listing,/33-fairfax-road-warrawong-nsw-2502-2017076510,750000,is-sold,Sold by private treaty 14 Jul 2021,20210714,33 Fairfax Road,WARRAWONG,NSW,2502,-34.4876442,150.881134,4,4,4,House,House,False,582,m2,False
2017076577,listing,/31-illowra-crescent-primbee-nsw-2502-2017076577,740000,is-sold,Sold by private treaty 14 Jul 2021,20210714,31 Illowra Crescent,PRIMBEE,NSW,2502,-34.5005875,150.884583,4,4,4,House,House,False,639,m2,False
2017095364,listing,/88-first-avenue-north-warrawong-nsw-2502-2017095364,595000,is-sold,Sold at auction 18 Jul 2021,20210718,88 First Avenue North,WARRAWONG,NSW,2502,-34.4831657,150.882813,3,3,3,House,House,False,550,m2,False
2017131800,listing,/161-flagstaff-road-warrawong-nsw-2502-2017131800,610000,is-sold,Sold by private treaty 30 Jul 2021,20210730,161 Flagstaff Road,WARRAWONG,NSW,2502,-34.4796066,150.873962,3,3,3,House,House,False,0,m2,False
2017135447,listing,/12-todd-street-warrawong-nsw-2502-2017135447,562500,is-sold,Sold by private treaty 26 Aug 2021,20210826,12 Todd Street,WARRAWONG,NSW,2502,-34.4834023,150.8854,3,3,3,House,House,False,512,m2,False
2017138631,listing,/10-68-jane-avenue-warrawong-nsw-2502-2017138631,515000,is-sold,Sold by private treaty 21 Jul 2021,20210721,10/68 Jane Avenue,WARRAWONG,NSW,2502,-34.4859161,150.872879,3,3,3,Townhouse,Townhouse,False,0,m2,False
2017139576,listing,/7-todd-street-warrawong-nsw-2502-2017139576,572000,is-sold,Sold by private treaty 16 Aug 2021,20210816,7 Todd Street,WARRAWONG,NSW,2502,-34.4837532,150.886124,3,3,3,House,House,False,664,m2,False
2017143163,listing,/13-dorman-street-cringila-nsw-2502-2017143163,640000,is-sold,Sold by private treaty 17 Aug 2021,20210817,13 Dorman Street,CRINGILA,NSW,2502,-34.4699974,150.869232,3,3,3,House,House,False,443,m2,False
2017167385,listing,/22-lake-avenue-cringila-nsw-2502-2017167385,627000,is-sold,Sold by private treaty 13 Aug 2021,20210813,22 Lake Avenue,CRINGILA,NSW,2502,-34.46754,150.872086,3,3,3,House,House,False,0,m2,False
2017171630,listing,/41-bent-street-warrawong-nsw-2502-2017171630,610000,is-sold,Sold by private treaty 27 Aug 2021,20210827,41 Bent Street,WARRAWONG,NSW,2502,-34.4829178,150.884933,3,3,3,House,House,False,531,m2,False
2017184570,listing,/43-barina-avenue-lake-heights-nsw-2502-2017184570,630000,is-sold,Sold by private treaty 14 Aug 2021,20210814,43 Barina Avenue,LAKE HEIGHTS,NSW,2502,-34.4853668,150.86879,3,3,3,House,House,False,0,m2,False
2017184801,listing,/123-lakeview-parade-primbee-nsw-2502-2017184801,1150000,is-sold,Sold by private treaty 13 Aug 2021,20210813,123 Lakeview Parade,PRIMBEE,NSW,2502,-34.5004,150.875946,4,4,4,House,House,False,0,m2,False
2017213411,listing,/30-jane-avenue-warrawong-nsw-2502-2017213411,770000,is-sold,Sold by private treaty 27 Aug 2021,20210827,30 Jane Avenue,WARRAWONG,NSW,2502,-34.4834938,150.875229,3,3,3,House,House,False,0,m2,False
2017219141,listing,/58-illowra-crescent-primbee-nsw-2502-2017219141,1050000,is-sold,Sold by private treaty 26 Aug 2021,20210826,58 Illowra Crescent,PRIMBEE,NSW,2502,-34.5006256,150.882431,3,3,3,House,House,False,1107,m2,False
2017219196,listing,/56-illowra-crescent-primbee-nsw-2502-2017219196,1050000,is-sold,Sold by private treaty 26 Aug 2021,20210826,56 Illowra Crescent,PRIMBEE,NSW,2502,-34.5006,150.88269,3,3,3,House,House,False,1056,m2,False
2016433894,listing,/1-1-backhouse-road-lake-heights-nsw-2502-2016433894,675000,is-sold,Sold by private treaty 01 Jun 2021,20210601,1/1 Backhouse Road,LAKE HEIGHTS,NSW,2502,-34.4795151,150.867767,5,5,5,Townhouse,Townhouse,False,0,m2,False
2016862061,listing,/1-20-lake-heights-road-lake-heights-nsw-2502-2016862061,650000,is-sold,Sold by private treaty 28 May 2021,20210528,1/20 Lake Heights Road,LAKE HEIGHTS,NSW,2502,-34.4808922,150.8678,4,4,4,House,House,False,335,m2,False
2016870239,listing,/118-lake-avenue-cringila-nsw-2502-2016870239,600000,is-sold,Sold by private treaty 08 Jul 2021,20210708,118 Lake Avenue,CRINGILA,NSW,2502,-34.4736977,150.8711,3,3,3,House,House,False,1066,m2,False
2016928165,listing,/29-jarvie-road-cringila-nsw-2502-2016928165,512000,is-sold,Sold by private treaty 05 Jul 2021,20210705,29 Jarvie Road,CRINGILA,NSW,2502,-34.4691353,150.869553,2,2,2,House,House,False,442,m2,False
2016929449,listing,/86-lake-heights-road-lake-heights-nsw-2502-2016929449,550000,is-sold,Sold by private treaty 07 Jun 2021,20210607,86 Lake Heights Road,LAKE HEIGHTS,NSW,2502,-34.4848976,150.866455,2,2,2,House,House,False,575,m2,False
2016963030,listing,/19-overhill-road-primbee-nsw-2502-2016963030,720000,is-sold,Sold by private treaty 02 Jun 2021,20210602,19 Overhill Road,PRIMBEE,NSW,2502,-34.5036964,150.878723,4,4,4,House,House,False,1090,m2,False
2016971917,listing,/6-werrang-road-primbee-nsw-2502-2016971917,Price Withheld,is-sold,Sold by private treaty 02 Jul 2021,20210702,6 Werrang Road,PRIMBEE,NSW,2502,-34.5052376,150.876724,6,6,6,BlockOfUnits,Block of Units,False,0,m2,False
2016972372,listing,/32-cringila-street-cringila-nsw-2502-2016972372,495000,is-sold,Sold at auction 25 May 2021,20210525,32 Cringila Street,CRINGILA,NSW,2502,-34.4715462,150.8724,2,2,2,House,House,False,556,m2,False
2016983538,listing,/7-steel-street-cringila-nsw-2502-2016983538,490000,is-sold,Sold at auction 24 May 2021,20210524,7 Steel Street,CRINGILA,NSW,2502,-34.47125,150.874084,2,2,2,House,House,False,481,m2,False
2016984831,listing,/20-shellharbour-road-primbee-nsw-2502-2016984831,940000,is-sold,Sold by private treaty 08 Jul 2021,20210708,20 Shellharbour Road,PRIMBEE,NSW,2502,-34.5022774,150.886673,5,5,5,House,House,False,898,m2,False
2016984832,listing,/22-shellharbour-road-primbee-nsw-2502-2016984832,880000,is-sold,Sold by private treaty 02 Jul 2021,20210702,22 Shellharbour Road,PRIMBEE,NSW,2502,-34.5024071,150.886856,3,3,3,House,House,False,957,m2,False
2017014126,listing,/106-lakeview-parade-primbee-nsw-2502-2017014126,1260000,is-sold,Sold at auction 16 Jun 2021,20210616,106 Lakeview Parade,PRIMBEE,NSW,2502,-34.4993744,150.880569,3,3,3,House,House,False,569,m2,False
2017020677,listing,/8-6-8-melinda-grove-lake-heights-nsw-2502-2017020677,472500,is-sold,Sold by private treaty 05 Jul 2021,20210705,8/6-8 Melinda Grove,LAKE HEIGHTS,NSW,2502,-34.480587,150.87056,2,2,2,Townhouse,Townhouse,False,0,m2,False
2017030898,listing,/17-68-jane-avenue-warrawong-nsw-2502-2017030898,580000,is-sold,Sold by private treaty 11 Jun 2021,20210611,17/68 Jane Avenue,WARRAWONG,NSW,2502,-34.4859161,150.872879,3,3,3,Townhouse,Townhouse,False,0,m2,False
2017038002,listing,/7-denise-street-lake-heights-nsw-2502-2017038002,810000,is-sold,Sold by private treaty 10 Jun 2021,20210610,7 Denise Street,LAKE HEIGHTS,NSW,2502,-34.4867859,150.870728,3,3,3,House,House,False,0,m2,False
2017040509,listing,/13-monteith-street-cringila-nsw-2502-2017040509,445000,is-sold,Sold by private treaty 07 Jun 2021,20210607,13 Monteith Street,CRINGILA,NSW,2502,-34.4741249,150.873184,3,3,3,House,House,False,704,m2,False
2017048521,listing,/2-6-8-melinda-grove-lake-heights-nsw-2502-2017048521,525000,is-sold,Sold by private treaty 08 Jun 2021,20210608,2/6-8 Melinda Grove,LAKE HEIGHTS,NSW,2502,-34.480587,150.87056,3,3,3,Townhouse,Townhouse,False,0,m2,False
2017054006,listing,/14-primbee-crescent-primbee-nsw-2502-2017054006,820000,is-sold,Sold prior to auction 02 Jul 2021,20210702,14 Primbee Crescent,PRIMBEE,NSW,2502,-34.5018234,150.877,3,3,3,House,House,False,765,m2,False
2017078884,listing,/43-lakeview-parade-primbee-nsw-2502-2017078884,815000,is-sold,Sold by private treaty 25 Jun 2021,20210625,43 Lakeview Parade,PRIMBEE,NSW,2502,-34.4996872,150.884323,2,2,2,House,House,False,702,m2,False
2017088159,listing,/275b-flagstaff-road-lake-heights-nsw-2502-2017088159,730000,is-sold,Sold by private treaty 07 Jul 2021,20210707,275b Flagstaff Road,LAKE HEIGHTS,NSW,2502,-34.4809837,150.86293,3,3,3,House,House,False,397,m2,False
2016693950,listing,/63-vermont-road-warrawong-nsw-2502-2016693950,705000,is-sold,Sold by private treaty 22 Apr 2021,20210422,63 Vermont Road,WARRAWONG,NSW,2502,-34.48718,150.878891,4,4,4,House,House,False,563,m2,False
2016812710,listing,/54-jane-avenue-warrawong-nsw-2502-2016812710,640000,is-sold,Sold by private treaty 15 Apr 2021,20210415,54 Jane Avenue,WARRAWONG,NSW,2502,-34.4851036,150.8744,3,3,3,House,House,False,556,m2,False
2016832871,listing,/49-greene-street-warrawong-nsw-2502-2016832871,765000,is-sold,Sold by private treaty 20 Apr 2021,20210420,49 Greene Street,WARRAWONG,NSW,2502,-34.4851875,150.882813,5,5,5,House,House,False,0,m2,False
2016849435,listing,/39-purry-burry-avenue-primbee-nsw-2502-2016849435,1100000,is-sold,Sold at auction 20 Apr 2021,20210420,39 Purry Burry Avenue,PRIMBEE,NSW,2502,-34.502327,150.874359,4,4,4,BlockOfUnits,Block of Units,False,796,m2,False
2016849749,listing,/1-27-fairymeadow-parkway-primbee-nsw-2502-2016849749,730000,is-sold,Sold by private treaty 30 Apr 2021,20210430,1/27 Fairymeadow Parkway,PRIMBEE,NSW,2502,-34.50284,150.87709,3,3,3,House,House,False,0,m2,False
2016861805,listing,/4-barbara-avenue-warrawong-nsw-2502-2016861805,640000,is-sold,Sold by private treaty 27 Apr 2021,20210427,4 Barbara Avenue,WARRAWONG,NSW,2502,-34.485733,150.876678,3,3,3,House,House,False,0,m2,False
2016876248,listing,/4-jane-avenue-warrawong-nsw-2502-2016876248,890000,is-sold,Sold by private treaty 26 Apr 2021,20210426,4 Jane Avenue,WARRAWONG,NSW,2502,-34.48268,150.877136,6,6,6,House,House,False,819,m2,False
2016885919,listing,/22-mirrabooka-road-lake-heights-nsw-2502-2016885919,740000,is-sold,Sold by private treaty 04 May 2021,20210504,22 Mirrabooka Road,LAKE HEIGHTS,NSW,2502,-34.48353,150.8711,4,4,4,House,House,False,547,m2,False
2016886277,listing,/3-3-melinda-grove-lake-heights-nsw-2502-2016886277,417000,is-sold,Sold by private treaty 11 May 2021,20210511,3/3 Melinda Grove,LAKE HEIGHTS,NSW,2502,-34.48072,150.871277,3,3,3,Townhouse,Townhouse,False,0,m2,False
2016892466,listing,/27-buena-vista-avenue-lake-heights-nsw-2502-2016892466,740000,is-sold,Sold by private treaty 07 May 2021,20210507,27 Buena Vista Avenue,LAKE HEIGHTS,NSW,2502,-34.48814,150.869232,4,4,4,House,House,False,696,m2,False
2016897802,listing,/32-auburn-parade-cringila-nsw-2502-2016897802,536000,is-sold,Sold at auction 23 Apr 2021,20210423,32 Auburn Parade,CRINGILA,NSW,2502,-34.47711,150.870041,2,2,2,House,House,False,968,m2,False
2016898349,listing,/3-234-flagstaff-road-lake-heights-nsw-2502-2016898349,640000,is-sold,Sold by private treaty 09 Apr 2021,20210409,3/234 Flagstaff Road,LAKE HEIGHTS,NSW,2502,-34.4788628,150.869,3,3,3,Townhouse,Townhouse,False,0,m2,False
2016904317,listing,/11-lakeview-parade-primbee-nsw-2502-2016904317,770000,is-sold,Sold by private treaty 29 Apr 2021,20210429,11 Lakeview Parade,PRIMBEE,NSW,2502,-34.4988861,150.887039,3,3,3,House,House,False,695,m2,False
2016907511,listing,/6-6-8-melinda-grove-lake-heights-nsw-2502-2016907511,525000,is-sold,Sold by private treaty 29 Apr 2021,20210429,6/6-8 Melinda Grove,LAKE HEIGHTS,NSW,2502,-34.480587,150.87056,3,3,3,Townhouse,Townhouse,False,0,m2,False
2016912323,listing,/39-barina-avenue-lake-heights-nsw-2502-2016912323,630000,is-sold,Sold by private treaty 05 May 2021,20210505,39 Barina Avenue,LAKE HEIGHTS,NSW,2502,-34.4824562,150.869217,3,3,3,House,House,False,550,m2,False
2016921863,listing,/5-monteith-street-cringila-nsw-2502-2016921863,425000,is-sold,Sold by private treaty 30 Apr 2021,20210430,5 Monteith Street,CRINGILA,NSW,2502,-34.4741859,150.873718,4,4,4,House,House,False,689,m2,False
2016926401,listing,/21-sheffield-street-cringila-nsw-2502-2016926401,Price Withheld,is-sold,Sold by private treaty 21 Apr 2021,20210421,21 Sheffield Street,CRINGILA,NSW,2502,-34.4708023,150.870316,2,2,2,House,House,False,646,m2,False
2016933617,listing,/17-second-avenue-north-warrawong-nsw-2502-2016933617,710000,is-sold,Sold by private treaty 05 May 2021,20210505,17 Second Avenue North,WARRAWONG,NSW,2502,-34.48376,150.882355,4,4,4,House,House,False,702,m2,False
2016951020,listing,/24-first-avenue-north-warrawong-nsw-2502-2016951020,560000,is-sold,Sold by private treaty 30 Apr 2021,20210430,24 First Avenue North,WARRAWONG,NSW,2502,-34.4800377,150.884949,3,3,3,House,House,False,600,m2,False
2016960569,listing,/20-6-eyre-place-warrawong-nsw-2502-2016960569,329000,is-sold,Sold by private treaty 06 May 2021,20210506,20/6 Eyre Place,WARRAWONG,NSW,2502,-34.4812622,150.879868,2,2,2,ApartmentUnitFlat,Apartment / Unit / Flat,False,0,m2,False
2016173237,listing,/11-hilltop-avenue-lake-heights-nsw-2502-2016173237,644500,is-sold,Sold by private treaty 06 Apr 2021,20210406,11 Hilltop Avenue,LAKE HEIGHTS,NSW,2502,-34.4818039,150.864426,NaN,NaN,NaN,VacantLand,Vacant land,False,1792,m2,False
2016274496,listing,/16-grattan-street-cringila-nsw-2502-2016274496,180000,is-sold,Sold at auction 22 Feb 2021,20210222,16 Grattan Street,CRINGILA,NSW,2502,-34.47799,150.86998,NaN,NaN,NaN,VacantLand,Vacant land,False,0,m2,False
2016637392,listing,/3-68-jane-avenue-warrawong-nsw-2502-2016637392,445000,is-sold,Sold by private treaty 17 Feb 2021,20210217,3/68 Jane Avenue,WARRAWONG,NSW,2502,-34.4859161,150.872879,3,3,3,Townhouse,Townhouse,False,0,m2,False
2016670206,listing,/3-1-hingston-close-lake-heights-nsw-2502-2016670206,560000,is-sold,Sold by private treaty 08 Feb 2021,20210208,3/1 Hingston Close,LAKE HEIGHTS,NSW,2502,-34.4801064,150.8658,3,3,3,Townhouse,Townhouse,False,0,m2,False
2016766542,listing,/7-30-kemblawarra-road-warrawong-nsw-2502-2016766542,585000,is-sold,Sold by private treaty 25 Feb 2021,20210225,7/30 Kemblawarra Road,WARRAWONG,NSW,2502,-34.4917564,150.890656,3,3,3,Townhouse,Townhouse,False,186,m2,False
2016767877,listing,/50-auburn-parade-cringila-nsw-2502-2016767877,515000,is-sold,Sold by private treaty 11 Feb 2021,20210211,50 Auburn Parade,CRINGILA,NSW,2502,-34.47751,150.870926,3,3,3,House,House,False,758,m2,False
2016795578,listing,/24-bent-street-warrawong-nsw-2502-2016795578,650000,is-sold,Sold prior to auction 18 Feb 2021,20210218,24 Bent Street,WARRAWONG,NSW,2502,-34.4817352,150.885773,3,3,3,House,House,False,569,m2,False
2016795980,listing,/56-lake-avenue-cringila-nsw-2502-2016795980,592000,is-sold,Sold by private treaty 26 Mar 2021,20210326,56 Lake Avenue,CRINGILA,NSW,2502,-34.470295,150.871414,3,3,3,House,House,False,746,m2,False
2016797547,listing,/10-hoskins-warrawong-nsw-2502-2016797547,495000,is-sold,Sold by private treaty 11 Feb 2021,20210211,10 hoskins,WARRAWONG,NSW,2502,-34.4906235,150.892,2,2,2,House,House,False,0,m2,False
2016811194,listing,/18-grattan-street-cringila-nsw-2502-2016811194,190000,is-sold,Sold at auction 11 Feb 2021,20210211,18 Grattan Street,CRINGILA,NSW,2502,-34.4779663,150.869812,NaN,NaN,NaN,VacantLand,Vacant land,False,0,m2,False
2016812484,listing,/15-trevor-avenue-lake-heights-nsw-2502-2016812484,871000,is-sold,Sold by private treaty 09 Mar 2021,20210309,15 Trevor Avenue,LAKE HEIGHTS,NSW,2502,-34.48856,150.871521,5,5,5,House,House,False,0,m2,False
2016815090,listing,/196-flagstaff-road-lake-heights-nsw-2502-2016815090,594500,is-sold,Sold at auction 23 Mar 2021,20210323,196 Flagstaff Road,LAKE HEIGHTS,NSW,2502,-34.47921,150.871857,3,3,3,House,House,False,0,m2,False
2016822096,listing,/9-6-8-melinda-grove-lake-heights-nsw-2502-2016822096,465000,is-sold,Sold by private treaty 07 Apr 2021,20210407,9/6-8 Melinda Grove,LAKE HEIGHTS,NSW,2502,-34.480587,150.87056,2,2,2,Townhouse,Townhouse,False,0,m2,False
2016836298,listing,/25-minnegang-street-warrawong-nsw-2502-2016836298,500000,is-sold,Sold by private treaty 11 Mar 2021,20210311,25 Minnegang Street,WARRAWONG,NSW,2502,-34.4848442,150.87674,2,2,2,House,House,False,556,m2,False
2016843682,listing,/18-barina-avenue-lake-heights-nsw-2502-2016843682,840000,is-sold,Sold by private treaty 08 Mar 2021,20210308,18 Barina Avenue,LAKE HEIGHTS,NSW,2502,-34.48072,150.869064,5,5,5,House,House,False,575,m2,False
2016849300,listing,/12-68-jane-avenue-warrawong-nsw-2502-2016849300,470000,is-sold,Sold by private treaty 19 Mar 2021,20210319,12/68 Jane Avenue,WARRAWONG,NSW,2502,-34.4859161,150.872879,3,3,3,Townhouse,Townhouse,False,0,m2,False
2016870961,listing,/1-154-shearwater-drive-lake-heights-nsw-2502-2016870961,585000,is-sold,Sold by private treaty 16 Mar 2021,20210316,1/154 Shearwater Drive,LAKE HEIGHTS,NSW,2502,-34.4767532,150.867462,3,3,3,House,House,False,0,m2,False
2016874907,listing,/2-154-shearwater-drive-lake-heights-nsw-2502-2016874907,560000,is-sold,Sold by private treaty 15 Mar 2021,20210315,2/154 Shearwater drive,LAKE HEIGHTS,NSW,2502,-34.4767532,150.867462,3,3,3,Duplex,Duplex,False,0,m2,False
2016883027,listing,/288-cowper-street-warrawong-nsw-2502-2016883027,675000,is-sold,Sold by private treaty 31 Mar 2021,20210331,288 Cowper Street,WARRAWONG,NSW,2502,-34.48547,150.8839,3,3,3,House,House,False,594,m2,False
2016883550,listing,/123-lakeview-parade-primbee-nsw-2502-2016883550,830000,is-sold,Sold by private treaty 22 Mar 2021,20210322,123 Lakeview Parade,PRIMBEE,NSW,2502,-34.5004,150.875946,4,4,4,House,House,False,917,m2,False
2016422846,listing,/35-jarvie-road-cringila-nsw-2502-2016422846,950000,is-sold,Sold by private treaty 27 Jan 2021,20210127,35 Jarvie Road,CRINGILA,NSW,2502,-34.46915,150.869141,14,14,14,BlockOfUnits,Block of Units,False,443,m2,False
2016515721,listing,/6-30-32-kemblawarra-road-warrawong-nsw-2502-2016515721,Price Withheld,is-sold,Sold by private treaty 28 Jan 2021,20210128,6/30-32 Kemblawarra Road,WARRAWONG,NSW,2502,-34.4917564,150.890656,3,3,3,Townhouse,Townhouse,False,229,m2,False
2016550230,listing,/60-ranchby-avenue-lake-heights-nsw-2502-2016550230,775000,is-sold,Sold 23 Dec 2020,20201223,60 Ranchby Avenue,LAKE HEIGHTS,NSW,2502,-34.4841957,150.864365,3,3,3,House,House,False,1201,m2,False
2016580877,listing,/30-auburn-parade-cringila-nsw-2502-2016580877,521000,is-sold,Sold by private treaty 18 Dec 2020,20201218,30 Auburn Parade,CRINGILA,NSW,2502,-34.4769669,150.870087,5,5,5,House,House,False,929,m2,False
2016597345,listing,/21-second-avenue-north-warrawong-nsw-2502-2016597345,525000,is-sold,Sold by private treaty 01 Feb 2021,20210201,21 Second Avenue North,WARRAWONG,NSW,2502,-34.4835,150.882263,4,4,4,House,House,False,670,m2,False
2016641617,listing,/22-bent-street-warrawong-nsw-2502-2016641617,566000,is-sold,Sold by private treaty 22 Jan 2021,20210122,22 Bent Street,WARRAWONG,NSW,2502,-34.4815979,150.885757,3,3,3,House,House,False,0,m2,False
2016658240,listing,/30-chisholm-road-warrawong-nsw-2502-2016658240,650000,is-sold,Sold by private treaty 18 Dec 2020,20201218,30 Chisholm Road,WARRAWONG,NSW,2502,-34.4844131,150.874435,3,3,3,House,House,False,899,m2,False
2016663408,listing,/5-hilltop-avenue-lake-heights-nsw-2502-2016663408,675000,is-sold,Sold by private treaty 08 Dec 2020,20201208,5 Hilltop Avenue,LAKE HEIGHTS,NSW,2502,-34.4812622,150.864365,3,3,3,House,House,False,0,m2,False
2016664012,listing,/24-wilma-avenue-warrawong-nsw-2502-2016664012,420000,is-sold,Sold by private treaty 07 Dec 2020,20201207,24 Wilma Avenue,WARRAWONG,NSW,2502,-34.48597,150.8776,2,2,2,House,House,False,778,m2,False
2016666247,listing,/15-bent-warrawong-nsw-2502-2016666247,545000,is-sold,Sold by private treaty 09 Dec 2020,20201209,15 bent,WARRAWONG,NSW,2502,-34.4820633,150.886383,3,3,3,House,House,False,613,m2,False
2016674742,listing,/35-buena-vista-avenue-lake-heights-nsw-2502-2016674742,690000,is-sold,Sold by private treaty 08 Dec 2020,20201208,35 Buena Vista Avenue,LAKE HEIGHTS,NSW,2502,-34.48868,150.869186,3,3,3,House,House,False,637,m2,False
2016680274,listing,/64-barina-avenue-lake-heights-nsw-2502-2016680274,645000,is-sold,Sold by private treaty 06 Feb 2021,20210206,64 Barina Avenue,LAKE HEIGHTS,NSW,2502,-34.48416,150.8685,3,3,3,House,House,False,556,m2,False
2016689374,listing,/5-sheffield-street-cringila-nsw-2502-2016689374,675000,is-sold,Sold by private treaty 29 Jan 2021,20210129,5 Sheffield Street,CRINGILA,NSW,2502,-34.46993,150.870453,4,4,4,House,House,False,0,m2,False
2016697686,listing,/27-jarvie-road-cringila-nsw-2502-2016697686,490000,is-sold,Sold by private treaty 01 Feb 2021,20210201,27 Jarvie Road,CRINGILA,NSW,2502,-34.46923,150.869644,4,4,4,House,House,False,443,m2,False
2016699618,listing,/47-second-ave-north-avenue-warrawong-nsw-2502-2016699618,675000,is-sold,Sold by private treaty 31 Dec 2020,20201231,47 Second Ave North Avenue,WARRAWONG,NSW,2502,-34.48191,150.882858,4,4,4,House,House,False,556,m2,False
2016702210,listing,/9-birmingham-street-cringila-nsw-2502-2016702210,518000,is-sold,Sold by private treaty 22 Dec 2020,20201222,9 Birmingham Street,CRINGILA,NSW,2502,-34.46817,150.874359,4,4,4,House,House,False,675,m2,False
2016719311,listing,/170-lake-avenue-cringila-nsw-2502-2016719311,547000,is-sold,Sold by private treaty 28 Jan 2021,20210128,170 Lake Avenue,CRINGILA,NSW,2502,-34.4780464,150.8715,3,3,3,House,House,False,594,m2,False
2016727952,listing,/3-9-11-clive-avenue-warrawong-nsw-2502-2016727952,510000,is-sold,Sold by private treaty 18 Jan 2021,20210118,3/9-11 Clive Avenue,WARRAWONG,NSW,2502,-34.4853973,150.879837,2,2,2,Townhouse,Townhouse,False,0,m2,False
2016728167,listing,/68-lake-avenue-cringila-nsw-2502-2016728167,455000,is-sold,Sold by private treaty 29 Jan 2021,20210129,68 Lake Avenue,CRINGILA,NSW,2502,-34.47096,150.871231,3,3,3,House,House,False,740,m2,False
2016779207,listing,/18-ranchby-avenue-lake-heights-nsw-2502-2016779207,650000,is-sold,Sold by private treaty 18 Jan 2021,20210118,18 Ranchby Avenue,LAKE HEIGHTS,NSW,2502,-34.4809227,150.866226,3,3,3,House,House,False,601,m2,False
2015315735,listing,/226-flagstaff-road-lake-heights-nsw-2502-2015315735,485000,is-sold,Sold by private treaty 05 Nov 2020,20201105,226 Flagstaff Road,LAKE HEIGHTS,NSW,2502,-34.4789238,150.869553,3,3,3,House,House,False,481,m2,False
2015378930,listing,/12-noble-parade-lake-heights-nsw-2502-2015378930,500000,is-sold,Sold by private treaty 13 Nov 2020,20201113,12 Noble Parade,LAKE HEIGHTS,NSW,2502,-34.4816933,150.862823,3,3,3,House,House,False,785,m2,False
2016385128,listing,/169a-flagstaff-road-lake-heights-nsw-2502-2016385128,650000,is-sold,Sold by private treaty 02 Dec 2020,20201202,169A Flagstaff Road,LAKE HEIGHTS,NSW,2502,-34.4797745,150.873184,4,4,4,House,House,False,563,m2,False
2016424821,listing,/54-mirrabooka-road-lake-heights-nsw-2502-2016424821,540000,is-sold,Sold by private treaty 23 Oct 2020,20201023,54 Mirrabooka Road,LAKE HEIGHTS,NSW,2502,-34.4854279,150.8691,3,3,3,House,House,False,569,m2,False
2016458784,listing,/6-second-ave-north-warrawong-nsw-2502-2016458784,800000,is-sold,Sold by private treaty 20 Nov 2020,20201120,6 Second Ave North,WARRAWONG,NSW,2502,-34.4839478,150.881851,5,5,5,House,House,False,519,m2,False
2016486940,listing,/84-barina-avenue-lake-heights-nsw-2502-2016486940,645000,is-sold,Sold by private treaty 19 Oct 2020,20201019,84 Barina Avenue,LAKE HEIGHTS,NSW,2502,-34.4855042,150.86824,4,4,4,House,House,False,556,m2,False
2016495353,listing,/15-newcastle-street-cringila-nsw-2502-2016495353,560000,is-sold,Sold by private treaty 06 Nov 2020,20201106,15 Newcastle Street,CRINGILA,NSW,2502,-34.4700775,150.873764,6,6,6,House,House,False,569,m2,False
2016526538,listing,/9-grattan-street-cringila-nsw-2502-2016526538,575000,is-sold,Sold by private treaty 02 Dec 2020,20201202,9 Grattan Street,CRINGILA,NSW,2502,-34.4785423,150.870361,3,3,3,House,House,False,0,m2,False
2016528779,listing,/7-noble-parade-lake-heights-nsw-2502-2016528779,564000,is-sold,Sold by private treaty 23 Nov 2020,20201123,7 Noble Parade,LAKE HEIGHTS,NSW,2502,-34.4818535,150.863449,2,2,2,House,House,False,797,m2,False
2016535156,listing,/278-northcliffe-drive-lake-heights-nsw-2502-2016535156,766000,is-sold,Sold by private treaty 03 Dec 2020,20201203,278 Northcliffe Drive,LAKE HEIGHTS,NSW,2502,-34.4909363,150.870544,6,6,6,House,House,False,746,m2,False
2016540437,listing,/100-first-avenue-north-warrawong-nsw-2502-2016540437,510000,is-sold,Sold by private treaty 10 Nov 2020,20201110,100 First Avenue North,WARRAWONG,NSW,2502,-34.48391,150.883087,3,3,3,House,House,False,582,m2,False
2016542262,listing,/32-hassan-street-lake-heights-nsw-2502-2016542262,785000,is-sold,Sold prior to auction 26 Oct 2020,20201026,32 Hassan Street,LAKE HEIGHTS,NSW,2502,-34.485714,150.863052,3,3,3,House,House,False,753,m2,False
2016561233,listing,/82-illowra-crescent-primbee-nsw-2502-2016561233,640000,is-sold,Sold by private treaty 25 Nov 2020,20201125,82 Illowra Crescent,PRIMBEE,NSW,2502,-34.5002823,150.880112,2,2,2,House,House,False,360,m2,False
2016563515,listing,/30-hurry-crescent-warrawong-nsw-2502-2016563515,832000,is-sold,Sold by private treaty 20 Nov 2020,20201120,30 Hurry Crescent,WARRAWONG,NSW,2502,-34.4843445,150.8759,7,7,7,House,House,False,747,m2,False
2016563655,listing,/61-weringa-avenue-lake-heights-nsw-2502-2016563655,512000,is-sold,Sold by private treaty 04 Dec 2020,20201204,61 Weringa Avenue,LAKE HEIGHTS,NSW,2502,-34.48405,150.8725,3,3,3,House,House,False,556,m2,False
2016566187,listing,/1-33-northcliffe-drive-lake-heights-nsw-2502-2016566187,640000,is-sold,Sold by private treaty 16 Nov 2020,20201116,1/33 Northcliffe Drive,LAKE HEIGHTS,NSW,2502,-34.49116,150.869812,3,3,3,Townhouse,Townhouse,False,0,m2,False
2016641882,listing,/2-57-illowra-crescent-primbee-nsw-2502-2016641882,415000,is-sold,Sold by private treaty 04 Dec 2020,20201204,2/57 Illowra Crescent,PRIMBEE,NSW,2502,-34.5008,150.8806,1,1,1,Villa,Villa,False,0,m2,False
2016645554,listing,/328-flagstaff-road-lake-heights-nsw-2502-2016645554,760000,is-sold,Sold by private treaty 03 Dec 2020,20201203,328 Flagstaff Road,LAKE HEIGHTS,NSW,2502,-34.48037,150.861237,4,4,4,House,House,False,564,m2,False
2016647803,listing,/3-jackson-avenue-warrawong-nsw-2502-2016647803,610000,is-sold,Sold by private treaty 01 Dec 2020,20201201,3 Jackson Avenue,WARRAWONG,NSW,2502,-34.48758,150.877228,3,3,3,House,House,False,613,m2,False
2016654262,listing,/96-first-avenue-north-warrawong-nsw-2502-2016654262,430000,is-sold,Sold by private treaty 27 Nov 2020,20201127,96 First Avenue North,WARRAWONG,NSW,2502,-34.4837036,150.8829,2,2,2,House,House,False,751,m2,False
2015352295,listing,/168-shearwater-drive-lake-heights-nsw-2502-2015352295,830000,is-sold,Sold by private treaty 10 Sep 2020,20200910,168 Shearwater Drive,LAKE HEIGHTS,NSW,2502,-34.477066,150.869034,4,4,4,House,House,False,1628,m2,False
2016187488,listing,/5-21-kemblawarra-road-warrawong-nsw-2502-2016187488,296500,is-sold,Sold by private treaty 02 Oct 2020,20201002,5/21 Kemblawarra Road,WARRAWONG,NSW,2502,-34.4918747,150.891769,2,2,2,ApartmentUnitFlat,Apartment / Unit / Flat,False,0,m2,False
2016328436,listing,/31-barina-avenue-lake-heights-nsw-2502-2016328436,542000,is-sold,Sold by private treaty 04 Sep 2020,20200904,31 Barina Avenue,LAKE HEIGHTS,NSW,2502,-34.48177,150.86937,3,3,3,House,House,False,556,m2,False
2016334987,listing,/2-43-bent-street-warrawong-nsw-2502-2016334987,375000,is-sold,Sold by private treaty 25 Aug 2020,20200825,2/43 Bent Street,WARRAWONG,NSW,2502,-34.48308,150.884766,3,3,3,ApartmentUnitFlat,Apartment / Unit / Flat,False,0,m2,False
2016344528,listing,/19-trevor-avenue-lake-heights-nsw-2502-2016344528,757500,is-sold,Sold by private treaty 07 Sep 2020,20200907,19 Trevor Avenue,LAKE HEIGHTS,NSW,2502,-34.4885559,150.87114,3,3,3,House,House,False,638,m2,False
2016395327,listing,/27-first-avenue-warrawong-nsw-2502-2016395327,460000,is-sold,Sold by private treaty 23 Sep 2020,20200923,27 First Avenue,WARRAWONG,NSW,2502,-34.4810448,150.885178,3,3,3,House,House,False,531,m2,False
2016405951,listing,/41-newcastle-street-cringila-nsw-2502-2016405951,620000,is-sold,Sold by private treaty 21 Aug 2020,20200821,41 Newcastle Street,CRINGILA,NSW,2502,-34.4698257,150.872086,6,6,6,House,House,False,556,m2,False
2016406725,listing,/214-flagstaff-road-lake-heights-nsw-2502-2016406725,460000,is-sold,Sold by private treaty 21 Aug 2020,20200821,214 Flagstaff Road,LAKE HEIGHTS,NSW,2502,-34.4791069,150.870316,2,2,2,House,House,False,0,m2,False
2016406811,listing,/8-68-jane-avenue-warrawong-nsw-2502-2016406811,405000,is-sold,Sold by private treaty 16 Oct 2020,20201016,8/68 Jane Avenue,WARRAWONG,NSW,2502,-34.4859161,150.872879,3,3,3,Townhouse,Townhouse,False,0,m2,False
2016429163,listing,/69-mirrabooka-road-lake-heights-nsw-2502-2016429163,575000,is-sold,Sold by private treaty 04 Sep 2020,20200904,69 Mirrabooka Road,LAKE HEIGHTS,NSW,2502,-34.4854431,150.87027,3,3,3,House,House,False,556,m2,False
2016432646,listing,/86-lakeview-parade-primbee-nsw-2502-2016432646,801000,is-sold,Sold by private treaty 14 Sep 2020,20200914,86 Lakeview Parade,PRIMBEE,NSW,2502,-34.4989967,150.881958,3,3,3,House,House,False,822,m2,False
2016433084,listing,/20-cringila-street-cringila-nsw-2502-2016433084,490000,is-sold,Sold by private treaty 08 Sep 2020,20200908,20 Cringila Street,CRINGILA,NSW,2502,-34.4716263,150.873184,3,3,3,House,House,False,559,m2,False
2016440400,listing,/47-grandview-parade-lake-heights-nsw-2502-2016440400,660001,is-sold,Sold by private treaty 25 Aug 2020,20200825,47 Grandview Parade,LAKE HEIGHTS,NSW,2502,-34.4877319,150.865326,3,3,3,House,House,False,702,m2,False
2016440812,listing,/26-lee-street-warrawong-nsw-2502-2016440812,440000,is-sold,Sold by private treaty 25 Aug 2020,20200825,26 Lee Street,WARRAWONG,NSW,2502,-34.4877777,150.8823,1,1,1,House,House,False,632,m2,False
2016442937,listing,/9-merrett-avenue-cringila-nsw-2502-2016442937,517500,is-sold,Sold by private treaty 27 Aug 2020,20200827,9 Merrett Avenue,CRINGILA,NSW,2502,-34.4672432,150.874771,3,3,3,House,House,False,499,m2,False
2016462515,listing,/56-stuart-road-warrawong-nsw-2502-2016462515,515000,is-sold,Sold by private treaty 16 Sep 2020,20200916,56 Stuart Road,WARRAWONG,NSW,2502,-34.4896126,150.881088,2,2,2,House,House,False,683,m2,False
2016479640,listing,/137-flagstaff-road-warrawong-nsw-2502-2016479640,365000,is-sold,Sold at auction 03 Oct 2020,20201003,137 Flagstaff Road,WARRAWONG,NSW,2502,-34.4794769,150.876083,3,3,3,House,House,False,556,m2,False
2016485178,listing,/36-grand-view-parade-lake-heights-nsw-2502-2016485178,691000,is-sold,Sold at auction 26 Sep 2020,20200926,36 Grand View Parade,LAKE HEIGHTS,NSW,2502,-34.4876633,150.866272,3,3,3,House,House,False,688,m2,False
2016496831,listing,/10-jacana-place-lake-heights-nsw-2502-2016496831,720000,is-sold,Sold by private treaty 29 Sep 2020,20200929,10 Jacana Place,LAKE HEIGHTS,NSW,2502,-34.47811,150.864136,3,3,3,House,House,False,666,m2,False
2016505163,listing,/40-ranchby-avenue-lake-heights-nsw-2502-2016505163,595500,is-sold,Sold by private treaty 28 Sep 2020,20200928,40 Ranchby Avenue,LAKE HEIGHTS,NSW,2502,-34.4824829,150.86554,3,3,3,House,House,False,601,m2,False
2014882966,listing,/88-lakeview-parade-primbee-nsw-2502-2014882966,830000,is-sold,Sold by private treaty 13 Aug 2020,20200813,88 Lakeview Parade,PRIMBEE,NSW,2502,-34.4991531,150.881851,3,3,3,House,House,False,826,m2,False
2015392319,listing,/115-shearwater-drive-lake-heights-nsw-2502-2015392319,910000,is-sold,Sold by private treaty 10 Jul 2020,20200710,115 Shearwater Drive,LAKE HEIGHTS,NSW,2502,-34.4772758,150.864273,4,4,4,House,House,False,620,m2,False
2015732254,listing,/168-lakeview-parade-primbee-nsw-2502-2015732254,1140000,is-sold,Sold by private treaty 07 Jul 2020,20200707,168 Lakeview Parade,PRIMBEE,NSW,2502,-34.4999466,150.875275,3,3,3,House,House,False,797,m2,False
2016046240,listing,/101-cowper-street-warrawong-nsw-2502-2016046240,445000,is-sold,Sold by private treaty 13 Aug 2020,20200813,101 Cowper Street,WARRAWONG,NSW,2502,-34.4842339,150.8799,3,3,3,House,House,False,581,m2,False
2016058979,listing,/18-6-eyre-place-warrawong-nsw-2502-2016058979,293000,is-sold,Sold by private treaty 28 Jul 2020,20200728,18/6 Eyre Place,WARRAWONG,NSW,2502,-34.4812,150.879868,2,2,2,ApartmentUnitFlat,Apartment / Unit / Flat,False,0,m2,False
2016160349,listing,/36-auburn-parade-cringila-nsw-2502-2016160349,500000,is-sold,Sold by private treaty 24 Jul 2020,20200724,36 Auburn Parade,CRINGILA,NSW,2502,-34.47745,150.869812,3,3,3,House,House,False,0,m2,False
2016224451,listing,/28-trevor-avenue-lake-heights-nsw-2502-2016224451,522000,is-sold,Sold by private treaty 29 Jul 2020,20200729,28 Trevor Avenue,LAKE HEIGHTS,NSW,2502,-34.4879646,150.870682,3,3,3,House,House,False,1005,m2,False
2016257840,listing,/24-st-cloud-crescent-lake-heights-nsw-2502-2016257840,520000,is-sold,Sold by private treaty 02 Jul 2020,20200702,24 St Cloud Crescent,LAKE HEIGHTS,NSW,2502,-34.489975,150.8701,2,2,2,House,House,False,885,m2,False
2016266439,listing,/64-flagstaff-road-warrawong-nsw-2502-2016266439,470000,is-sold,Sold by private treaty 08 Jul 2020,20200708,64 Flagstaff Road,WARRAWONG,NSW,2502,-34.4787064,150.882614,3,3,3,House,House,False,607,m2,False
2016283176,listing,/21-greene-street-warrawong-nsw-2502-2016283176,500000,is-sold,Sold by private treaty 05 Aug 2020,20200805,21 Greene Street,WARRAWONG,NSW,2502,-34.4848328,150.885773,2,2,2,House,House,False,759,m2,False
2016296035,listing,/15-canberra-road-lake-heights-nsw-2502-2016296035,536000,is-sold,Sold by private treaty 10 Jul 2020,20200710,15 Canberra Road,LAKE HEIGHTS,NSW,2502,-34.4899025,150.8716,3,3,3,House,House,False,1189,m2,False
2016305628,listing,/80-vermont-road-warrawong-nsw-2502-2016305628,570000,is-sold,Sold by private treaty 31 Jul 2020,20200731,80 Vermont Road,WARRAWONG,NSW,2502,-34.4869957,150.879852,3,3,3,House,House,False,856,m2,False
2016309519,listing,/38-ranchby-lake-heights-nsw-2502-2016309519,470000,is-sold,Sold by private treaty 29 Jun 2020,20200629,38 Ranchby,LAKE HEIGHTS,NSW,2502,-34.4823723,150.865585,4,4,4,House,House,False,607,m2,False
2016312892,listing,/62-hassan-street-lake-heights-nsw-2502-2016312892,790000,is-sold,Sold prior to auction 03 Jul 2020,20200703,62 Hassan Street,LAKE HEIGHTS,NSW,2502,-34.4842949,150.861542,4,4,4,House,House,False,1117,m2,False
2016315267,listing,/7-mirrabooka-road-lake-heights-nsw-2502-2016315267,575000,is-sold,Sold by private treaty 10 Jul 2020,20200710,7 Mirrabooka Road,LAKE HEIGHTS,NSW,2502,-34.4814835,150.871765,3,3,3,House,House,False,0,m2,False
2016332553,listing,/148-lakeview-parade-primbee-nsw-2502-2016332553,820000,is-sold,Sold at auction 16 Jul 2020,20200716,148 Lakeview Parade,PRIMBEE,NSW,2502,-34.50006,150.87677,2,2,2,House,House,False,832,m2,False
2016332555,listing,/150-lakeview-parade-primbee-nsw-2502-2016332555,680000,is-sold,Sold by private treaty 24 Jul 2020,20200724,150 Lakeview Parade,PRIMBEE,NSW,2502,-34.4999847,150.876633,3,3,3,House,House,False,828,m2,False
2016343279,listing,/42-trevor-avenue-lake-heights-nsw-2502-2016343279,585000,is-sold,Sold by private treaty 14 Aug 2020,20200814,42 Trevor Avenue,LAKE HEIGHTS,NSW,2502,-34.487545,150.86969,3,3,3,House,House,False,778,m2,False
2016359331,listing,/8-lake-heights-road-lake-heights-nsw-2502-2016359331,535000,is-sold,Sold by private treaty 03 Aug 2020,20200803,8 Lake Heights Road,LAKE HEIGHTS,NSW,2502,-34.4799347,150.868088,2,2,2,House,House,False,689,m2,False
2016397368,listing,/228-flagstaff-road-lake-heights-nsw-2502-2016397368,410000,is-sold,Sold by private treaty 19 Aug 2020,20200819,228 Flagstaff Road,LAKE HEIGHTS,NSW,2502,-34.4789925,150.869415,2,2,2,House,House,False,455,m2,False
2015814666,listing,/19-lake-heights-road-lake-heights-nsw-2502-2015814666,520000,is-sold,Sold by private treaty 24 Mar 2020,20200324,19 Lake Heights Road,LAKE HEIGHTS,NSW,2502,-34.48081,150.868408,2,2,2,House,House,False,0,m2,False
2015823929,listing,/47-stuart-road-warrawong-nsw-2502-2015823929,517500,is-sold,Sold by private treaty 17 Mar 2020,20200317,47 Stuart Road,WARRAWONG,NSW,2502,-34.4899445,150.881454,3,3,3,House,House,False,626,m2,False
2015841746,listing,/23-newcastle-street-cringila-nsw-2502-2015841746,380000,is-sold,Sold by private treaty 11 Mar 2020,20200311,23 Newcastle Street,CRINGILA,NSW,2502,-34.4700127,150.87323,3,3,3,House,House,False,0,m2,False
2015866905,listing,/15-aitken-place-lake-heights-nsw-2502-2015866905,515000,is-sold,Sold by private treaty 28 Feb 2020,20200228,15 Aitken Place,LAKE HEIGHTS,NSW,2502,-34.48201,150.865021,NaN,NaN,NaN,VacantLand,Vacant land,False,1800,m2,False
2015911892,listing,/18-lake-heights-road-lake-heights-nsw-2502-2015911892,420000,is-sold,Sold by private treaty 06 Mar 2020,20200306,18 Lake Heights Road,LAKE HEIGHTS,NSW,2502,-34.48062,150.868,2,2,2,House,House,False,689,m2,False
2015972690,listing,/35-lake-avenue-cringila-nsw-2502-2015972690,429000,is-sold,Sold by private treaty 18 May 2020,20200518,35 Lake Avenue,CRINGILA,NSW,2502,-34.4723663,150.87146,2,2,2,House,House,False,563,m2,False
2016009468,listing,/46-illowra-crescent-primbee-nsw-2502-2016009468,630000,is-sold,Sold by private treaty 12 May 2020,20200512,46 Illowra Crescent,PRIMBEE,NSW,2502,-34.50041,150.883774,5,5,5,House,House,False,0,m2,False
2016034844,listing,/1-41-kemblawarra-road-warrawong-nsw-2502-2016034844,300000,is-sold,Sold by private treaty 16 Jun 2020,20200616,1/41 Kemblawarra Road,WARRAWONG,NSW,2502,-34.4909134,150.893661,2,2,2,ApartmentUnitFlat,Apartment / Unit / Flat,False,0,m2,False
2016054752,listing,/138-lake-avenue-cringila-nsw-2502-2016054752,380000,is-sold,Sold by private treaty 19 Jun 2020,20200619,138 Lake Avenue,CRINGILA,NSW,2502,-34.47554,150.871765,3,3,3,House,House,False,0,m2,False
2016102231,listing,/35-second-avenue-north-warrawong-nsw-2502-2016102231,705000,is-sold,Sold by private treaty 02 Apr 2020,20200402,35 Second Avenue North,WARRAWONG,NSW,2502,-34.482605,150.882431,4,4,4,House,House,False,677,m2,False
2016115892,listing,/18-golf-place-primbee-nsw-2502-2016115892,566000,is-sold,Sold at auction 02 Apr 2020,20200402,18 Golf Place,PRIMBEE,NSW,2502,-34.5073128,150.877136,2,2,2,House,House,False,0,m2,False
2016123225,listing,/6-claremont-avenue-lake-heights-nsw-2502-2016123225,429000,is-sold,Sold by private treaty 20 Mar 2020,20200320,6 Claremont Avenue,LAKE HEIGHTS,NSW,2502,-34.4837952,150.8645,2,2,2,House,House,False,650,m2,False
2016133575,listing,/46-trevor-avenue-lake-heights-nsw-2502-2016133575,601000,is-sold,Sold prior to auction 13 Mar 2020,20200313,46 Trevor Avenue,LAKE HEIGHTS,NSW,2502,-34.48737,150.869324,4,4,4,House,House,False,866,m2,False
2016170726,listing,/7-churchill-avenue-warrawong-nsw-2502-2016170726,570000,is-sold,Sold by private treaty 23 Jun 2020,20200623,7 Churchill Avenue,WARRAWONG,NSW,2502,-34.4829674,150.888824,3,3,3,House,House,False,0,m2,False
2016177078,listing,/4-mirrabooka-road-lake-heights-nsw-2502-2016177078,480000,is-sold,Sold by private treaty 08 Apr 2020,20200408,4 Mirrabooka Road,LAKE HEIGHTS,NSW,2502,-34.48167,150.871277,3,3,3,House,House,False,1126,m2,False
2016190666,listing,/41-vermont-road-warrawong-nsw-2502-2016190666,530000,is-sold,Sold by private treaty 28 Apr 2020,20200428,41 Vermont Road,WARRAWONG,NSW,2502,-34.4883156,150.877319,5,5,5,House,House,False,601,m2,False
2016213077,listing,/36-cringila-street-cringila-nsw-2502-2016213077,470000,is-sold,Sold by private treaty 20 Apr 2020,20200420,36 Cringila Street,CRINGILA,NSW,2502,-34.4714737,150.872131,4,4,4,House,House,False,557,m2,False
2016239089,listing,/302-cowper-street-warrawong-nsw-2502-2016239089,440000,is-sold,Sold by private treaty 01 Jun 2020,20200601,302 Cowper Street,WARRAWONG,NSW,2502,-34.48546,150.882431,3,3,3,House,House,False,0,m2,False
2016250941,listing,/270-flagstaff-road-lake-heights-nsw-2502-2016250941,560200,is-sold,Sold by private treaty 29 May 2020,20200529,270 Flagstaff Road,LAKE HEIGHTS,NSW,2502,-34.4788628,150.865509,3,3,3,House,House,False,601,m2,False
2016288048,listing,/10-bruce-road-warrawong-nsw-2502-2016288048,417000,is-sold,Sold by private treaty 16 Jun 2020,20200616,10 Bruce Road,WARRAWONG,NSW,2502,-34.4803429,150.881592,2,2,2,House,House,False,522,m2,False
2015518457,listing,/35-steel-street-cringila-nsw-2502-2015518457,478000,is-sold,Sold by private treaty 07 Feb 2020,20200207,35 Steel Street,CRINGILA,NSW,2502,-34.47092,150.872253,3,3,3,House,House,False,0,m2,False
2015540044,listing,/41-greene-street-warrawong-nsw-2502-2015540044,512000,is-sold,Sold by private treaty 19 Dec 2019,20191219,41 Greene Street,WARRAWONG,NSW,2502,-34.485096,150.8834,3,3,3,House,House,False,556,m2,False
2015689254,listing,/73-denise-street-lake-heights-nsw-2502-2015689254,529000,is-sold,Sold by private treaty 28 Jan 2020,20200128,73 Denise Street,LAKE HEIGHTS,NSW,2502,-34.48951,150.87323,3,3,3,House,House,False,696,m2,False
2015752009,listing,/3-trevor-avenue-lake-heights-nsw-2502-2015752009,830000,is-sold,Sold by private treaty 21 Feb 2020,20200221,3 Trevor Avenue,LAKE HEIGHTS,NSW,2502,-34.48842,150.872681,4,4,4,House,House,False,917,m2,False
2015762217,listing,/23-bethlehem-street-cringila-nsw-2502-2015762217,401000,is-sold,Sold by private treaty 08 Jan 2020,20200108,23 Bethlehem Street,CRINGILA,NSW,2502,-34.4690437,150.873459,4,4,4,House,House,False,572,m2,False
2015767786,listing,/21-backhouse-road-lake-heights-nsw-2502-2015767786,317500,is-sold,Sold by private treaty 11 Feb 2020,20200211,21 Backhouse Road,LAKE HEIGHTS,NSW,2502,-34.4795532,150.8664,NaN,NaN,NaN,VacantLand,Vacant land,False,573,m2,False
2015820768,listing,/36-minnegang-street-warrawong-nsw-2502-2015820768,670000,is-sold,Sold by private treaty 25 Feb 2020,20200225,36 Minnegang Street,WARRAWONG,NSW,2502,-34.48433,150.87677,5,5,5,House,House,False,620,m2,False
2015850532,listing,/4-30-32-kemblawarra-road-warrawong-nsw-2502-2015850532,Price Withheld,is-sold,Sold by private treaty 06 Feb 2020,20200206,4/30-32 Kemblawarra Road,WARRAWONG,NSW,2502,-34.4917564,150.890656,3,3,3,Townhouse,Townhouse,False,0,m2,False
2015879506,listing,/57-grandview-parade-lake-heights-nsw-2502-2015879506,675000,is-sold,Sold by private treaty 22 Feb 2020,20200222,57 Grandview Parade,LAKE HEIGHTS,NSW,2502,-34.48726,150.86441,3,3,3,House,House,False,828,m2,False
2015894560,listing,/2-arnold-crescent-lake-heights-nsw-2502-2015894560,600000,is-sold,Sold by private treaty 19 Dec 2019,20191219,2 Arnold Crescent,LAKE HEIGHTS,NSW,2502,-34.48317,150.862869,4,4,4,House,House,False,563,m2,False
2015897775,listing,/8-hoskins-avenue-warrawong-nsw-2502-2015897775,550000,is-sold,Sold by private treaty 21 Feb 2020,20200221,8 Hoskins Avenue,WARRAWONG,NSW,2502,-34.4906845,150.892212,2,2,2,House,House,False,911,m2,False
2015902836,listing,/41b-korrongulla-crescent-primbee-nsw-2502-2015902836,560000,is-sold,Sold by private treaty 24 Jan 2020,20200124,41B Korrongulla Crescent,PRIMBEE,NSW,2502,-34.50191,150.881454,3,3,3,House,House,False,0,m2,False
2015935006,listing,/3-illowra-parkway-primbee-nsw-2502-2015935006,725000,is-sold,Sold by private treaty 20 Dec 2019,20191220,3 Illowra Parkway,PRIMBEE,NSW,2502,-34.50082,150.885,4,4,4,House,House,False,0,m2,False
2015962582,listing,/66-jane-avenue-warrawong-nsw-2502-2015962582,500000,is-sold,Sold by private treaty 04 Feb 2020,20200204,66 Jane Avenue,WARRAWONG,NSW,2502,-34.4861,150.873779,3,3,3,House,House,False,0,m2,False
2015997799,listing,/91-lake-heights-road-lake-heights-nsw-2502-2015997799,650000,is-sold,Sold by private treaty 17 Jan 2020,20200117,91 Lake Heights Road,LAKE HEIGHTS,NSW,2502,-34.4862442,150.866,3,3,3,House,House,False,790,m2,False
2016011013,listing,/5-northcliffe-drive-lake-heights-nsw-2502-2016011013,645000,is-sold,Sold at auction 15 Feb 2020,20200215,5 Northcliffe Drive,LAKE HEIGHTS,NSW,2502,-34.4918175,150.87204,3,3,3,House,House,False,640,m2,False
2016040771,listing,/38-first-avenue-north-warrawong-nsw-2502-2016040771,486000,is-sold,Sold by private treaty 19 Feb 2020,20200219,38 First Avenue North,WARRAWONG,NSW,2502,-34.48067,150.884491,3,3,3,House,House,False,531,m2,False
2016055029,listing,/20-second-ave-north-warrawong-nsw-2502-2016055029,625000,is-sold,Sold by private treaty 11 Feb 2020,20200211,20 Second Ave North,WARRAWONG,NSW,2502,-34.4831924,150.881546,3,3,3,House,House,False,531,m2,False
2016059024,listing,/22-lee-street-warrawong-nsw-2502-2016059024,475000,is-sold,Sold by private treaty 20 Feb 2020,20200220,22 Lee Street,WARRAWONG,NSW,2502,-34.48751,150.882446,3,3,3,House,House,False,613,m2,False
2016123093,listing,/96-lake-heights-road-lake-heights-nsw-2502-2016123093,450000,is-sold,Sold by private treaty 23 Jan 2020,20200123,96 Lake Heights Road,LAKE HEIGHTS,NSW,2502,-34.48623,150.865372,2,2,2,House,House,False,885,m2,False
2014936721,listing,/81-vermont-road-warrawong-nsw-2502-2014936721,720000,is-sold,Sold by private treaty 29 Nov 2019,20191129,81 Vermont Road,WARRAWONG,NSW,2502,-34.4854355,150.878586,4,4,4,House,House,False,0,m2,False
2015282769,listing,/40-illowra-parkway-primbee-nsw-2502-2015282769,500000,is-sold,Sold by private treaty 13 Dec 2019,20191213,40 Illowra Parkway,PRIMBEE,NSW,2502,-34.50069,150.886322,3,3,3,House,House,False,649,m2,False
2015353523,listing,/15-dorman-street-cringila-nsw-2502-2015353523,410000,is-sold,Sold by private treaty 25 Nov 2019,20191125,15 Dorman Street,CRINGILA,NSW,2502,-34.46997,150.8691,3,3,3,House,House,False,446,m2,False
2015394830,listing,/31-hassan-street-lake-heights-nsw-2502-2015394830,300000,is-sold,Sold by private treaty 15 Dec 2019,20191215,31 Hassan Street,LAKE HEIGHTS,NSW,2502,-34.486042,150.861969,NaN,NaN,NaN,VacantLand,Vacant land,False,556,m2,False
2015445088,listing,/16-6-eyre-place-warrawong-nsw-2502-2015445088,310000,is-sold,Sold by private treaty 05 Dec 2019,20191205,16/6 Eyre Place,WARRAWONG,NSW,2502,-34.4812,150.879868,2,2,2,ApartmentUnitFlat,Apartment / Unit / Flat,False,0,m2,False
2015499846,listing,/14-derowie-crescent-lake-heights-nsw-2502-2015499846,473000,is-sold,Sold by private treaty 25 Nov 2019,20191125,14 Derowie Crescent,LAKE HEIGHTS,NSW,2502,-34.484745,150.868958,3,3,3,House,House,False,0,m2,False
2015522041,listing,/14-jacana-place-lake-heights-nsw-2502-2015522041,840000,is-sold,Sold by private treaty 08 Nov 2019,20191108,14 Jacana Place,LAKE HEIGHTS,NSW,2502,-34.47778,150.863831,6,6,6,House,House,False,842,m2,False
2015632594,listing,/79-lake-avenue-cringila-nsw-2502-2015632594,440000,is-sold,Sold by private treaty 28 Nov 2019,20191128,79 Lake Avenue,CRINGILA,NSW,2502,-34.47825,150.872025,4,4,4,House,House,False,430,m2,False
2015675201,listing,/41-second-avenue-north-warrawong-nsw-2502-2015675201,645000,is-sold,Sold by private treaty 12 Nov 2019,20191112,41 Second Avenue North,WARRAWONG,NSW,2502,-34.48221,150.882629,4,4,4,House,House,False,495,m2,False
2015689344,listing,/18a-grattan-street-cringila-nsw-2502-2015689344,744000,is-sold,Sold prior to auction 11 Nov 2019,20191111,18A Grattan Street,CRINGILA,NSW,2502,-34.4779434,150.869644,4,4,4,House,House,False,578,m2,False
2015776053,listing,/132-windang-road-primbee-nsw-2502-2015776053,1030000,is-sold,Sold by private treaty 08 Nov 2019,20191108,132 Windang Road,PRIMBEE,NSW,2502,-34.5154877,150.872345,5,5,5,House,House,False,1764,m2,False
2015776543,listing,/17-sheffield-street-cringila-nsw-2502-2015776543,435000,is-sold,Sold by private treaty 15 Nov 2019,20191115,17 Sheffield Street,CRINGILA,NSW,2502,-34.4705772,150.870361,3,3,3,House,House,False,639,m2,False
2015780808,listing,/62-barina-avenue-lake-heights-nsw-2502-2015780808,630000,is-sold,Sold by private treaty 18 Nov 2019,20191118,62 Barina Avenue,LAKE HEIGHTS,NSW,2502,-34.484,150.8685,4,4,4,House,House,False,556,m2,False
2015781866,listing,/273-flagstaff-road-lake-heights-nsw-2502-2015781866,497500,is-sold,Sold at auction 11 Nov 2019,20191111,273 Flagstaff Road,LAKE HEIGHTS,NSW,2502,-34.48102,150.863144,3,3,3,House,House,False,716,m2,False
2015797187,listing,/27a-windang-road-primbee-nsw-2502-2015797187,295000,is-sold,Sold by private treaty 08 Nov 2019,20191108,27A Windang Road,PRIMBEE,NSW,2502,-34.506588,150.87619,NaN,NaN,NaN,VacantLand,Vacant land,False,798,m2,False
2015802227,listing,/21-ranchby-avenue-lake-heights-nsw-2502-2015802227,520000,is-sold,Sold by private treaty 02 Dec 2019,20191202,21 Ranchby Avenue,LAKE HEIGHTS,NSW,2502,-34.48199,150.866089,3,3,3,House,House,False,860,m2,False
2015832326,listing,/31-cringila-street-cringila-nsw-2502-2015832326,405000,is-sold,Sold by private treaty 12 Dec 2019,20191212,31 Cringila Street,CRINGILA,NSW,2502,-34.4719162,150.872314,3,3,3,House,House,False,597,m2,False
2015864595,listing,/1-illowra-crescent-primbee-nsw-2502-2015864595,568500,is-sold,Sold prior to auction 27 Nov 2019,20191127,1 Illowra Crescent,PRIMBEE,NSW,2502,-34.4998436,150.887222,3,3,3,House,House,False,866,m2,False
2015870364,listing,/16-first-avenue-north-warrawong-nsw-2502-2015870364,512515,is-sold,Sold by private treaty 03 Dec 2019,20191203,16 First Avenue North,WARRAWONG,NSW,2502,-34.4799652,150.885544,3,3,3,House,House,False,683,m2,False
2016254066,listing,/58-illowra-crescent-primbee-nsw-2502-2016254066,750000,is-sold,Sold by private treaty 18 Dec 2019,20191218,58 Illowra Crescent,PRIMBEE,NSW,2502,-34.50067,150.882431,3,3,3,House,House,False,0,m2,False
2014819974,listing,/284-flagstaff-road-lake-heights-nsw-2502-2014819974,500000,is-sold,Sold by private treaty 08 Oct 2019,20191008,284 Flagstaff Road,LAKE HEIGHTS,NSW,2502,-34.4796028,150.864685,3,3,3,House,House,False,601,m2,False
2014920101,listing,/7a-canberra-road-lake-heights-nsw-2502-2014920101,630000,is-sold,Sold by private treaty 23 Oct 2019,20191023,7A Canberra Road,LAKE HEIGHTS,NSW,2502,-34.4893456,150.871643,4,4,4,House,House,False,283,m2,False
2014967199,listing,/2b-hoskins-avenue-warrawong-nsw-2502-2014967199,390000,is-sold,Sold by private treaty 05 Nov 2019,20191105,2B Hoskins Avenue,WARRAWONG,NSW,2502,-34.49074,150.893036,2,2,2,Townhouse,Townhouse,False,0,m2,False
2015225480,listing,/30-jackson-avenue-warrawong-nsw-2502-2015225480,660000,is-sold,Sold by private treaty 25 Sep 2019,20190925,30 Jackson Avenue,WARRAWONG,NSW,2502,-34.4892921,150.876923,5,5,5,BlockOfUnits,Block of Units,False,0,m2,False
2015431273,listing,/5-6-eyre-place-warrawong-nsw-2502-2015431273,307524,is-sold,Sold by private treaty 17 Oct 2019,20191017,5/6 Eyre Place,WARRAWONG,NSW,2502,-34.4812,150.879868,2,2,2,ApartmentUnitFlat,Apartment / Unit / Flat,False,0,m2,False
2015447334,listing,/45-whimbrel-avenue-lake-heights-nsw-2502-2015447334,660000,is-sold,Sold by private treaty 01 Oct 2019,20191001,45 Whimbrel Avenue,LAKE HEIGHTS,NSW,2502,-34.47878,150.864868,4,4,4,House,House,False,987,m2,False
2015456293,listing,/64-lake-avenue-cringila-nsw-2502-2015456293,390000,is-sold,Sold by private treaty 20 Sep 2019,20190920,64 Lake Avenue,CRINGILA,NSW,2502,-34.4707336,150.871277,3,3,3,House,House,False,739,m2,False
2015479669,listing,/149-lakeview-parade-primbee-nsw-2502-2015479669,670000,is-sold,Sold by private treaty 19 Sep 2019,20190919,149 Lakeview Parade,PRIMBEE,NSW,2502,-34.50149,150.874817,4,4,4,House,House,False,828,m2,False
2015507044,listing,/19-jane-avenue-warrawong-nsw-2502-2015507044,465000,is-sold,Sold by private treaty 15 Oct 2019,20191015,19 Jane Avenue,WARRAWONG,NSW,2502,-34.4837837,150.8756,3,3,3,House,House,False,556,m2,False
2015511919,listing,/3a-korrongulla-crescent-primbee-nsw-2502-2015511919,745000,is-sold,Sold by private treaty 04 Nov 2019,20191104,3A Korrongulla Crescent,PRIMBEE,NSW,2502,-34.5024529,150.886124,4,4,4,House,House,False,0,m2,False
2015516018,listing,/36-second-avenue-north-warrawong-nsw-2502-2015516018,735000,is-sold,Sold by private treaty 23 Oct 2019,20191023,36 Second Avenue North,WARRAWONG,NSW,2502,-34.4822655,150.88208,3,3,3,House,House,False,518,m2,False
2015528779,listing,/21-noble-parade-lake-heights-nsw-2502-2015528779,550000,is-sold,Sold at auction 12 Sep 2019,20190912,21 Noble Parade,LAKE HEIGHTS,NSW,2502,-34.4823875,150.863373,3,3,3,House,House,False,860,m2,False
2015529803,listing,/26-denise-street-lake-heights-nsw-2502-2015529803,502000,is-sold,Sold by private treaty 16 Sep 2019,20190916,26 Denise Street,LAKE HEIGHTS,NSW,2502,-34.4874077,150.871582,3,3,3,House,House,False,556,m2,False
2015625340,listing,/133-flagstaff-road-warrawong-nsw-2502-2015625340,490000,is-sold,Sold by private treaty 10 Oct 2019,20191010,133 Flagstaff Road,WARRAWONG,NSW,2502,-34.4794922,150.87645,3,3,3,House,House,False,556,m2,False
2015651893,listing,/62-grand-view-parade-lake-heights-nsw-2502-2015651893,530000,is-sold,Sold by private treaty 16 Oct 2019,20191016,62 Grand View Parade,LAKE HEIGHTS,NSW,2502,-34.486702,150.863953,3,3,3,House,House,False,689,m2,False
2015680628,listing,/18-hoskins-avenue-warrawong-nsw-2502-2015680628,545000,is-sold,Sold by private treaty 10 Oct 2019,20191010,18 Hoskins Avenue,WARRAWONG,NSW,2502,-34.4905663,150.891312,4,4,4,House,House,False,0,m2,False
2015726882,listing,/41-merrett-avenue-cringila-nsw-2502-2015726882,565000,is-sold,Sold by private treaty 06 Nov 2019,20191106,41 Merrett Avenue,CRINGILA,NSW,2502,-34.466713,150.8715,5,5,5,House,House,False,930,m2,False
2015763392,listing,/4-grandview-lake-heights-nsw-2502-2015763392,450000,is-sold,Sold by private treaty 15 Oct 2019,20191015,4 Grandview,LAKE HEIGHTS,NSW,2502,-34.4854,150.866,3,3,3,House,House,False,0,m2,False
2015769448,listing,/68-flagstaff-road-warrawong-nsw-2502-2015769448,700000,is-sold,Sold by private treaty 29 Oct 2019,20191029,68 Flagstaff Road,WARRAWONG,NSW,2502,-34.4788742,150.882309,4,4,4,House,House,False,0,m2,False
2015780474,listing,/161-shearwater-drive-lake-heights-nsw-2502-2015780474,740000,is-sold,Sold prior to auction 07 Nov 2019,20191107,161 Shearwater Drive,LAKE HEIGHTS,NSW,2502,-34.47751,150.868408,4,4,4,House,House,False,0,m2,False
2014389257,listing,/285-flagstaff-road-lake-heights-nsw-2502-2014389257,625000,is-sold,Sold by private treaty 09 Jul 2019,20190709,285 Flagstaff Road,LAKE HEIGHTS,NSW,2502,-34.48079,150.862091,5,5,5,House,House,False,627,m2,False
2014805405,listing,/65-second-avenue-north-warrawong-nsw-2502-2014805405,448000,is-sold,Sold by private treaty 28 Jun 2019,20190628,65 Second Avenue North,WARRAWONG,NSW,2502,-34.4810448,150.883911,3,3,3,House,House,False,810,m2,False
2015002280,listing,/129-cowper-street-warrawong-nsw-2502-2015002280,325000,is-sold,Sold by private treaty 25 Jun 2019,20190625,129 Cowper Street,WARRAWONG,NSW,2502,-34.479805,150.877014,2,2,2,House,House,False,664,m2,False
2015011729,listing,/10-6-eyre-place-warrawong-nsw-2502-2015011729,300000,is-sold,Sold by private treaty 05 Jul 2019,20190705,10/6 Eyre Place,WARRAWONG,NSW,2502,-34.4812,150.879868,2,2,2,ApartmentUnitFlat,Apartment / Unit / Flat,False,0,m2,False
2015020839,listing,/157b-shearwater-drive-lake-heights-nsw-2502-2015020839,645000,is-sold,Sold by private treaty 05 Jul 2019,20190705,157B Shearwater Drive,LAKE HEIGHTS,NSW,2502,-34.477417,150.868027,3,3,3,SemiDetached,Semi-Detached,False,0,m2,False
2015125189,listing,/20-korrongulla-crescent-primbee-nsw-2502-2015125189,590000,is-sold,Sold by private treaty 17 Jun 2019,20190617,20 Korrongulla Crescent,PRIMBEE,NSW,2502,-34.5014267,150.881256,4,4,4,House,House,False,321,m2,False
2015143868,listing,/44-lee-street-warrawong-nsw-2502-2015143868,375000,is-sold,Sold by private treaty 21 Jun 2019,20190621,44 Lee Street,WARRAWONG,NSW,2502,-34.4885445,150.881088,3,3,3,House,House,False,538,m2,False
2015178575,listing,/16-birmingham-street-cringila-nsw-2502-2015178575,595000,is-sold,Sold by private treaty 26 Aug 2019,20190826,16 Birmingham Street,CRINGILA,NSW,2502,-34.46771,150.874268,5,5,5,House,House,False,503,m2,False
2015207185,listing,/100-lake-heights-road-lake-heights-nsw-2502-2015207185,490000,is-sold,Sold by private treaty 07 Jun 2019,20190607,100 Lake Heights Road,LAKE HEIGHTS,NSW,2502,-34.48651,150.865509,4,4,4,House,House,False,1195,m2,False
2015289915,listing,/21-northcliffe-drive-lake-heights-nsw-2502-2015289915,600000,is-sold,Sold by private treaty 29 Aug 2019,20190829,21 Northcliffe Drive,LAKE HEIGHTS,NSW,2502,-34.49161,150.870636,3,3,3,House,House,False,607,m2,False
2015315722,listing,/18-buena-vista-avenue-lake-heights-nsw-2502-2015315722,560000,is-sold,Sold by private treaty 08 Aug 2019,20190808,18 Buena Vista Avenue,LAKE HEIGHTS,NSW,2502,-34.48618,150.867126,3,3,3,House,House,False,885,m2,False
2015318368,listing,/352-northcliff-drive-lake-heights-nsw-2502-2015318368,490000,is-sold,Sold by private treaty 28 Jun 2019,20190628,352 Northcliff Drive,LAKE HEIGHTS,NSW,2502,-34.4875259,150.86377,3,3,3,House,House,False,481,m2,False
2015398591,listing,/374-northcliffe-drive-lake-heights-nsw-2502-2015398591,462500,is-sold,Sold by private treaty 26 Aug 2019,20190826,374 Northcliffe Drive,LAKE HEIGHTS,NSW,2502,-34.4865761,150.862091,3,3,3,House,House,False,639,m2,False
2015406904,listing,/16-bruce-road-warrawong-nsw-2502-2015406904,480000,is-sold,Sold by private treaty 05 Aug 2019,20190805,16 Bruce Road,WARRAWONG,NSW,2502,-34.48059,150.8819,3,3,3,House,House,False,530,m2,False
2015431507,listing,/24-trevor-avenue-lake-heights-nsw-2502-2015431507,699000,is-sold,Sold by private treaty 25 Jul 2019,20190725,24 Trevor Avenue,LAKE HEIGHTS,NSW,2502,-34.4881,150.870987,6,6,6,House,House,False,1303,m2,False
2015438424,listing,/21-barry-street-cringila-nsw-2502-2015438424,500000,is-sold,Sold by private treaty 16 Aug 2019,20190816,21 Barry Street,CRINGILA,NSW,2502,-34.46768,150.870865,3,3,3,ApartmentUnitFlat,Apartment / Unit / Flat,False,0,m2,False
2015440084,listing,/35-first-avenue-north-warrawong-nsw-2502-2015440084,435000,is-sold,Sold by private treaty 05 Sep 2019,20190905,35 First Avenue North,WARRAWONG,NSW,2502,-34.481472,150.885132,2,2,2,House,House,False,531,m2,False
2015447603,listing,/79c-vermont-road-warrawong-nsw-2502-2015447603,580500,is-sold,Sold by private treaty 23 Aug 2019,20190823,79C Vermont Road,WARRAWONG,NSW,2502,-34.4855766,150.8786,3,3,3,House,House,False,708,m2,False
2015457708,listing,/18-lake-avenue-cringila-nsw-2502-2015457708,400000,is-sold,Sold by private treaty 06 Aug 2019,20190806,18 Lake Avenue,CRINGILA,NSW,2502,-34.4672928,150.872025,3,3,3,House,House,False,0,m2,False
2015553753,listing,/6-bent-street-warrawong-nsw-2502-2015553753,499000,is-sold,Sold by private treaty 23 Aug 2019,20190823,6 Bent Street,WARRAWONG,NSW,2502,-34.4806671,150.8863,3,3,3,House,House,False,632,m2,False
