id,listingType,url,price,tagClassName,tagText,date,street,suburb,state,postcode,lat,lng,beds,baths,parking,propertyType,propertyTypeFormatted,isRural,landSize,landUnit,isRetirement
2017892698,listing,/1-13-15-russell-street-woonona-nsw-2517-2017892698,765000,is-sold,Sold by private treaty 25 Jan 2023,20230125,1/13-15 Russell Street,WOONONA,NSW,2517,-34.3408279,150.908783,2,2,2,ApartmentUnitFlat,Apartment / Unit / Flat,False,0.0,m2,False
2018115143,listing,/8-stanhope-street-woonona-nsw-2517-2018115143,1450000,is-sold,Sold by private treaty 06 Feb 2023,20230206,8 Stanhope Street,WOONONA,NSW,2517,-34.3504562,150.904312,4,4,4,House,House,False,689.0,m2,False
2018161813,listing,/4-2-forestview-way-woonona-nsw-2517-2018161813,700000,is-sold,Sold by private treaty 10 Jan 2023,20230110,4/2 Forestview Way,WOONONA,NSW,2517,-34.3477936,150.9036,3,3,3,ApartmentUnitFlat,Apartment / Unit / Flat,False,0.0,m2,False
2018162270,listing,/6-stanhope-street-woonona-nsw-2517-2018162270,1675000,is-sold,Sold at auction 22 Dec 2022,20221222,6 Stanhope Street,WOONONA,NSW,2517,-34.3505669,150.904083,4,4,4,House,House,False,689.0,m2,False
2018208072,listing,/11b-lighthorse-drive-woonona-nsw-2517-2018208072,2020000,is-sold,Sold by private treaty 24 Jan 2023,20230124,11b Lighthorse Drive,WOONONA,NSW,2517,-34.3554764,150.917389,3,3,3,House,House,False,0.0,m2,False
2018241915,listing,/9-peppermint-circuit-woonona-nsw-2517-2018241915,1425000,is-sold,Sold by private treaty 15 Feb 2023,20230215,9 Peppermint Circuit,WOONONA,NSW,2517,-34.346035,150.8969,3,3,3,House,House,False,450.0,m2,False
2018270895,listing,/3-mountain-avenue-woonona-nsw-2517-2018270895,1400000,is-sold,Sold by private treaty 22 Feb 2023,20230222,3 Mountain Avenue,WOONONA,NSW,2517,-34.33936,150.901688,3,3,3,House,House,False,788.0,m2,False
2018270909,listing,/15-chenhalls-street-woonona-nsw-2517-2018270909,1230000,is-sold,Sold by private treaty 30 Jan 2023,20230130,15 Chenhalls Street,WOONONA,NSW,2517,-34.3495636,150.90744,3,3,3,House,House,False,556.0,m2,False
2018290747,listing,/36-mountain-avenue-woonona-nsw-2517-2018290747,1512500,is-sold,Sold by private treaty 06 Feb 2023,20230206,36 Mountain Avenue,WOONONA,NSW,2517,-34.34062,150.9008,4,4,4,House,House,False,803.0,m2,False
2018291161,listing,/7-60-62-keerong-avenue-russell-vale-nsw-2517-2018291161,685000,is-sold,Sold by private treaty 20 Jan 2023,20230120,7/60-62 Keerong Avenue,RUSSELL VALE,NSW,2517,-34.36006,150.901459,2,2,2,Townhouse,Townhouse,False,0.0,m2,False
2018296263,listing,/19-john-street-woonona-nsw-2517-2018296263,1140000,is-sold,Sold by private treaty 07 Feb 2023,20230207,19 John Street,WOONONA,NSW,2517,-34.3497849,150.909988,3,3,3,House,House,False,584.0,m2,False
2018296532,listing,/1-7-high-street-woonona-nsw-2517-2018296532,770000,is-sold,Sold by private treaty 01 Mar 2023,20230301,1/7 High Street,WOONONA,NSW,2517,-34.3432236,150.902512,2,2,2,Villa,Villa,False,0.0,m2,False
2018301830,listing,/30-mountain-avenue-woonona-nsw-2517-2018301830,1750000,is-sold,Sold by private treaty 24 Feb 2023,20230224,30 Mountain Avenue,WOONONA,NSW,2517,-34.3402176,150.90094,5,5,5,House,House,False,853.0,m2,False
2018302424,listing,/53-blueberry-circuit-woonona-nsw-2517-2018302424,,is-sold,Sold by private treaty 14 Feb 2023,20230214,53 Blueberry Circuit,WOONONA,NSW,2517,-34.3453178,150.901169,4,4,4,House,House,False,473.0,m2,False
2018302727,listing,/29-alfred-street-woonona-nsw-2517-2018302727,,is-sold,Sold by private treaty 24 Feb 2023,20230224,29 Alfred Street,WOONONA,NSW,2517,-34.3480453,150.906036,3,3,3,House,House,False,0.0,m2,False
2018305465,listing,/10-60-62-keerong-avenue-russell-vale-nsw-2517-2018305465,825000,is-sold,Sold by private treaty 09 Jan 2023,20230109,10/60-62 Keerong Avenue,RUSSELL VALE,NSW,2517,-34.36006,150.901459,3,3,3,Townhouse,Townhouse,False,0.0,m2,False
2018308327,listing,/14-woonona-parade-woonona-nsw-2517-2018308327,1000000,is-sold,Sold by private treaty 09 Feb 2023,20230209,14 Woonona Parade,WOONONA,NSW,2517,-34.34104,150.902435,2,2,2,House,House,False,743.0,m2,False
2018324656,listing,/29-royal-crescent-woonona-nsw-2517-2018324656,1890000,is-sold,Sold at auction 01 Mar 2023,20230301,29 Royal Crescent,WOONONA,NSW,2517,-34.3524475,150.916443,3,3,3,House,House,False,639.0,m2,False
2018336897,listing,/4-65-campbell-street-woonona-nsw-2517-2018336897,720000,is-sold,Sold by private treaty 15 Feb 2023,20230215,4/65 Campbell Street,WOONONA,NSW,2517,-34.3437462,150.913422,2,2,2,ApartmentUnitFlat,Apartment / Unit / Flat,False,0.0,m2,False
2018356412,listing,/29-harriet-spearing-drive-woonona-nsw-2517-2018356412,2460000,is-sold,Sold by private treaty 03 Feb 2023,20230203,29 Harriet Spearing Drive,WOONONA,NSW,2517,-34.3582039,150.9169,,,,House,House,False,0.0,m2,False
2017875342,listing,/24-kareela-road-woonona-nsw-2517-2017875342,2500000,is-sold,Sold by private treaty 16 Dec 2022,20221216,24 Kareela Road,WOONONA,NSW,2517,-34.34725,150.9189,3,3,3,House,House,False,588.0,m2,False
2018050601,listing,/2-32a-popes-road-woonona-nsw-2517-2018050601,1130000,is-sold,Sold by private treaty 02 Dec 2022,20221202,2/32a Popes Road,WOONONA,NSW,2517,-34.34198,150.900391,3,3,3,Townhouse,Townhouse,False,0.0,m2,False
2018086051,listing,/12-monie-street-woonona-nsw-2517-2018086051,875000,is-sold,Sold by private treaty 18 Nov 2022,20221118,12 Monie Street,WOONONA,NSW,2517,-34.34914,150.90834,3,3,3,House,House,False,316.0,m2,False
2018093026,listing,/4-392-princes-highway-woonona-nsw-2517-2018093026,680000,is-sold,Sold by private treaty 05 Dec 2022,20221205,4/392 Princes Highway,WOONONA,NSW,2517,-34.34136,150.9059,2,2,2,ApartmentUnitFlat,Apartment / Unit / Flat,False,0.0,m2,False
2018130598,listing,/40-corrie-road-woonona-nsw-2517-2018130598,1200000,is-sold,Sold by private treaty 05 Dec 2022,20221205,40 Corrie Road,WOONONA,NSW,2517,-34.33616,150.901672,3,3,3,House,House,False,797.0,m2,False
2018132275,listing,/7-13-luxor-street-woonona-nsw-2517-2018132275,950000,is-sold,Sold by private treaty 08 Dec 2022,20221208,7/13 Luxor Street,WOONONA,NSW,2517,-34.3400879,150.906586,3,3,3,Villa,Villa,False,0.0,m2,False
2018134539,listing,/8-16-campbell-street-woonona-nsw-2517-2018134539,,is-sold,Sold by private treaty 07 Dec 2022,20221207,8/16 Campbell Street,WOONONA,NSW,2517,-34.34383,150.918808,3,3,3,Townhouse,Townhouse,False,0.0,m2,False
2018145774,listing,/5-115-campbell-street-woonona-nsw-2517-2018145774,920000,is-sold,Sold by private treaty 20 Dec 2022,20221220,5/115 Campbell Street,WOONONA,NSW,2517,-34.3431,150.909439,3,3,3,Townhouse,Townhouse,False,0.0,m2,False
2018153624,listing,/3-west-street-russell-vale-nsw-2517-2018153624,980000,is-sold,Sold by private treaty 07 Dec 2022,20221207,3 West Street,RUSSELL VALE,NSW,2517,-34.35696,150.896484,3,3,3,House,House,False,645.0,m2,False
2018156287,listing,/21-stephen-drive-woonona-nsw-2517-2018156287,,is-sold,Sold by private treaty 15 Dec 2022,20221215,21 Stephen Drive,WOONONA,NSW,2517,-34.334446,150.897675,3,3,3,House,House,False,1840.0,m2,False
2018162910,listing,/43-williams-crescent-russell-vale-nsw-2517-2018162910,1550000,is-sold,Sold by private treaty 28 Nov 2022,20221128,43 Williams Crescent,RUSSELL VALE,NSW,2517,-34.356945,150.905762,4,4,4,House,House,False,658.0,m2,False
2018168238,listing,/10-51-53-russell-street-woonona-nsw-2517-2018168238,700000,is-sold,Sold by private treaty 25 Nov 2022,20221125,10/51-53 Russell Street,WOONONA,NSW,2517,-34.3411636,150.91127,2,2,2,Townhouse,Townhouse,False,175.0,m2,False
2018172883,listing,/38-kurraba-road-woonona-nsw-2517-2018172883,2400000,is-sold,Sold by private treaty 06 Dec 2022,20221206,38 Kurraba Road,WOONONA,NSW,2517,-34.3481178,150.918716,3,3,3,House,House,False,600.0,m2,False
2018175180,listing,/12-channon-street-russell-vale-nsw-2517-2018175180,1012500,is-sold,Sold by private treaty 19 Dec 2022,20221219,12 Channon Street,RUSSELL VALE,NSW,2517,-34.3595276,150.903625,3,3,3,House,House,False,601.0,m2,False
2018188710,listing,/41-stephen-drive-woonona-nsw-2517-2018188710,1175000,is-sold,Sold prior to auction 23 Nov 2022,20221123,41 Stephen Drive,WOONONA,NSW,2517,-34.33558,150.898224,3,3,3,House,House,False,556.0,m2,False
2018191646,listing,/2-60-62-keerong-avenue-russell-vale-nsw-2517-2018191646,705600,is-sold,Sold by private treaty 18 Nov 2022,20221118,2/60-62 Keerong Avenue,RUSSELL VALE,NSW,2517,-34.36006,150.901459,2,2,2,Townhouse,Townhouse,False,0.0,m2,False
2018205951,listing,/13-18-high-street-woonona-nsw-2517-2018205951,460000,is-sold,Sold by private treaty 02 Dec 2022,20221202,13/18 High Street,WOONONA,NSW,2517,-34.3432465,150.9013,1,1,1,ApartmentUnitFlat,Apartment / Unit / Flat,False,0.0,m2,False
2018206005,listing,/8-hale-street-woonona-nsw-2517-2018206005,1615000,is-sold,Sold at auction 14 Dec 2022,20221214,8 Hale Street,WOONONA,NSW,2517,-34.349247,150.906143,5,5,5,House,House,False,696.0,m2,False
2018210679,listing,/22-beach-drive-woonona-nsw-2517-2018210679,3400000,is-sold,Sold by private treaty 20 Dec 2022,20221220,22 Beach Drive,WOONONA,NSW,2517,-34.35139,150.918686,4,4,4,House,House,False,556.0,m2,False
2018219989,listing,/1-1-cornelius-o-brien-way-woonona-nsw-2517-2018219989,915000,is-sold,Sold by private treaty 01 Dec 2022,20221201,1/1 Cornelius O'brien Way,WOONONA,NSW,2517,-34.3603554,150.911957,3,3,3,Villa,Villa,False,0.0,m2,False
2017756468,listing,/6-35-nicholson-road-woonona-nsw-2517-2017756468,920000,is-sold,Sold by private treaty 28 Oct 2022,20221028,6/35 Nicholson Road,WOONONA,NSW,2517,-34.3446426,150.908737,3,3,3,Townhouse,Townhouse,False,0.0,m2,False
2017964878,listing,/26-east-street-russell-vale-nsw-2517-2017964878,917200,is-sold,Sold by private treaty 16 Nov 2022,20221116,26 East Street,RUSSELL VALE,NSW,2517,-34.3574028,150.899261,3,3,3,House,House,False,696.0,m2,False
2018033754,listing,/12-harriet-spearing-drive-woonona-nsw-2517-2018033754,1550000,is-sold,Sold by private treaty 10 Nov 2022,20221110,12 Harriet Spearing Drive,WOONONA,NSW,2517,-34.3564339,150.915115,3,3,3,House,House,False,667.0,m2,False
2018050075,listing,/23-watergum-way-woonona-nsw-2517-2018050075,1000000,is-sold,Sold by private treaty 03 Nov 2022,20221103,23 Watergum Way,WOONONA,NSW,2517,-34.3490562,150.89949,3,3,3,SemiDetached,Semi-Detached,False,364.0,m2,False
2018058667,listing,/2-5-hopetoun-street-woonona-nsw-2517-2018058667,720000,is-sold,Sold by private treaty 28 Oct 2022,20221028,2/5 Hopetoun Street,WOONONA,NSW,2517,-34.3403931,150.912354,2,2,2,Villa,Villa,False,0.0,m2,False
2018089424,listing,/96a-popes-road-woonona-nsw-2517-2018089424,1600000,is-sold,Sold by private treaty 04 Nov 2022,20221104,96a Popes Road,WOONONA,NSW,2517,-34.3400536,150.895721,4,4,4,House,House,False,4001.0,m2,False
2018089756,listing,/47-forestview-way-woonona-nsw-2517-2018089756,1050000,is-sold,Sold by private treaty 08 Nov 2022,20221108,47 Forestview Way,WOONONA,NSW,2517,-34.3471832,150.898575,4,4,4,House,House,False,0.0,m2,False
2018098690,listing,/9-collaery-road-russell-vale-nsw-2517-2018098690,1450000,is-sold,Sold by private treaty 16 Nov 2022,20221116,9 Collaery Road,RUSSELL VALE,NSW,2517,-34.3567047,150.907059,4,4,4,House,House,False,978.0,m2,False
2018106059,listing,/1-pendlebury-parade-woonona-nsw-2517-2018106059,1451000,is-sold,Sold by private treaty 10 Nov 2022,20221110,1 Pendlebury Parade,WOONONA,NSW,2517,-34.3549042,150.914581,3,3,3,House,House,False,578.0,m2,False
2018106568,listing,/9-williams-crescent-russell-vale-nsw-2517-2018106568,955000,is-sold,Sold by private treaty 25 Oct 2022,20221025,9 Williams Crescent,RUSSELL VALE,NSW,2517,-34.35732,150.908127,3,3,3,House,House,False,601.0,m2,False
2018107458,listing,/12-18-alice-street-woonona-nsw-2517-2018107458,810000,is-sold,Sold by private treaty 31 Oct 2022,20221031,12/18 Alice Street,WOONONA,NSW,2517,-34.35203,150.909241,3,3,3,Townhouse,Townhouse,False,0.0,m2,False
2018109180,listing,/16-halley-crescent-woonona-nsw-2517-2018109180,1440000,is-sold,Sold by private treaty 08 Nov 2022,20221108,16 Halley Crescent,WOONONA,NSW,2517,-34.3504524,150.89978,4,4,4,House,House,False,631.0,m2,False
2018115060,listing,/3-14-east-street-russell-vale-nsw-2517-2018115060,1000000,is-sold,Sold by private treaty 15 Nov 2022,20221115,3/14 East Street,RUSSELL VALE,NSW,2517,-34.35823,150.899078,3,3,3,House,House,False,236.0,m2,False
2018118880,listing,/8-51-53-russell-street-woonona-nsw-2517-2018118880,692000,is-sold,Sold by private treaty 04 Nov 2022,20221104,8/51-53 Russell Street,WOONONA,NSW,2517,-34.3411636,150.91127,2,2,2,Townhouse,Townhouse,False,0.0,m2,False
2018123445,listing,/5-park-road-woonona-nsw-2517-2018123445,2400000,is-sold,Sold at auction 02 Nov 2022,20221102,5 Park Road,WOONONA,NSW,2517,-34.35008,150.918427,4,4,4,House,House,False,626.0,m2,False
2018137328,listing,/15-39-collaery-road-russell-vale-nsw-2517-2018137328,740000,is-sold,Sold by private treaty 11 Nov 2022,20221111,15/39 Collaery Road,RUSSELL VALE,NSW,2517,-34.35692,150.902,2,2,2,Villa,Villa,False,0.0,m2,False
2018144900,listing,/16-collaery-road-russell-vale-nsw-2517-2018144900,1350000,is-sold,Sold at auction 12 Nov 2022,20221112,16 Collaery Road,RUSSELL VALE,NSW,2517,-34.3562927,150.907532,3,3,3,House,House,False,841.0,m2,False
2018145268,listing,/6-40-cherry-street-woonona-nsw-2517-2018145268,760000,is-sold,Sold by private treaty 25 Oct 2022,20221025,6/40 Cherry Street,WOONONA,NSW,2517,-34.3500557,150.901855,2,2,2,Townhouse,Townhouse,False,0.0,m2,False
2018164327,listing,/19-2a-kulgoa-road-woonona-nsw-2517-2018164327,900000,is-sold,Sold by private treaty 11 Nov 2022,20221111,19/2A Kulgoa Road,WOONONA,NSW,2517,-34.34723,150.916672,2,2,2,Villa,Villa,False,0.0,m2,False
2018222539,listing,/10-red-ash-drive-woonona-nsw-2517-2018222539,1380000,is-sold,Sold by private treaty 10 Nov 2022,20221110,10 Red Ash Drive,WOONONA,NSW,2517,-34.3454971,150.901382,4,4,4,House,House,False,544.0,m2,False
2017837342,listing,/2-27-nicholson-road-woonona-nsw-2517-2017837342,695000,is-sold,Sold by private treaty 20 Oct 2022,20221020,2/27 Nicholson Road,WOONONA,NSW,2517,-34.3439255,150.9079,3,3,3,Townhouse,Townhouse,False,0.0,m2,False
2017858118,listing,/16-moreton-street-russell-vale-nsw-2517-2017858118,1425000,is-sold,Sold by private treaty 04 Oct 2022,20221004,16 Moreton Street,RUSSELL VALE,NSW,2517,-34.3583755,150.897354,4,4,4,House,House,False,712.0,m2,False
2017877646,listing,/25-nimbin-street-russell-vale-nsw-2517-2017877646,1600000,is-sold,Sold at auction 07 Oct 2022,20221007,25 Nimbin Street,RUSSELL VALE,NSW,2517,-34.359,150.903442,6,6,6,House,House,False,556.0,m2,False
2017893209,listing,/4-10-ball-street-woonona-nsw-2517-2017893209,660000,is-sold,Sold by private treaty 16 Sep 2022,20220916,4/10 Ball Street,WOONONA,NSW,2517,-34.34088,150.904572,2,2,2,Townhouse,Townhouse,False,0.0,m2,False
2017950886,listing,/34-hopetoun-street-woonona-nsw-2517-2017950886,1065000,is-sold,Sold by private treaty 20 Oct 2022,20221020,34 Hopetoun Street,WOONONA,NSW,2517,-34.33957,150.91008,3,3,3,House,House,False,626.0,m2,False
2017977092,listing,/1-high-street-woonona-nsw-2517-2017977092,1350000,is-sold,Sold prior to auction 07 Oct 2022,20221007,1 High Street,WOONONA,NSW,2517,-34.3426247,150.90213,3,3,3,House,House,False,583.0,m2,False
2018014889,listing,/7-marlen-place-woonona-nsw-2517-2018014889,1290000,is-sold,Sold at auction 20 Sep 2022,20220920,7 Marlen Place,WOONONA,NSW,2517,-34.3504639,150.8986,4,4,4,House,House,False,595.0,m2,False
2018020047,listing,/10-56-60-duke-street-woonona-nsw-2517-2018020047,735000,is-sold,Sold by private treaty 21 Oct 2022,20221021,10/56-60 Duke Street,WOONONA,NSW,2517,-34.35066,150.8973,2,2,2,Townhouse,Townhouse,False,0.0,m2,False
2018026210,listing,/20-watergum-way-woonona-nsw-2517-2018026210,1070000,is-sold,Sold by private treaty 28 Sep 2022,20220928,20 Watergum Way,WOONONA,NSW,2517,-34.3486366,150.899582,3,3,3,House,House,False,401.0,m2,False
2018040337,listing,/9-wayari-way-woonona-nsw-2517-2018040337,750000,is-sold,Sold by private treaty 14 Oct 2022,20221014,9 Wayari Way,WOONONA,NSW,2517,-34.3496132,150.9029,2,2,2,House,House,False,0.0,m2,True
2018042575,listing,/4-7-hopetoun-street-woonona-nsw-2517-2018042575,730000,is-sold,Sold by private treaty 10 Oct 2022,20221010,4/7 Hopetoun Street,WOONONA,NSW,2517,-34.3404961,150.912125,2,2,2,Villa,Villa,False,539.0,m2,False
2018057131,listing,/3-june-parade-woonona-nsw-2517-2018057131,1600000,is-sold,Sold by private treaty 16 Sep 2022,20220916,3 June Parade,WOONONA,NSW,2517,-34.33792,150.899445,4,4,4,House,House,False,670.0,m2,False
2018057495,listing,/28-stanhope-street-woonona-nsw-2517-2018057495,1350000,is-sold,Sold by private treaty 19 Sep 2022,20220919,28 Stanhope Street,WOONONA,NSW,2517,-34.3506546,150.905991,2,2,2,House,House,False,698.0,m2,False
2018071115,listing,/18-balmer-crescent-woonona-nsw-2517-2018071115,1220000,is-sold,Sold by private treaty 21 Oct 2022,20221021,18 Balmer Crescent,WOONONA,NSW,2517,-34.33736,150.90094,4,4,4,House,House,False,746.0,m2,False
2018076207,listing,/4-corkwood-circuit-woonona-nsw-2517-2018076207,1250000,is-sold,Sold prior to auction 14 Oct 2022,20221014,4 Corkwood Circuit,WOONONA,NSW,2517,-34.3487,150.902512,4,4,4,House,House,False,318.0,m2,False
2018091503,listing,/26-thomas-collaery-place-woonona-nsw-2517-2018091503,1360000,is-sold,Sold by private treaty 27 Sep 2022,20220927,26 Thomas Collaery Place,WOONONA,NSW,2517,-34.35964,150.916321,4,4,4,House,House,False,454.0,m2,False
2018091679,listing,/15-pallier-place-woonona-nsw-2517-2018091679,1330000,is-sold,Sold by private treaty 05 Oct 2022,20221005,15 Pallier Place,WOONONA,NSW,2517,-34.35234,150.901627,4,4,4,House,House,False,632.0,m2,False
2018095608,listing,/14-corkwood-circuit-woonona-nsw-2517-2018095608,1100000,is-sold,Sold by private treaty 14 Oct 2022,20221014,14 Corkwood Circuit,WOONONA,NSW,2517,-34.34932,150.902222,3,3,3,House,House,False,274.0,m2,False
2018097843,listing,/11a-lighthorse-drive-woonona-nsw-2517-2018097843,2250000,is-sold,Sold at auction 22 Oct 2022,20221022,11a Lighthorse Drive,WOONONA,NSW,2517,-34.3554764,150.917389,3,3,3,House,House,False,0.0,m2,False
2018098691,listing,/29-cherry-street-woonona-nsw-2517-2018098691,1150000,is-sold,Sold by private treaty 10 Oct 2022,20221010,29 Cherry Street,WOONONA,NSW,2517,-34.34942,150.902,3,3,3,House,House,False,283.0,m2,False
2017775500,listing,/482-princes-highway-woonona-nsw-2517-2017775500,1200000,is-sold,Sold by private treaty 26 Jul 2022,20220726,482 Princes Highway,WOONONA,NSW,2517,-34.3453331,150.903992,3,3,3,House,House,False,696.0,m2,False
2017822656,listing,/28-charlotte-harrison-drive-woonona-nsw-2517-2017822656,1950000,is-sold,Sold by private treaty 16 Aug 2022,20220816,28 Charlotte Harrison Drive,WOONONA,NSW,2517,-34.36024,150.916412,4,4,4,House,House,False,423.0,m2,False
2017839592,listing,/16-9-cherry-street-woonona-nsw-2517-2017839592,765000,is-sold,Sold by private treaty 26 Aug 2022,20220826,16/9 Cherry Street,WOONONA,NSW,2517,-34.3472,150.903534,3,3,3,ApartmentUnitFlat,Apartment / Unit / Flat,False,0.0,m2,False
2017842862,listing,/3-42a-keerong-avenue-russell-vale-nsw-2517-2017842862,830000,is-sold,Sold by private treaty 29 Jul 2022,20220729,3/42A Keerong Avenue,RUSSELL VALE,NSW,2517,-34.3601723,150.9029,3,3,3,Villa,Villa,False,0.0,m2,False
2017852967,listing,/8-50-russell-street-woonona-nsw-2517-2017852967,810000,is-sold,Sold by private treaty 26 Jul 2022,20220726,8/50 Russell Street,WOONONA,NSW,2517,-34.34204,150.910889,3,3,3,Townhouse,Townhouse,False,0.0,m2,False
2017870091,listing,/7-88-92-campbell-street-woonona-nsw-2517-2017870091,810000,is-sold,Sold by private treaty 15 Aug 2022,20220815,7/88-92 Campbell Street,WOONONA,NSW,2517,-34.3426666,150.910553,3,3,3,Townhouse,Townhouse,False,228.0,m2,False
2017870868,listing,/1-25-nicholson-road-woonona-nsw-2517-2017870868,635000,is-sold,Sold by private treaty 11 Aug 2022,20220811,1/25 Nicholson Road,WOONONA,NSW,2517,-34.34388,150.907578,2,2,2,Townhouse,Townhouse,False,0.0,m2,False
2017874028,listing,/6-25-thompson-street-woonona-nsw-2517-2017874028,771000,is-sold,Sold by private treaty 10 Aug 2022,20220810,6/25 Thompson Street,WOONONA,NSW,2517,-34.341465,150.914032,2,2,2,Townhouse,Townhouse,False,0.0,m2,False
2017878154,listing,/24-monie-street-woonona-nsw-2517-2017878154,1850000,is-sold,Sold by private treaty 09 Aug 2022,20220809,24 Monie Street,WOONONA,NSW,2517,-34.348896,150.907166,4,4,4,House,House,False,677.0,m2,False
2017911812,listing,/14-mary-callaghan-crescent-woonona-nsw-2517-2017911812,1815000,is-sold,Sold by private treaty 05 Aug 2022,20220805,14 Mary Callaghan Crescent,WOONONA,NSW,2517,-34.36004,150.912872,4,4,4,House,House,False,657.0,m2,False
2017915066,listing,/56a-campbell-street-woonona-nsw-2517-2017915066,1130000,is-sold,Sold by private treaty 09 Sep 2022,20220909,56a Campbell Street,WOONONA,NSW,2517,-34.34343,150.9138,4,4,4,House,House,False,518.0,m2,False
2017924887,listing,/6-lassiter-avenue-woonona-nsw-2517-2017924887,1705000,is-sold,Sold at auction 05 Aug 2022,20220805,6 Lassiter Avenue,WOONONA,NSW,2517,-34.355545,150.9169,3,3,3,House,House,False,682.0,m2,False
2017932764,listing,/1-46-keerong-avenue-russell-vale-nsw-2517-2017932764,850000,is-sold,Sold by private treaty 01 Aug 2022,20220801,1/46 Keerong Avenue,RUSSELL VALE,NSW,2517,-34.3602829,150.902557,3,3,3,Townhouse,Townhouse,False,0.0,m2,False
2017960502,listing,/3-nimbin-street-russell-vale-nsw-2517-2017960502,1075000,is-sold,Sold by private treaty 13 Sep 2022,20220913,3 Nimbin Street,RUSSELL VALE,NSW,2517,-34.3587036,150.901672,2,2,2,House,House,False,556.0,m2,False
2017975098,listing,/2-29-hopetoun-street-woonona-nsw-2517-2017975098,740000,is-sold,Sold by private treaty 02 Sep 2022,20220902,2/29 Hopetoun Street,WOONONA,NSW,2517,-34.34001,150.910263,2,2,2,Villa,Villa,False,0.0,m2,False
2017976541,listing,/2-victoria-lane-woonona-nsw-2517-2017976541,986000,is-sold,Sold prior to auction 19 Aug 2022,20220819,2 Victoria Lane,WOONONA,NSW,2517,-34.3477058,150.910019,3,3,3,House,House,False,232.0,m2,False
2017976621,listing,/5-43-campbell-street-woonona-nsw-2517-2017976621,680000,is-sold,Sold by private treaty 26 Aug 2022,20220826,5/43 Campbell Street,WOONONA,NSW,2517,-34.34419,150.915344,2,2,2,ApartmentUnitFlat,Apartment / Unit / Flat,False,0.0,m2,False
2017994599,listing,/5-42a-keerong-avenue-russell-vale-nsw-2517-2017994599,810000,is-sold,Sold by private treaty 17 Aug 2022,20220817,5/42A Keerong Avenue,RUSSELL VALE,NSW,2517,-34.3601723,150.9029,2,2,2,Villa,Villa,False,0.0,m2,False
2018008034,listing,/44-williams-crescent-russell-vale-nsw-2517-2018008034,1475000,is-sold,Sold by private treaty 12 Aug 2022,20220812,44 Williams Crescent,RUSSELL VALE,NSW,2517,-34.3567047,150.906219,3,3,3,House,House,False,727.0,m2,False
2018025047,listing,/5-10-ball-street-woonona-nsw-2517-2018025047,675000,is-sold,Sold by private treaty 17 Aug 2022,20220817,5/10 Ball Street,WOONONA,NSW,2517,-34.34088,150.904572,2,2,2,Townhouse,Townhouse,False,0.0,m2,False
2017669462,listing,/9-kialoa-road-woonona-nsw-2517-2017669462,1720000,is-sold,Sold by private treaty 27 Jun 2022,20220627,9 Kialoa Road,WOONONA,NSW,2517,-34.348423,150.914078,3,3,3,House,House,False,613.0,m2,False
2017702742,listing,/3-145-campbell-street-woonona-nsw-2517-2017702742,1100000,is-sold,Sold by private treaty 10 Jun 2022,20220610,3/145 Campbell Street,WOONONA,NSW,2517,-34.3428879,150.907578,3,3,3,Townhouse,Townhouse,False,0.0,m2,False
2017732792,listing,/16-kialoa-road-woonona-nsw-2517-2017732792,2100000,is-sold,Sold by private treaty 05 Jul 2022,20220705,16 Kialoa Road,WOONONA,NSW,2517,-34.34806,150.914215,5,5,5,House,House,False,2442.0,m2,False
2017736580,listing,/16-434-princes-highway-woonona-nsw-2517-2017736580,875000,is-sold,Sold by private treaty 17 Jun 2022,20220617,16/434 Princes Highway,WOONONA,NSW,2517,-34.3428421,150.904,3,3,3,Townhouse,Townhouse,False,0.0,m2,False
2017738755,listing,/8-ball-street-woonona-nsw-2517-2017738755,490000,is-sold,Sold by private treaty 09 Jun 2022,20220609,8 Ball Street,WOONONA,NSW,2517,-34.3408928,150.9052,,,,VacantLand,Vacant land,False,627.0,m2,False
2017791438,listing,/33-davidson-avenue-woonona-nsw-2517-2017791438,1250000,is-sold,Sold by private treaty 23 Jun 2022,20220623,33 Davidson Avenue,WOONONA,NSW,2517,-34.351284,150.911484,3,3,3,House,House,False,639.0,m2,False
2017805710,listing,/1-16-campbell-street-woonona-nsw-2517-2017805710,1320000,is-sold,Sold by private treaty 17 Jun 2022,20220617,1/16 Campbell Street,WOONONA,NSW,2517,-34.34268,150.90863,3,3,3,Townhouse,Townhouse,False,0.0,m2,False
2017816715,listing,/4-68-russell-street-woonona-nsw-2517-2017816715,575000,is-sold,Sold by private treaty 11 Jul 2022,20220711,4/68 Russell Street,WOONONA,NSW,2517,-34.34234,150.911957,2,2,2,ApartmentUnitFlat,Apartment / Unit / Flat,False,0.0,m2,False
2017826436,listing,/36-york-road-russell-vale-nsw-2517-2017826436,1010000,is-sold,Sold by private treaty 08 Jun 2022,20220608,36 York Road,RUSSELL VALE,NSW,2517,-34.35726,150.908676,3,3,3,House,House,False,0.0,m2,False
2017842605,listing,/19-cedar-terrace-woonona-nsw-2517-2017842605,1165000,is-sold,Sold by private treaty 28 Jun 2022,20220628,19 Cedar Terrace,WOONONA,NSW,2517,-34.3456078,150.8983,3,3,3,House,House,False,365.0,m2,False
2017845659,listing,/6-watergum-way-woonona-nsw-2517-2017845659,1350000,is-sold,Sold by private treaty 21 Jul 2022,20220721,6 Watergum Way,WOONONA,NSW,2517,-34.3492,150.9013,4,4,4,House,House,False,342.0,m2,False
2017872581,listing,/56-gahans-avenue-woonona-nsw-2517-2017872581,890000,is-sold,Sold by private treaty 05 Jul 2022,20220705,56 Gahans Avenue,WOONONA,NSW,2517,-34.3435669,150.897491,3,3,3,House,House,False,0.0,m2,False
2017877279,listing,/7-91-campbell-street-woonona-nsw-2517-2017877279,1150000,is-sold,Sold by private treaty 28 Jun 2022,20220628,7/91 Campbell Street,WOONONA,NSW,2517,-34.34366,150.910934,3,3,3,Townhouse,Townhouse,False,0.0,m2,False
2017877867,listing,/4-29-hopetoun-street-woonona-nsw-2517-2017877867,725000,is-sold,Sold by private treaty 15 Jul 2022,20220715,4/29 Hopetoun Street,WOONONA,NSW,2517,-34.34001,150.910263,2,2,2,Villa,Villa,False,0.0,m2,False
2017883887,listing,/6-49-campbell-street-woonona-nsw-2517-2017883887,1234000,is-sold,Sold by private treaty 15 Jul 2022,20220715,6/49 Campbell Street,WOONONA,NSW,2517,-34.34447,150.914764,3,3,3,Townhouse,Townhouse,False,0.0,m2,False
2017895158,listing,/28-gayantay-way-woonona-nsw-2517-2017895158,1020000,is-sold,Sold prior to auction 21 Jul 2022,20220721,28 Gayantay Way,WOONONA,NSW,2517,-34.3495941,150.90358,3,3,3,House,House,False,309.0,m2,False
2017898315,listing,/42-rixons-pass-road-woonona-nsw-2517-2017898315,1240000,is-sold,Sold by private treaty 19 Jul 2022,20220719,42 Rixons Pass Road,WOONONA,NSW,2517,-34.35186,150.898849,2,2,2,House,House,False,525.0,m2,False
2017904692,listing,/63a-thompson-street-woonona-nsw-2517-2017904692,1350000,is-sold,Sold by private treaty 28 Jun 2022,20220628,63a Thompson Street,WOONONA,NSW,2517,-34.34488,150.912811,3,3,3,House,House,False,0.0,m2,False
2017914747,listing,/8b-mountain-avenue-woonona-nsw-2517-2017914747,1367500,is-sold,Sold by private treaty 04 Jul 2022,20220704,8b Mountain Avenue,WOONONA,NSW,2517,-34.33877,150.901184,3,3,3,SemiDetached,Semi-Detached,False,0.0,m2,False
2017929836,listing,/3-51-53-russell-street-woonona-nsw-2517-2017929836,710000,is-sold,Sold by private treaty 22 Jul 2022,20220722,3/51-53 Russell Street,WOONONA,NSW,2517,-34.3411636,150.91127,2,2,2,Townhouse,Townhouse,False,0.0,m2,False
2017367029,listing,/40-mitchell-road-woonona-nsw-2517-2017367029,1140000,is-sold,Sold by private treaty 06 May 2022,20220506,40 Mitchell Road,WOONONA,NSW,2517,-34.3510857,150.910263,4,4,4,House,House,False,626.0,m2,False
2017645981,listing,/5-john-street-woonona-nsw-2517-2017645981,1825000,is-sold,Sold by private treaty 05 May 2022,20220505,5 John Street,WOONONA,NSW,2517,-34.3488655,150.910126,3,3,3,House,House,False,582.0,m2,False
2017666838,listing,/6-mary-callaghan-crescent-woonona-nsw-2517-2017666838,1800000,is-sold,Sold by private treaty 03 May 2022,20220503,6 Mary Callaghan Crescent,WOONONA,NSW,2517,-34.3606033,150.9126,4,4,4,House,House,False,569.0,m2,False
2017680920,listing,/10-cedar-terrace-woonona-nsw-2517-2017680920,1350000,is-sold,Sold by private treaty 27 Apr 2022,20220427,10 Cedar Terrace,WOONONA,NSW,2517,-34.34599,150.898712,3,3,3,House,House,False,0.0,m2,False
2017691573,listing,/72-rixons-pass-road-woonona-nsw-2517-2017691573,1500000,is-sold,Sold by private treaty 13 May 2022,20220513,72 Rixons Pass Road,WOONONA,NSW,2517,-34.3516159,150.896088,5,5,5,House,House,False,569.0,m2,False
2017695991,listing,/6-muir-street-woonona-nsw-2517-2017695991,1510000,is-sold,Sold by private treaty 10 May 2022,20220510,6 Muir Street,WOONONA,NSW,2517,-34.34198,150.914764,3,3,3,House,House,False,910.0,m2,False
2017703778,listing,/2-12-popes-road-woonona-nsw-2517-2017703778,930000,is-sold,Sold by private treaty 02 Jun 2022,20220602,2/12 Popes Road,WOONONA,NSW,2517,-34.3429947,150.902664,3,3,3,Townhouse,Townhouse,False,0.0,m2,False
2017720287,listing,/37-hopetoun-street-woonona-nsw-2517-2017720287,1377500,is-sold,Sold by private treaty 23 May 2022,20220523,37 Hopetoun Street,WOONONA,NSW,2517,-34.3399849,150.909653,3,3,3,House,House,False,632.0,m2,False
2017721200,listing,/7-39-popes-road-woonona-nsw-2517-2017721200,895000,is-sold,Sold by private treaty 29 Apr 2022,20220429,7/39 Popes Road,WOONONA,NSW,2517,-34.3407,150.900055,2,2,2,Townhouse,Townhouse,False,174.0,m2,False
2017726161,listing,/31-dorrigo-avenue-woonona-nsw-2517-2017726161,1860000,is-sold,Sold at auction 07 May 2022,20220507,31 Dorrigo Avenue,WOONONA,NSW,2517,-34.353878,150.9152,3,3,3,House,House,False,655.0,m2,False
2017752112,listing,/9-14-high-street-woonona-nsw-2517-2017752112,900000,is-sold,Sold by private treaty 23 May 2022,20220523,9/14 High Street,WOONONA,NSW,2517,-34.3430252,150.901184,3,3,3,Villa,Villa,False,0.0,m2,False
2017764236,listing,/37-forestview-way-woonona-nsw-2517-2017764236,1600000,is-sold,Sold by private treaty 20 May 2022,20220520,37 Forestview Way,WOONONA,NSW,2517,-34.3472137,150.899765,4,4,4,House,House,False,577.0,m2,False
2017766719,listing,/5-lassiter-avenue-woonona-nsw-2517-2017766719,2000000,is-sold,Sold by private treaty 12 May 2022,20220512,5 Lassiter Avenue,WOONONA,NSW,2517,-34.35597,150.916855,3,3,3,House,House,False,594.0,m2,False
2017776269,listing,/3-stanhope-st-woonona-nsw-2517-2017776269,1580000,is-sold,Sold at auction 04 Jun 2022,20220604,3 Stanhope St,WOONONA,NSW,2517,-34.3500748,150.904663,3,3,3,House,House,False,696.0,m2,False
2017783523,listing,/11-98-campbell-street-woonona-nsw-2517-2017783523,850000,is-sold,Sold by private treaty 20 May 2022,20220520,11/98 Campbell Street,WOONONA,NSW,2517,-34.3428764,150.910049,3,3,3,Townhouse,Townhouse,False,0.0,m2,False
2017787860,listing,/6-7-high-street-woonona-nsw-2517-2017787860,695000,is-sold,Sold by private treaty 13 May 2022,20220513,6/7 High Street,WOONONA,NSW,2517,-34.3432236,150.902512,2,2,2,Villa,Villa,False,0.0,m2,False
2017794670,listing,/5-harriet-spearing-drive-woonona-nsw-2517-2017794670,1825000,is-sold,Sold by private treaty 18 May 2022,20220518,5 Harriet Spearing Drive,WOONONA,NSW,2517,-34.3566933,150.914444,3,3,3,House,House,False,626.0,m2,False
2017805915,listing,/3-ironbark-avenue-woonona-nsw-2517-2017805915,1325000,is-sold,Sold by private treaty 07 Jun 2022,20220607,3 Ironbark Avenue,WOONONA,NSW,2517,-34.3495,150.899948,4,4,4,House,House,False,439.0,m2,False
2017807413,listing,/38-russell-street-woonona-nsw-2517-2017807413,1900000,is-sold,Sold by private treaty 31 May 2022,20220531,38 Russell Street,WOONONA,NSW,2517,-34.34162,150.910034,4,4,4,House,House,False,966.0,m2,False
2017824632,listing,/9-39-popes-road-woonona-nsw-2517-2017824632,,is-sold,Sold by private treaty 13 May 2022,20220513,9/39 Popes Road,WOONONA,NSW,2517,-34.3407,150.900055,2,2,2,Townhouse,Townhouse,False,0.0,m2,False
2017367026,listing,/42-mitchell-road-woonona-nsw-2517-2017367026,925000,is-sold,Sold by private treaty 31 Mar 2022,20220331,42 Mitchell Road,WOONONA,NSW,2517,-34.3512154,150.910309,3,3,3,House,House,False,518.0,m2,False
2017559589,listing,/29-hillcrest-avenue-woonona-nsw-2517-2017559589,1800000,is-sold,Sold by private treaty 01 Apr 2022,20220401,29 Hillcrest Avenue,WOONONA,NSW,2517,-34.3389435,150.903152,5,5,5,House,House,False,0.0,m2,False
2017573041,listing,/8a-mountain-avenue-woonona-nsw-2517-2017573041,1375000,is-sold,Sold by private treaty 19 Apr 2022,20220419,8a Mountain Avenue,WOONONA,NSW,2517,-34.33877,150.901184,4,4,4,SemiDetached,Semi-Detached,False,0.0,m2,False
2017582763,listing,/2-june-parade-woonona-nsw-2517-2017582763,1600000,is-sold,Sold by private treaty 22 Mar 2022,20220322,2 June Parade,WOONONA,NSW,2517,-34.33712,150.899261,5,5,5,House,House,False,0.0,m2,False
2017589567,listing,/3-27a-lawrence-street-woonona-nsw-2517-2017589567,1390000,is-sold,Sold by private treaty 23 Mar 2022,20220323,3/27A Lawrence Street,WOONONA,NSW,2517,-34.3431549,150.917984,3,3,3,Townhouse,Townhouse,False,0.0,m2,False
2017596118,listing,/24-cedar-terrace-woonona-nsw-2517-2017596118,1400000,is-sold,Sold by private treaty 25 Mar 2022,20220325,24 Cedar Terrace,WOONONA,NSW,2517,-34.34611,150.897812,4,4,4,House,House,False,346.0,m2,False
2017605696,listing,/37-park-road-woonona-nsw-2517-2017605696,1950000,is-sold,Sold by private treaty 14 Apr 2022,20220414,37 Park Road,WOONONA,NSW,2517,-34.34928,150.913254,4,4,4,House,House,False,267.0,m2,False
2017612674,listing,/11-forestview-way-woonona-nsw-2517-2017612674,1332000,is-sold,Sold by private treaty 30 Mar 2022,20220330,11 Forestview Way,WOONONA,NSW,2517,-34.3481064,150.902634,4,4,4,House,House,False,0.0,m2,False
2017615846,listing,/6-corkwood-circuit-woonona-nsw-2517-2017615846,1265000,is-sold,Sold by private treaty 24 Mar 2022,20220324,6 Corkwood Circuit,WOONONA,NSW,2517,-34.3488,150.902466,3,3,3,House,House,False,272.0,m2,False
2017631911,listing,/3-12-hopetoun-street-woonona-nsw-2517-2017631911,833000,is-sold,Sold by private treaty 25 Mar 2022,20220325,3/12 Hopetoun Street,WOONONA,NSW,2517,-34.33986,150.912064,2,2,2,Townhouse,Townhouse,False,0.0,m2,False
2017673667,listing,/20-mitchell-road-woonona-nsw-2517-2017673667,940000,is-sold,Sold at auction 13 Apr 2022,20220413,20 Mitchell Road,WOONONA,NSW,2517,-34.34921,150.910675,3,3,3,House,House,False,588.0,m2,False
2017677246,listing,/3-56-60-duke-street-woonona-nsw-2517-2017677246,770000,is-sold,Sold by private treaty 06 Apr 2022,20220406,3/56-60 Duke Street,WOONONA,NSW,2517,-34.35066,150.8973,2,2,2,Villa,Villa,False,0.0,m2,False
2017677523,listing,/23-mountain-ave-woonona-nsw-2517-2017677523,1270000,is-sold,Sold by private treaty 09 Apr 2022,20220409,23 Mountain Ave,WOONONA,NSW,2517,-34.3408165,150.90126,3,3,3,House,House,False,651.0,m2,False
2017688976,listing,/1-halley-crescent-woonona-nsw-2517-2017688976,1255000,is-sold,Sold by private treaty 30 Mar 2022,20220330,1 Halley Crescent,WOONONA,NSW,2517,-34.35113,150.900848,3,3,3,House,House,False,0.0,m2,False
2017689993,listing,/7-40-gayantay-way-woonona-nsw-2517-2017689993,650000,is-sold,Sold by private treaty 13 Apr 2022,20220413,7/40 Gayantay Way,WOONONA,NSW,2517,-34.3501968,150.9028,2,2,2,ApartmentUnitFlat,Apartment / Unit / Flat,False,0.0,m2,True
2017690087,listing,/26-2-forestview-way-woonona-nsw-2517-2017690087,700000,is-sold,Sold by private treaty 15 Apr 2022,20220415,26/2 Forestview Way,WOONONA,NSW,2517,-34.3477936,150.9036,2,2,2,ApartmentUnitFlat,Apartment / Unit / Flat,False,0.0,m2,False
2017701692,listing,/12-luxor-street-woonona-nsw-2517-2017701692,1600000,is-sold,Sold by private treaty 29 Mar 2022,20220329,12 Luxor Street,WOONONA,NSW,2517,-34.339695,150.90567,3,3,3,House,House,False,0.0,m2,False
2017711748,listing,/10-robert-westmacott-avenue-woonona-nsw-2517-2017711748,2630000,is-sold,Sold by private treaty 09 Apr 2022,20220409,10 Robert Westmacott Avenue,WOONONA,NSW,2517,-34.3594666,150.915878,4,4,4,House,House,False,0.0,m2,False
2017724014,listing,/26a-beach-drive-woonona-nsw-2517-2017724014,2800001,is-sold,Sold at auction 22 Apr 2022,20220422,26A Beach Drive,WOONONA,NSW,2517,-34.3518181,150.918762,3,3,3,House,House,False,267.0,m2,False
2017728420,listing,/10-moreton-street-russell-vale-nsw-2517-2017728420,1360000,is-sold,Sold by private treaty 25 Mar 2022,20220325,10 Moreton Street,RUSSELL VALE,NSW,2517,-34.3584251,150.897858,3,3,3,House,House,False,696.0,m2,False
2017536408,listing,/3-10-kiandra-road-woonona-nsw-2517-2017536408,402000,is-sold,Sold by private treaty 09 Mar 2022,20220309,3/10 Kiandra Road,WOONONA,NSW,2517,-34.34831,150.9164,1,1,1,ApartmentUnitFlat,Apartment / Unit / Flat,False,0.0,m2,False
2017552816,listing,/6-68-russell-street-woonona-nsw-2517-2017552816,620000,is-sold,Sold by private treaty 11 Mar 2022,20220311,6/68 Russell Street,WOONONA,NSW,2517,-34.342205,150.911987,2,2,2,ApartmentUnitFlat,Apartment / Unit / Flat,False,0.0,m2,False
2017558194,listing,/32-gahans-lane-woonona-nsw-2517-2017558194,1820000,is-sold,Sold by private treaty 16 Feb 2022,20220216,32 Gahans Lane,WOONONA,NSW,2517,-34.34413,150.899933,4,4,4,House,House,False,569.0,m2,False
2017567592,listing,/1-19-robertson-road-woonona-nsw-2517-2017567592,951555,is-sold,Sold by private treaty 17 Feb 2022,20220217,1/19 Robertson Road,WOONONA,NSW,2517,-34.3533821,150.9166,2,2,2,Villa,Villa,False,0.0,m2,False
2017572983,listing,/55-joseph-street-woonona-nsw-2517-2017572983,1800000,is-sold,Sold by private treaty 15 Mar 2022,20220315,55 Joseph Street,WOONONA,NSW,2517,-34.3398438,150.8989,5,5,5,House,House,False,810.0,m2,False
2017573043,listing,/4-robert-westmacott-avenue-woonona-nsw-2517-2017573043,1300000,is-sold,Sold by private treaty 04 Mar 2022,20220304,4 Robert Westmacott Avenue,WOONONA,NSW,2517,-34.3598862,150.915573,3,3,3,House,House,False,0.0,m2,False
2017582848,listing,/8-mahogany-way-woonona-nsw-2517-2017582848,1789000,is-sold,Sold by private treaty 17 Feb 2022,20220217,8 Mahogany Way,WOONONA,NSW,2517,-34.34775,150.897858,4,4,4,House,House,False,450.0,m2,False
2017585448,listing,/15-collaery-road-russell-vale-nsw-2517-2017585448,1500000,is-sold,Sold by private treaty 25 Feb 2022,20220225,15 Collaery Road,RUSSELL VALE,NSW,2517,-34.3563843,150.905441,4,4,4,House,House,False,664.0,m2,False
2017592355,listing,/3-49-campbell-street-woonona-nsw-2517-2017592355,1310000,is-sold,Sold by private treaty 22 Feb 2022,20220222,3/49 Campbell Street,WOONONA,NSW,2517,-34.3444633,150.914749,3,3,3,Townhouse,Townhouse,False,0.0,m2,False
2017593049,listing,/3-43-campbell-street-woonona-nsw-2517-2017593049,747000,is-sold,Sold by private treaty 04 Mar 2022,20220304,3/43 Campbell Street,WOONONA,NSW,2517,-34.3442764,150.915344,2,2,2,ApartmentUnitFlat,Apartment / Unit / Flat,False,0.0,m2,False
2017593822,listing,/14-56-60-duke-street-woonona-nsw-2517-2017593822,880000,is-sold,Sold by private treaty 03 Mar 2022,20220303,14/56-60 Duke Street,WOONONA,NSW,2517,-34.35066,150.8973,3,3,3,Villa,Villa,False,0.0,m2,False
2017595715,listing,/31-royal-crescent-woonona-nsw-2517-2017595715,2830000,is-sold,Sold by private treaty 23 Feb 2022,20220223,31 Royal Crescent,WOONONA,NSW,2517,-34.3525963,150.9164,5,5,5,House,House,False,632.0,m2,False
2017598936,listing,/62-terania-street-russell-vale-nsw-2517-2017598936,1351000,is-sold,Sold by private treaty 10 Mar 2022,20220310,62 Terania Street,RUSSELL VALE,NSW,2517,-34.35782,150.901886,4,4,4,House,House,False,708.0,m2,False
2017599624,listing,/11-fretus-avenue-woonona-nsw-2517-2017599624,1430000,is-sold,Sold by private treaty 04 Mar 2022,20220304,11 Fretus Avenue,WOONONA,NSW,2517,-34.3437462,150.900238,3,3,3,House,House,False,569.0,m2,False
2017604417,listing,/10-115-117-campbell-street-woonona-nsw-2517-2017604417,1075000,is-sold,Sold by private treaty 11 Mar 2022,20220311,10/115-117 Campbell Street,WOONONA,NSW,2517,-34.34365,150.909576,3,3,3,Townhouse,Townhouse,False,0.0,m2,False
2017609078,listing,/21-joanne-street-woonona-nsw-2517-2017609078,2100000,is-sold,Sold by private treaty 11 Mar 2022,20220311,21 Joanne Street,WOONONA,NSW,2517,-34.3376961,150.897415,5,5,5,House,House,False,556.0,m2,False
2017609970,listing,/7-2-6-rixons-pass-road-woonona-nsw-2517-2017609970,675000,is-sold,Sold by private treaty 01 Mar 2022,20220301,7/2-6 Rixons Pass Road,WOONONA,NSW,2517,-34.35276,150.902023,2,2,2,Townhouse,Townhouse,False,0.0,m2,False
2017615524,listing,/11-cherry-street-woonona-nsw-2517-2017615524,1350000,is-sold,Sold by private treaty 16 Mar 2022,20220316,11 Cherry Street,WOONONA,NSW,2517,-34.348114,150.902512,3,3,3,House,House,False,0.0,m2,False
2017646000,listing,/8-61-63-campbell-street-woonona-nsw-2517-2017646000,941000,is-sold,Sold by private treaty 17 Feb 2022,20220217,8/61-63 Campbell Street,WOONONA,NSW,2517,-34.34404,150.913651,3,3,3,Townhouse,Townhouse,False,0.0,m2,False
2017700075,listing,/1-32a-popes-road-woonona-nsw-2517-2017700075,1200000,is-sold,Sold by private treaty 24 Feb 2022,20220224,1/32a Popes Road,WOONONA,NSW,2517,-34.342083,150.900391,4,4,4,Townhouse,Townhouse,False,0.0,m2,False
2017261278,listing,/5-railway-parade-woonona-nsw-2517-2017261278,1651000,is-sold,Sold by private treaty 04 Feb 2022,20220204,5 Railway Parade,WOONONA,NSW,2517,-34.3500938,150.915619,5,5,5,House,House,False,581.0,m2,False
2017415824,listing,/6-392-princes-highway-woonona-nsw-2517-2017415824,695000,is-sold,Sold by private treaty 15 Feb 2022,20220215,6/392 Princes Highway,WOONONA,NSW,2517,-34.34136,150.9059,2,2,2,ApartmentUnitFlat,Apartment / Unit / Flat,False,148.0,m2,False
2017420541,listing,/56-mitchell-road-woonona-nsw-2517-2017420541,1333000,is-sold,Sold at auction 11 Feb 2022,20220211,56 Mitchell Road,WOONONA,NSW,2517,-34.35223,150.909851,3,3,3,House,House,False,630.0,m2,False
2017454745,listing,/3-7-hopetoun-street-woonona-nsw-2517-2017454745,760000,is-sold,Sold by private treaty 07 Feb 2022,20220207,3/7 Hopetoun Street,WOONONA,NSW,2517,-34.34048,150.912109,2,2,2,Villa,Villa,False,155.0,m2,False
2017479641,listing,/1-35-lawrence-st-woonona-nsw-2517-2017479641,820000,is-sold,Sold by private treaty 14 Feb 2022,20220214,1/35 Lawrence St,WOONONA,NSW,2517,-34.343132,150.917419,2,2,2,Villa,Villa,False,0.0,m2,False
2017482227,listing,/44-gray-street-woonona-nsw-2517-2017482227,1910000,is-sold,Sold at auction 29 Jan 2022,20220129,44 Gray Street,WOONONA,NSW,2517,-34.3475342,150.908356,4,4,4,House,House,False,797.0,m2,False
2017482555,listing,/15-pendlebury-parade-woonona-nsw-2517-2017482555,1477500,is-sold,Sold at auction 21 Jan 2022,20220121,15 Pendlebury Parade,WOONONA,NSW,2517,-34.3556557,150.915482,3,3,3,House,House,False,575.0,m2,False
2017521538,listing,/50-popes-road-woonona-nsw-2517-2017521538,1510000,is-sold,Sold by private treaty 21 Jan 2022,20220121,50 Popes Road,WOONONA,NSW,2517,-34.3416061,150.898483,5,5,5,House,House,False,881.0,m2,False
2017523140,listing,/40-rixons-pass-rd-woonona-nsw-2517-2017523140,1380500,is-sold,Sold by private treaty 10 Feb 2022,20220210,40 Rixons Pass Rd,WOONONA,NSW,2517,-34.3518677,150.899033,3,3,3,House,House,False,525.0,m2,False
2017528706,listing,/3-28-popes-road-woonona-nsw-2517-2017528706,975000,is-sold,Sold by private treaty 24 Jan 2022,20220124,3/28 Popes Road,WOONONA,NSW,2517,-34.3421059,150.901031,3,3,3,Townhouse,Townhouse,False,0.0,m2,False
2017530065,listing,/16-434-438-princes-highway-woonona-nsw-2517-2017530065,980000,is-sold,Sold by private treaty 09 Feb 2022,20220209,16/434-438 Princes Highway,WOONONA,NSW,2517,-34.3428421,150.904,3,3,3,Townhouse,Townhouse,False,0.0,m2,False
2017531475,listing,/38-hopetoun-street-woonona-nsw-2517-2017531475,1750000,is-sold,Sold by private treaty 01 Feb 2022,20220201,38 Hopetoun Street,WOONONA,NSW,2517,-34.3395844,150.9098,3,3,3,House,House,False,0.0,m2,False
2017540322,listing,/21-neville-avenue-russell-vale-nsw-2517-2017540322,1260000,is-sold,Sold by private treaty 07 Feb 2022,20220207,21 Neville Avenue,RUSSELL VALE,NSW,2517,-34.35641,150.902527,2,2,2,House,House,False,613.0,m2,False
2017543923,listing,/3-10-mitchell-road-woonona-nsw-2517-2017543923,845000,is-sold,Sold by private treaty 01 Feb 2022,20220201,3/10 Mitchell Road,WOONONA,NSW,2517,-34.3484955,150.91069,2,2,2,Townhouse,Townhouse,False,0.0,m2,False
2017547700,listing,/29-thompson-street-woonona-nsw-2517-2017547700,1575000,is-sold,Sold by private treaty 08 Feb 2022,20220208,29 Thompson Street,WOONONA,NSW,2517,-34.3416138,150.913528,4,4,4,House,House,False,1069.0,m2,False
2017547701,listing,/1-blackwood-place-woonona-nsw-2517-2017547701,1700000,is-sold,Sold by private treaty 08 Feb 2022,20220208,1 Blackwood Place,WOONONA,NSW,2517,-34.3445625,150.90033,4,4,4,House,House,False,562.0,m2,False
2017566862,listing,/3-anderson-street-woonona-nsw-2517-2017566862,1393000,is-sold,Sold by private treaty 08 Feb 2022,20220208,3 Anderson Street,WOONONA,NSW,2517,-34.3513641,150.898621,4,4,4,House,House,False,0.0,m2,False
2017596351,listing,/31-watergum-way-woonona-nsw-2517-2017596351,1460000,is-sold,Sold by private treaty 08 Feb 2022,20220208,31 Watergum Way,WOONONA,NSW,2517,-34.3486481,150.899,3,3,3,House,House,False,0.0,m2,False
2017693697,listing,/3-392-princes-highway-woonona-nsw-2517-2017693697,725500,is-sold,Sold by private treaty 08 Feb 2022,20220208,3/392 Princes Highway,WOONONA,NSW,2517,-34.34137,150.90593,,,,ApartmentUnitFlat,Apartment / Unit / Flat,False,0.0,m2,False
2017284392,listing,/16b-gayantay-way-woonona-nsw-2517-2017284392,935000,is-sold,Sold by private treaty 07 Dec 2021,20211207,16B Gayantay Way,WOONONA,NSW,2517,-34.3488579,150.9037,3,3,3,House,House,False,249.0,m2,False
2017339841,listing,/15-blueberry-circuit-woonona-nsw-2517-2017339841,1400000,is-sold,Sold prior to auction 09 Dec 2021,20211209,15 Blueberry Circuit,WOONONA,NSW,2517,-34.3465958,150.900436,3,3,3,House,House,False,383.0,m2,False
2017341542,listing,/2-thomas-collaery-place-woonona-nsw-2517-2017341542,2590000,is-sold,Sold by private treaty 19 Jan 2022,20220119,2 Thomas Collaery Place,WOONONA,NSW,2517,-34.3611145,150.917252,4,4,4,House,House,False,0.0,m2,False
2017380172,listing,/146-campbell-street-woonona-nsw-2517-2017380172,860000,is-sold,Sold at auction 13 Jan 2022,20220113,146 Campbell Street,WOONONA,NSW,2517,-34.342392,150.906586,3,3,3,House,House,False,465.0,m2,False
2017395880,listing,/82-rixons-pass-road-woonona-nsw-2517-2017395880,1475000,is-sold,Sold prior to auction 02 Dec 2021,20211202,82 Rixons Pass Road,WOONONA,NSW,2517,-34.3517151,150.895081,4,4,4,House,House,False,615.0,m2,False
2017418042,listing,/13-10-kiandra-road-woonona-nsw-2517-2017418042,500000,is-sold,Sold by private treaty 10 Dec 2021,20211210,13/10 Kiandra Road,WOONONA,NSW,2517,-34.34831,150.9164,2,2,2,ApartmentUnitFlat,Apartment / Unit / Flat,False,0.0,m2,False
2017421428,listing,/27-dorrigo-avenue-woonona-nsw-2517-2017421428,2470000,is-sold,Sold by private treaty 10 Dec 2021,20211210,27 Dorrigo Avenue,WOONONA,NSW,2517,-34.35393,150.915573,3,3,3,House,House,False,645.0,m2,False
2017423123,listing,/85-thompson-street-woonona-nsw-2517-2017423123,1300000,is-sold,Sold prior to auction 03 Dec 2021,20211203,85 Thompson Street,WOONONA,NSW,2517,-34.347084,150.912125,3,3,3,House,House,False,601.0,m2,False
2017435014,listing,/13-june-parade-woonona-nsw-2517-2017435014,1260000,is-sold,Sold at auction 14 Dec 2021,20211214,13 June Parade,WOONONA,NSW,2517,-34.33852,150.898987,3,3,3,House,House,False,685.0,m2,False
2017438519,listing,/13-muir-street-woonona-nsw-2517-2017438519,500000,is-sold,Sold by private treaty 09 Dec 2021,20211209,13 Muir Street,WOONONA,NSW,2517,-34.34269,150.913849,4,4,4,House,House,False,835.0,m2,False
2017440297,listing,/45-hillcrest-avenue-woonona-nsw-2517-2017440297,1670000,is-sold,Sold by private treaty 15 Dec 2021,20211215,45 Hillcrest Avenue,WOONONA,NSW,2517,-34.3384247,150.902,3,3,3,House,House,False,651.0,m2,False
2017445518,listing,/57-thompson-street-woonona-nsw-2517-2017445518,1399000,is-sold,Sold by private treaty 15 Dec 2021,20211215,57 Thompson Street,WOONONA,NSW,2517,-34.3442078,150.913055,4,4,4,House,House,False,556.0,m2,False
2017446719,listing,/36-hopetoun-street-woonona-nsw-2517-2017446719,1110000,is-sold,Sold at auction 15 Dec 2021,20211215,36 Hopetoun Street,WOONONA,NSW,2517,-34.33955,150.9099,4,4,4,House,House,False,584.0,m2,False
2017456880,listing,/24-balmer-crescent-woonona-nsw-2517-2017456880,1325000,is-sold,Sold by private treaty 18 Dec 2021,20211218,24 Balmer Crescent,WOONONA,NSW,2517,-34.33748,150.900482,4,4,4,House,House,False,708.0,m2,False
2017462532,listing,/50-gayantay-way-woonona-nsw-2517-2017462532,763000,is-sold,Sold by private treaty 22 Dec 2021,20211222,50 Gayantay Way,WOONONA,NSW,2517,-34.35004,150.902573,2,2,2,House,House,False,0.0,m2,True
2017467119,listing,/10-14-16-hopetoun-st-woonona-nsw-2517-2017467119,651000,is-sold,Sold prior to auction 10 Dec 2021,20211210,10/14 - 16 Hopetoun St,WOONONA,NSW,2517,-34.3395653,150.911835,2,2,2,Townhouse,Townhouse,False,0.0,m2,False
2017470955,listing,/47-lawrence-street-woonona-nsw-2517-2017470955,1975000,is-sold,Sold by private treaty 11 Jan 2022,20220111,47 Lawrence Street,WOONONA,NSW,2517,-34.3424873,150.916443,4,4,4,House,House,False,967.0,m2,False
2017482963,listing,/1-25-thompson-street-woonona-nsw-2517-2017482963,870000,is-sold,Sold by private treaty 14 Jan 2022,20220114,1/25 Thompson Street,WOONONA,NSW,2517,-34.341465,150.914032,2,2,2,Villa,Villa,False,216.0,m2,False
2017487371,listing,/1-15-stanhope-street-woonona-nsw-2517-2017487371,1425000,is-sold,Sold prior to auction 12 Jan 2022,20220112,1/15 Stanhope Street,WOONONA,NSW,2517,-34.3502541,150.90567,4,4,4,House,House,False,0.0,m2,False
2017525005,listing,/38-red-ash-drive-woonona-nsw-2517-2017525005,1430000,is-sold,Sold by private treaty 10 Jan 2022,20220110,38 Red Ash Drive,WOONONA,NSW,2517,-34.3480377,150.900482,3,3,3,House,House,False,0.0,m2,False
2017119673,listing,/5b-popes-road-woonona-nsw-2517-2017119673,1300000,is-sold,Sold by private treaty 02 Dec 2021,20211202,5b Popes Road,WOONONA,NSW,2517,-34.3417053,150.903366,6,6,6,House,House,False,1334.0,m2,False
2017300520,listing,/46b-lighthorse-drive-woonona-nsw-2517-2017300520,,is-sold,Sold by private treaty 05 Nov 2021,20211105,46b Lighthorse Drive,WOONONA,NSW,2517,-34.3544235,150.915482,3,3,3,House,House,False,0.0,m2,False
2017305689,listing,/12-william-clarke-pl-woonona-nsw-2517-2017305689,1830000,is-sold,Sold by private treaty 02 Nov 2021,20211102,12 William Clarke Pl,WOONONA,NSW,2517,-34.3589668,150.91333,4,4,4,House,House,False,618.0,m2,False
2017314328,listing,/6-keerong-avenue-russell-vale-nsw-2517-2017314328,1210000,is-sold,Sold by private treaty 05 Nov 2021,20211105,6 Keerong Avenue,RUSSELL VALE,NSW,2517,-34.361187,150.90712,3,3,3,House,House,False,557.0,m2,False
2017314517,listing,/22-kurraba-road-woonona-nsw-2517-2017314517,3755000,is-sold,Sold at auction 07 Nov 2021,20211107,22 Kurraba Road,WOONONA,NSW,2517,-34.3482437,150.92012,3,3,3,House,House,False,525.0,m2,False
2017332828,listing,/8-blackwood-place-woonona-nsw-2517-2017332828,1800000,is-sold,Sold by private treaty 12 Nov 2021,20211112,8 Blackwood Place,WOONONA,NSW,2517,-34.34495,150.899765,4,4,4,House,House,False,637.0,m2,False
2017338981,listing,/44-williams-crescent-russell-vale-nsw-2517-2017338981,1514000,is-sold,Sold at auction 12 Nov 2021,20211112,44 Williams Crescent,RUSSELL VALE,NSW,2517,-34.3567047,150.906219,3,3,3,House,House,False,727.0,m2,False
2017339683,listing,/9-davidson-avenue-woonona-nsw-2517-2017339683,1375000,is-sold,Sold at auction 03 Nov 2021,20211103,9 Davidson Avenue,WOONONA,NSW,2517,-34.3497963,150.912491,3,3,3,House,House,False,601.0,m2,False
2017339965,listing,/9-hale-street-woonona-nsw-2517-2017339965,1965000,is-sold,Sold by private treaty 05 Nov 2021,20211105,9 Hale Street,WOONONA,NSW,2517,-34.3496132,150.9058,5,5,5,House,House,False,751.0,m2,False
2017349933,listing,/42-hillcrest-avenue-woonona-nsw-2517-2017349933,1886000,is-sold,Sold prior to auction 08 Nov 2021,20211108,42 Hillcrest Avenue,WOONONA,NSW,2517,-34.3390274,150.902176,4,4,4,House,House,False,860.0,m2,False
2017349967,listing,/11-doris-avenue-woonona-nsw-2517-2017349967,1390000,is-sold,Sold at auction 19 Nov 2021,20211119,11 Doris Avenue,WOONONA,NSW,2517,-34.35578,150.907776,4,4,4,House,House,False,569.0,m2,False
2017354622,listing,/8-kulgoa-road-woonona-nsw-2517-2017354622,2600000,is-sold,Sold by private treaty 16 Nov 2021,20211116,8 Kulgoa Road,WOONONA,NSW,2517,-34.34731,150.917908,4,4,4,House,House,False,1233.0,m2,False
2017357221,listing,/23-hollymount-view-woonona-nsw-2517-2017357221,2280000,is-sold,Sold by private treaty 19 Nov 2021,20211119,23 Hollymount View,WOONONA,NSW,2517,-34.34637,150.895065,5,5,5,House,House,False,706.0,m2,False
2017359263,listing,/60-stephen-drive-woonona-nsw-2517-2017359263,1570000,is-sold,Sold at auction 12 Nov 2021,20211112,60 Stephen Drive,WOONONA,NSW,2517,-34.33753,150.899765,3,3,3,House,House,False,556.0,m2,False
2017367028,listing,/12-133a-campbell-street-woonona-nsw-2517-2017367028,601000,is-sold,Sold by private treaty 26 Nov 2021,20211126,12/133A Campbell Street,WOONONA,NSW,2517,-34.34299,150.908325,2,2,2,ApartmentUnitFlat,Apartment / Unit / Flat,False,0.0,m2,False
2017374054,listing,/8-2a-kulgoa-road-woonona-nsw-2517-2017374054,873000,is-sold,Sold at auction 26 Nov 2021,20211126,8/2A Kulgoa Road,WOONONA,NSW,2517,-34.34723,150.916672,2,2,2,ApartmentUnitFlat,Apartment / Unit / Flat,False,0.0,m2,False
2017400844,listing,/1-44-keerong-avenue-russell-vale-nsw-2517-2017400844,800000,is-sold,Sold by private treaty 24 Nov 2021,20211124,1/44 Keerong Avenue,RUSSELL VALE,NSW,2517,-34.360527,150.9029,3,3,3,Townhouse,Townhouse,False,0.0,m2,False
2017407616,listing,/2-glenhaven-street-woonona-nsw-2517-2017407616,1280000,is-sold,Sold by private treaty 25 Nov 2021,20211125,2 Glenhaven Street,WOONONA,NSW,2517,-34.35219,150.90271,3,3,3,House,House,False,905.0,m2,False
2017412553,listing,/5-50-russell-street-woonona-nsw-2517-2017412553,840000,is-sold,Sold by private treaty 08 Nov 2021,20211108,5/50 Russell Street,WOONONA,NSW,2517,-34.34202,150.910828,3,3,3,Townhouse,Townhouse,False,0.0,m2,False
2017700076,listing,/3-32a-popes-road-woonona-nsw-2517-2017700076,1250000,is-sold,Sold by private treaty 24 Nov 2021,20211124,3/32a Popes Road,WOONONA,NSW,2517,-34.342083,150.900391,4,4,4,Townhouse,Townhouse,False,0.0,m2,False
2016912901,listing,/4-647-princes-highway-russell-vale-nsw-2517-2016912901,365000,is-sold,Sold by private treaty 01 Nov 2021,20211101,4/647 Princes Highway,RUSSELL VALE,NSW,2517,-34.359333,150.900574,1,1,1,House,House,False,1270.0,m2,False
2017192332,listing,/7-2a-gordon-street-woonona-nsw-2517-2017192332,,is-sold,Sold by private treaty 13 Oct 2021,20211013,7/2a Gordon Street,WOONONA,NSW,2517,-34.34584,150.905029,3,3,3,Townhouse,Townhouse,False,200.0,m2,False
2017202089,listing,/31-hollymount-view-woonona-nsw-2517-2017202089,2650000,is-sold,Sold by private treaty 17 Oct 2021,20211017,31 Hollymount View,WOONONA,NSW,2517,-34.3461037,150.894333,4,4,4,House,House,False,0.0,m2,False
2017251420,listing,/2a-balmer-crescent-woonona-nsw-2517-2017251420,1675000,is-sold,Sold by private treaty 13 Oct 2021,20211013,2a Balmer Crescent,WOONONA,NSW,2517,-34.3381348,150.901947,4,4,4,House,House,False,314.0,m2,False
2017256689,listing,/18-blackwood-place-woonona-nsw-2517-2017256689,1950000,is-sold,Sold by private treaty 12 Oct 2021,20211012,18 Blackwood Place,WOONONA,NSW,2517,-34.3447647,150.898575,4,4,4,House,House,False,1133.0,m2,False
2017260058,listing,/4-473-princes-highway-woonona-nsw-2517-2017260058,860000,is-sold,Sold by private treaty 21 Oct 2021,20211021,4/473 Princes Highway,WOONONA,NSW,2517,-34.34527,150.9048,3,3,3,Townhouse,Townhouse,False,0.0,m2,False
2017265205,listing,/23-robertson-road-woonona-nsw-2517-2017265205,2590000,is-sold,Sold by private treaty 18 Oct 2021,20211018,23 Robertson Road,WOONONA,NSW,2517,-34.3531075,150.916412,4,4,4,House,House,False,474.0,m2,False
2017274103,listing,/15-133a-campbell-street-woonona-nsw-2517-2017274103,555000,is-sold,Sold by private treaty 29 Oct 2021,20211029,15/133A Campbell Street,WOONONA,NSW,2517,-34.3429832,150.908325,2,2,2,ApartmentUnitFlat,Apartment / Unit / Flat,False,0.0,m2,False
2017279355,listing,/11-corinda-road-woonona-nsw-2517-2017279355,2650500,is-sold,Sold at auction 22 Oct 2021,20211022,11 Corinda Road,WOONONA,NSW,2517,-34.3516541,150.917343,3,3,3,House,House,False,613.0,m2,False
2017282319,listing,/53-flame-tree-circuit-woonona-nsw-2517-2017282319,975000,is-sold,Sold by private treaty 08 Oct 2021,20211008,53 Flame Tree Circuit,WOONONA,NSW,2517,-34.3493843,150.898483,3,3,3,House,House,False,257.0,m2,False
2017294143,listing,/25-18-alice-street-woonona-nsw-2517-2017294143,1215000,is-sold,Sold by private treaty 13 Oct 2021,20211013,25/18 Alice Street,WOONONA,NSW,2517,-34.35203,150.909241,3,3,3,Townhouse,Townhouse,False,0.0,m2,False
2017297710,listing,/5-17-hopetoun-street-woonona-nsw-2517-2017297710,700000,is-sold,Sold by private treaty 26 Oct 2021,20211026,5/17 Hopetoun Street,WOONONA,NSW,2517,-34.3406868,150.911026,2,2,2,Townhouse,Townhouse,False,150.0,m2,False
2017298639,listing,/15-68-russell-street-woonona-nsw-2517-2017298639,635000,is-sold,Sold by private treaty 14 Oct 2021,20211014,15/68 Russell Street,WOONONA,NSW,2517,-34.3421974,150.911987,2,2,2,ApartmentUnitFlat,Apartment / Unit / Flat,False,0.0,m2,False
2017302626,listing,/86-gahans-avenue-woonona-nsw-2517-2017302626,1777000,is-sold,Sold at auction 22 Oct 2021,20211022,86 Gahans Avenue,WOONONA,NSW,2517,-34.34284,150.894211,5,5,5,House,House,False,601.0,m2,False
2017307798,listing,/2-48a-alfred-street-woonona-nsw-2517-2017307798,587000,is-sold,Sold by private treaty 16 Oct 2021,20211016,2/48A Alfred Street,WOONONA,NSW,2517,-34.34722,150.905045,2,2,2,ApartmentUnitFlat,Apartment / Unit / Flat,False,0.0,m2,False
2017311777,listing,/5-26-lawrence-street-woonona-nsw-2517-2017311777,1180000,is-sold,Sold by private treaty 16 Oct 2021,20211016,5/26 Lawrence Street,WOONONA,NSW,2517,-34.34147,150.91803,3,3,3,Townhouse,Townhouse,False,0.0,m2,False
2017315295,listing,/35-duke-street-woonona-nsw-2517-2017315295,1215000,is-sold,Sold at auction 29 Oct 2021,20211029,35 Duke Street,WOONONA,NSW,2517,-34.35124,150.898,3,3,3,House,House,False,675.0,m2,False
2017333682,listing,/24-stephen-drive-woonona-nsw-2517-2017333682,1280000,is-sold,Sold by private treaty 26 Oct 2021,20211026,24 Stephen Drive,WOONONA,NSW,2517,-34.3348923,150.896942,3,3,3,House,House,False,0.0,m2,False
2017356222,listing,/4-14-hopetoun-street-woonona-nsw-2517-2017356222,550000,is-sold,Sold by private treaty 21 Oct 2021,20211021,4/14 Hopetoun Street,WOONONA,NSW,2517,-34.33975,150.91185,2,2,2,Townhouse,Townhouse,False,0.0,m2,False
2017378766,listing,/5-61-campbell-street-woonona-nsw-2517-2017378766,899000,is-sold,Sold by private treaty 29 Oct 2021,20211029,5/61 Campbell Street,WOONONA,NSW,2517,-34.34378,150.91362,3,3,3,Townhouse,Townhouse,False,0.0,m2,False
2017030721,listing,/57-doris-ave-woonona-nsw-2517-2017030721,1300000,is-sold,Sold by private treaty 20 Sep 2021,20210920,57 Doris Ave,WOONONA,NSW,2517,-34.3552246,150.903259,3,3,3,House,House,False,0.0,m2,False
2017115514,listing,/20-halley-crescent-woonona-nsw-2517-2017115514,1450000,is-sold,Sold by private treaty 24 Sep 2021,20210924,20 Halley Crescent,WOONONA,NSW,2517,-34.3506737,150.89949,5,5,5,House,House,False,578.0,m2,False
2017168421,listing,/10-133a-campbell-street-woonona-nsw-2517-2017168421,540000,is-sold,Sold by private treaty 05 Oct 2021,20211005,10/133A Campbell Street,WOONONA,NSW,2517,-34.3429832,150.908325,2,2,2,ApartmentUnitFlat,Apartment / Unit / Flat,False,0.0,m2,False
2017196323,listing,/2-collaery-road-russell-vale-nsw-2517-2017196323,1180000,is-sold,Sold by private treaty 22 Sep 2021,20210922,2 Collaery Road,RUSSELL VALE,NSW,2517,-34.3565369,150.90863,5,5,5,House,House,False,607.0,m2,False
2017199468,listing,/8-56-60-duke-street-woonona-nsw-2517-2017199468,860000,is-sold,Sold by private treaty 17 Sep 2021,20210917,8/56-60 Duke Street,WOONONA,NSW,2517,-34.35066,150.8973,3,3,3,Townhouse,Townhouse,False,0.0,m2,False
2017200999,listing,/32-doris-avenue-woonona-nsw-2517-2017200999,1340000,is-sold,Sold at auction 21 Sep 2021,20210921,32 Doris Avenue,WOONONA,NSW,2517,-34.3549232,150.905685,3,3,3,House,House,False,556.0,m2,False
2017239655,listing,/13-campbell-street-woonona-nsw-2517-2017239655,2315000,is-sold,Sold at auction 29 Sep 2021,20210929,13 Campbell Street,WOONONA,NSW,2517,-34.344574,150.919052,3,3,3,House,House,False,792.0,m2,False
2017242609,listing,/3-cherry-street-woonona-nsw-2517-2017242609,1250000,is-sold,Sold prior to auction 17 Sep 2021,20210917,3 Cherry Street,WOONONA,NSW,2517,-34.34659,150.903244,3,3,3,House,House,False,419.0,m2,False
2017243814,listing,/3-gardenia-terrace-woonona-nsw-2517-2017243814,1215000,is-sold,Sold prior to auction 17 Sep 2021,20210917,3 Gardenia Terrace,WOONONA,NSW,2517,-34.33862,150.907776,3,3,3,House,House,False,414.0,m2,False
2017254113,listing,/1-18-high-street-woonona-nsw-2517-2017254113,580000,is-sold,Sold by private treaty 20 Sep 2021,20210920,1/18 High Street,WOONONA,NSW,2517,-34.34309,150.90155,2,2,2,ApartmentUnitFlat,Apartment / Unit / Flat,False,0.0,m2,False
2017254617,listing,/1-29-dorrigo-avenue-woonona-nsw-2517-2017254617,927500,is-sold,Sold at auction 05 Oct 2021,20211005,1/29 Dorrigo Avenue,WOONONA,NSW,2517,-34.3539925,150.915344,3,3,3,Villa,Villa,False,0.0,m2,False
2017254793,listing,/33-keerong-avenue-russell-vale-nsw-2517-2017254793,1280000,is-sold,Sold at auction 06 Oct 2021,20211006,33 Keerong Avenue,RUSSELL VALE,NSW,2517,-34.3613663,150.905212,3,3,3,House,House,False,639.0,m2,False
2017254798,listing,/55-thompson-street-woonona-nsw-2517-2017254798,1235000,is-sold,Sold at auction 02 Oct 2021,20211002,55 Thompson Street,WOONONA,NSW,2517,-34.3440628,150.913071,4,4,4,House,House,False,563.0,m2,False
2017257094,listing,/11-robertson-road-woonona-nsw-2517-2017257094,2520000,is-sold,Sold by private treaty 21 Sep 2021,20210921,11 Robertson Road,WOONONA,NSW,2517,-34.35336,150.917343,3,3,3,House,House,False,0.0,m2,False
2017264928,listing,/519-princes-highway-woonona-nsw-2517-2017264928,1295000,is-sold,Sold by private treaty 06 Oct 2021,20211006,519 Princes Highway,WOONONA,NSW,2517,-34.3485374,150.904327,4,4,4,House,House,False,696.0,m2,False
2017275777,listing,/2-70-gray-street-woonona-nsw-2517-2017275777,826000,is-sold,Sold by private treaty 28 Sep 2021,20210928,2/70 Gray Street,WOONONA,NSW,2517,-34.34801,150.910721,2,2,2,Villa,Villa,False,0.0,m2,False
2017285234,listing,/1-8-14-rixons-pass-road-woonona-nsw-2517-2017285234,717000,is-sold,Sold prior to auction 22 Sep 2021,20210922,1/8-14 Rixons Pass Road,WOONONA,NSW,2517,-34.352623,150.901672,2,2,2,House,House,False,0.0,m2,False
2017288817,listing,/27-agapantha-terrace-woonona-nsw-2517-2017288817,1216000,is-sold,Sold by private treaty 06 Oct 2021,20211006,27 Agapantha Terrace,WOONONA,NSW,2517,-34.3393326,150.907272,3,3,3,House,House,False,0.0,m2,False
2017300863,listing,/15-2-forestview-way-woonona-nsw-2517-2017300863,700000,is-sold,Sold by private treaty 01 Oct 2021,20211001,15/2 Forestview Way,WOONONA,NSW,2517,-34.3477821,150.903366,2,2,2,ApartmentUnitFlat,Apartment / Unit / Flat,False,0.0,m2,False
2017316354,listing,/3-35-nicholson-road-woonona-nsw-2517-2017316354,780000,is-sold,Sold by private treaty 27 Sep 2021,20210927,3/35 Nicholson Road,WOONONA,NSW,2517,-34.3446426,150.908737,2,2,2,ApartmentUnitFlat,Apartment / Unit / Flat,False,0.0,m2,False
2017058743,listing,/76-stephen-drive-woonona-nsw-2517-2017058743,1275000,is-sold,Sold by private treaty 19 Aug 2021,20210819,76 Stephen Drive,WOONONA,NSW,2517,-34.3384933,150.899811,4,4,4,House,House,False,683.0,m2,False
2017061085,listing,/27a-collaery-road-russell-vale-nsw-2517-2017061085,1400000,is-sold,Sold by private treaty 17 Aug 2021,20210817,27A Collaery Road,RUSSELL VALE,NSW,2517,-34.356102,150.903122,3,3,3,SemiDetached,Semi-Detached,False,360.0,m2,False
2017130375,listing,/49b-popes-road-woonona-nsw-2517-2017130375,1390000,is-sold,Sold by private treaty 17 Aug 2021,20210817,49B Popes Road,WOONONA,NSW,2517,-34.3409958,150.899353,3,3,3,House,House,False,1070.0,m2,False
2017130733,listing,/8-12-kiandra-rd-woonona-nsw-2517-2017130733,830000,is-sold,Sold by private treaty 13 Aug 2021,20210813,8/12 Kiandra Rd,WOONONA,NSW,2517,-34.34867,150.916122,2,2,2,Townhouse,Townhouse,False,0.0,m2,False
2017141400,listing,/19-cherry-street-woonona-nsw-2517-2017141400,1270000,is-sold,Sold by private treaty 25 Aug 2021,20210825,19 Cherry Street,WOONONA,NSW,2517,-34.3487358,150.902283,3,3,3,House,House,False,0.0,m2,False
2017163490,listing,/57-campbell-street-woonona-nsw-2517-2017163490,1366000,is-sold,Sold by private treaty 24 Aug 2021,20210824,57 Campbell Street,WOONONA,NSW,2517,-34.34388,150.914078,3,3,3,House,House,False,556.0,m2,False
2017169449,listing,/1-hillcrest-avenue-woonona-nsw-2517-2017169449,1625000,is-sold,Sold by private treaty 20 Aug 2021,20210820,1 Hillcrest Avenue,WOONONA,NSW,2517,-34.3398933,150.905212,4,4,4,House,House,False,923.0,m2,False
2017182929,listing,/2-2-6-henry-fry-pl-woonona-nsw-2517-2017182929,875000,is-sold,Sold by private treaty 10 Sep 2021,20210910,2/2-6 Henry Fry Pl,WOONONA,NSW,2517,-34.35765,150.912888,2,2,2,Townhouse,Townhouse,False,0.0,m2,False
2017196757,listing,/34-stephen-drive-woonona-nsw-2517-2017196757,1700000,is-sold,Sold by private treaty 20 Aug 2021,20210820,34 Stephen Drive,WOONONA,NSW,2517,-34.33569,150.897263,4,4,4,House,House,False,556.0,m2,False
2017199588,listing,/14-16-18-ball-street-woonona-nsw-2517-2017199588,730000,is-sold,Sold by private treaty 30 Aug 2021,20210830,14/16-18 Ball Street,WOONONA,NSW,2517,-34.341526,150.904663,2,2,2,Townhouse,Townhouse,False,0.0,m2,False
2017200805,listing,/53-campbell-street-woonona-nsw-2517-2017200805,1700000,is-sold,Sold by private treaty 15 Sep 2021,20210915,53 Campbell Street,WOONONA,NSW,2517,-34.3439369,150.914413,4,4,4,House,House,False,713.0,m2,False
2017203495,listing,/1-25-harriet-spearing-drive-woonona-nsw-2517-2017203495,1460000,is-sold,Sold by private treaty 01 Sep 2021,20210901,1/25 Harriet Spearing Drive,WOONONA,NSW,2517,-34.358017,150.916489,3,3,3,Villa,Villa,False,0.0,m2,False
2017210852,listing,/1-133a-campbell-street-woonona-nsw-2517-2017210852,580000,is-sold,Sold by private treaty 27 Aug 2021,20210827,1/133A Campbell Street,WOONONA,NSW,2517,-34.3429832,150.908325,2,2,2,ApartmentUnitFlat,Apartment / Unit / Flat,False,0.0,m2,False
2017211467,listing,/11-robert-street-woonona-nsw-2517-2017211467,1425000,is-sold,Sold by private treaty 09 Sep 2021,20210909,11 Robert Street,WOONONA,NSW,2517,-34.3425674,150.9094,3,3,3,House,House,False,0.0,m2,False
2017212340,listing,/12-corinda-road-woonona-nsw-2517-2017212340,2425000,is-sold,Sold by private treaty 24 Aug 2021,20210824,12 Corinda Road,WOONONA,NSW,2517,-34.3512154,150.917343,3,3,3,House,House,False,0.0,m2,False
2017225887,listing,/3-45-campbell-street-woonona-nsw-2517-2017225887,935000,is-sold,Sold by private treaty 16 Sep 2021,20210916,3/45 Campbell Street,WOONONA,NSW,2517,-34.3440628,150.915161,3,3,3,Townhouse,Townhouse,False,0.0,m2,False
2017239606,listing,/6-44-46-campbell-street-woonona-nsw-2517-2017239606,700000,is-sold,Sold by private treaty 09 Sep 2021,20210909,6/44-46 Campbell Street,WOONONA,NSW,2517,-34.3433037,150.915,2,2,2,House,House,False,0.0,m2,False
2017256665,listing,/1-81-popes-road-woonona-nsw-2517-2017256665,900000,is-sold,Sold by private treaty 03 Sep 2021,20210903,1/81 Popes Road,WOONONA,NSW,2517,-34.3410835,150.898239,3,3,3,SemiDetached,Semi-Detached,False,0.0,m2,False
2017284931,listing,/72-74-campbell-street-woonona-nsw-2517-2017284931,,is-sold,Sold by private treaty 17 Sep 2021,20210917,72 - 74 Campbell Street,WOONONA,NSW,2517,-34.3428345,150.911774,,,,House,House,False,1936.0,m2,False
2017416335,listing,/15-joanne-street-woonona-nsw-2517-2017416335,1875000,is-sold,Sold by private treaty 14 Sep 2021,20210914,15 Joanne Street,WOONONA,NSW,2517,-34.3372536,150.897629,4,4,4,House,House,False,0.0,m2,False
2016974001,listing,/14-george-cheadie-place-woonona-nsw-2517-2016974001,1301000,is-sold,Sold by private treaty 03 Jul 2021,20210703,14 George Cheadie Place,WOONONA,NSW,2517,-34.355278,150.913574,4,4,4,House,House,False,724.0,m2,False
2017053522,listing,/24-kareela-road-woonona-nsw-2517-2017053522,2400000,is-sold,Sold at auction 02 Jul 2021,20210702,24 Kareela Road,WOONONA,NSW,2517,-34.34725,150.9189,3,3,3,House,House,False,588.0,m2,False
2017059141,listing,/7-2-forestview-way-woonona-nsw-2517-2017059141,650000,is-sold,Sold by private treaty 07 Jul 2021,20210707,7/2 Forestview Way,WOONONA,NSW,2517,-34.3477821,150.903366,2,2,2,ApartmentUnitFlat,Apartment / Unit / Flat,False,0.0,m2,False
2017061367,listing,/4-27-nicholson-road-woonona-nsw-2517-2017061367,700000,is-sold,Sold by private treaty 09 Jul 2021,20210709,4/27 Nicholson Road,WOONONA,NSW,2517,-34.3439255,150.9079,3,3,3,House,House,False,0.0,m2,False
2017072477,listing,/3-492-496-princes-highway-woonona-nsw-2517-2017072477,710000,is-sold,Sold by private treaty 05 Jul 2021,20210705,3/492-496 Princes Highway,WOONONA,NSW,2517,-34.3460464,150.903748,2,2,2,Townhouse,Townhouse,False,0.0,m2,False
2017073755,listing,/9-robert-westmacott-avenue-woonona-nsw-2517-2017073755,2173000,is-sold,Sold at auction 10 Jul 2021,20210710,9 Robert Westmacott Avenue,WOONONA,NSW,2517,-34.359333,150.915054,4,4,4,House,House,False,795.0,m2,False
2017084156,listing,/5-corkwood-circuit-woonona-nsw-2517-2017084156,1080000,is-sold,Sold by private treaty 05 Jul 2021,20210705,5 Corkwood Circuit,WOONONA,NSW,2517,-34.3483772,150.902771,3,3,3,House,House,False,204.0,m2,False
2017086668,listing,/30-gayantay-way-woonona-nsw-2517-2017086668,1200000,is-sold,Sold by private treaty 16 Jul 2021,20210716,30 Gayantay Way,WOONONA,NSW,2517,-34.349678,150.903534,3,3,3,House,House,False,0.0,m2,False
2017109144,listing,/32-joseph-street-woonona-nsw-2517-2017109144,1220000,is-sold,Sold by private treaty 08 Jul 2021,20210708,32 Joseph Street,WOONONA,NSW,2517,-34.3385162,150.897446,3,3,3,House,House,False,0.0,m2,False
2017110289,listing,/2-15-stanhope-street-woonona-nsw-2517-2017110289,1155000,is-sold,Sold at auction 28 Jul 2021,20210728,2/15 Stanhope Street,WOONONA,NSW,2517,-34.3502541,150.90567,3,3,3,House,House,False,230.0,m2,False
2017110652,listing,/8-austin-street-woonona-nsw-2517-2017110652,1910000,is-sold,Sold at auction 21 Jul 2021,20210721,8 Austin Street,WOONONA,NSW,2517,-34.34609,150.90889,4,4,4,House,House,False,803.0,m2,False
2017126911,listing,/4-thomas-hale-avenue-woonona-nsw-2517-2017126911,2075000,is-sold,Sold by private treaty 04 Aug 2021,20210804,4 Thomas Hale Avenue,WOONONA,NSW,2517,-34.3571358,150.91507,4,4,4,House,House,False,607.0,m2,False
2017131598,listing,/9-98-campbell-street-woonona-nsw-2517-2017131598,658000,is-sold,Sold by private treaty 23 Jul 2021,20210723,9/98 Campbell Street,WOONONA,NSW,2517,-34.3428764,150.910049,2,2,2,Townhouse,Townhouse,False,0.0,m2,False
2017142875,listing,/5-2-henry-fry-place-woonona-nsw-2517-2017142875,952000,is-sold,Sold by private treaty 30 Jul 2021,20210730,5/2 Henry Fry Place,WOONONA,NSW,2517,-34.35765,150.912888,3,3,3,Villa,Villa,False,0.0,m2,False
2017149731,listing,/3b-forestview-way-woonona-nsw-2517-2017149731,950000,is-sold,Sold by private treaty 02 Aug 2021,20210802,3B Forestview Way,WOONONA,NSW,2517,-34.34862,150.9035,3,3,3,House,House,False,268.0,m2,False
2017153932,listing,/4-14-16-high-street-woonona-nsw-2517-2017153932,910000,is-sold,Sold by private treaty 30 Jul 2021,20210730,4/14-16 High Street,WOONONA,NSW,2517,-34.3430252,150.901184,3,3,3,Townhouse,Townhouse,False,0.0,m2,False
2017157163,listing,/30-cherry-street-woonona-nsw-2517-2017157163,1280000,is-sold,Sold by private treaty 03 Aug 2021,20210803,30 Cherry Street,WOONONA,NSW,2517,-34.3489723,150.901718,3,3,3,House,House,False,362.0,m2,False
2017157584,listing,/13-wayari-way-woonona-nsw-2517-2017157584,740000,is-sold,Sold by private treaty 10 Aug 2021,20210810,13 Wayari Way,WOONONA,NSW,2517,-34.349617,150.903091,2,2,2,House,House,False,0.0,m2,True
2017171768,listing,/8-38-40-duke-street-woonona-nsw-2517-2017171768,872501,is-sold,Sold by private treaty 03 Aug 2021,20210803,8/38-40 Duke Street,WOONONA,NSW,2517,-34.3505058,150.89798,3,3,3,ApartmentUnitFlat,Apartment / Unit / Flat,False,0.0,m2,False
2017194504,listing,/27b-collaery-road-russell-vale-nsw-2517-2017194504,1410000,is-sold,Sold by private treaty 06 Aug 2021,20210806,27B Collaery Road,RUSSELL VALE,NSW,2517,-34.356102,150.903122,3,3,3,SemiDetached,Semi-Detached,False,360.0,m2,False
2016923306,listing,/36-mahogany-way-woonona-nsw-2517-2016923306,1165000,is-sold,Sold by private treaty 16 Jun 2021,20210616,36 Mahogany Way,WOONONA,NSW,2517,-34.3489952,150.898865,3,3,3,House,House,False,377.0,m2,False
2016983644,listing,/unit-15-9-cherry-st-woonona-nsw-2517-2016983644,735000,is-sold,Sold by private treaty 16 Jun 2021,20210616,Unit 15 9 Cherry St,WOONONA,NSW,2517,-34.3471756,150.903366,3,3,3,ApartmentUnitFlat,Apartment / Unit / Flat,False,0.0,m2,False
2016998841,listing,/29-doris-avenue-woonona-nsw-2517-2016998841,1325000,is-sold,Sold by private treaty 09 Jun 2021,20210609,29 Doris Avenue,WOONONA,NSW,2517,-34.35556,150.906082,4,4,4,House,House,False,0.0,m2,False
2017000391,listing,/4-grandiflora-tce-woonona-nsw-2517-2017000391,1000000,is-sold,Sold at auction 09 Jun 2021,20210609,4 Grandiflora Tce,WOONONA,NSW,2517,-34.33851,150.908676,3,3,3,House,House,False,0.0,m2,False
2017015418,listing,/6-adams-pde-woonona-nsw-2517-2017015418,1205000,is-sold,Sold by private treaty 22 Jun 2021,20210622,6 Adams Pde,WOONONA,NSW,2517,-34.3464279,150.91571,4,4,4,House,House,False,959.0,m2,False
2017018485,listing,/7-14-18-alice-street-woonona-nsw-2517-2017018485,775000,is-sold,Sold by private treaty 16 Jun 2021,20210616,7/14-18 Alice Street,WOONONA,NSW,2517,-34.3524742,150.909149,3,3,3,ApartmentUnitFlat,Apartment / Unit / Flat,False,0.0,m2,False
2017020742,listing,/30-joanne-street-woonona-nsw-2517-2017020742,1520000,is-sold,Sold by private treaty 30 Jun 2021,20210630,30 Joanne Street,WOONONA,NSW,2517,-34.33809,150.896713,3,3,3,House,House,False,556.0,m2,False
2017027523,listing,/18-lassiter-avenue-woonona-nsw-2517-2017027523,1910000,is-sold,Sold at auction 18 Jun 2021,20210618,18 Lassiter Avenue,WOONONA,NSW,2517,-34.35502,150.915939,3,3,3,House,House,False,626.0,m2,False
2017030715,listing,/13-cedar-tce-woonona-nsw-2517-2017030715,1250000,is-sold,Sold by private treaty 08 Jun 2021,20210608,13 Cedar Tce,WOONONA,NSW,2517,-34.3456841,150.898758,3,3,3,House,House,False,0.0,m2,False
2017036941,listing,/9-woonona-parade-woonona-nsw-2517-2017036941,1350000,is-sold,Sold by private treaty 08 Jun 2021,20210608,9 Woonona Parade,WOONONA,NSW,2517,-34.3408852,150.902954,3,3,3,House,House,False,697.0,m2,False
2017041353,listing,/64-stephen-drive-woonona-nsw-2517-2017041353,1280000,is-sold,Sold at auction 28 Jun 2021,20210628,64 Stephen Drive,WOONONA,NSW,2517,-34.3377342,150.899948,3,3,3,House,House,False,553.0,m2,False
2017041354,listing,/53-stephen-drive-woonona-nsw-2517-2017041354,951500,is-sold,Sold by private treaty 08 Jun 2021,20210608,53 Stephen Drive,WOONONA,NSW,2517,-34.33603,150.899033,2,2,2,House,House,False,835.0,m2,False
2017046308,listing,/3-39-41-popes-road-woonona-nsw-2517-2017046308,900000,is-sold,Sold by private treaty 21 Jun 2021,20210621,3/39-41 Popes Road,WOONONA,NSW,2517,-34.3407,150.900055,2,2,2,Townhouse,Townhouse,False,0.0,m2,False
2017048722,listing,/2-434-438-princes-highway-woonona-nsw-2517-2017048722,710000,is-sold,Sold by private treaty 21 Jun 2021,20210621,2/434-438 Princes Highway,WOONONA,NSW,2517,-34.3428421,150.904,3,3,3,Townhouse,Townhouse,False,0.0,m2,False
2017049438,listing,/11-56-60-duke-street-woonona-nsw-2517-2017049438,735000,is-sold,Sold by private treaty 08 Jun 2021,20210608,11/56-60 Duke Street,WOONONA,NSW,2517,-34.35066,150.8973,3,3,3,Townhouse,Townhouse,False,0.0,m2,False
2017054200,listing,/6-133a-campbell-street-woonona-nsw-2517-2017054200,570000,is-sold,Sold by private treaty 11 Jun 2021,20210611,6/133a Campbell Street,WOONONA,NSW,2517,-34.3429832,150.908325,2,2,2,ApartmentUnitFlat,Apartment / Unit / Flat,False,0.0,m2,False
2017055982,listing,/9-18-high-street-woonona-nsw-2517-2017055982,330000,is-sold,Sold by private treaty 11 Jun 2021,20210611,9/18 High Street,WOONONA,NSW,2517,-34.34309,150.90155,1,1,1,Townhouse,Townhouse,False,0.0,m2,False
2017064461,listing,/8-1-popes-road-woonona-nsw-2517-2017064461,672000,is-sold,Sold by private treaty 18 Jun 2021,20210618,8/1 Popes Road,WOONONA,NSW,2517,-34.3420753,150.904449,2,2,2,Townhouse,Townhouse,False,0.0,m2,False
2017071223,listing,/12-hicks-street-russell-vale-nsw-2517-2017071223,1550000,is-sold,Sold by private treaty 19 Jun 2021,20210619,12 Hicks Street,RUSSELL VALE,NSW,2517,-34.35682,150.898087,4,4,4,House,House,False,1200.0,m2,False
2017073254,listing,/7-luxor-street-woonona-nsw-2517-2017073254,1230000,is-sold,Sold at auction 26 Jun 2021,20210626,7 Luxor Street,WOONONA,NSW,2517,-34.3393,150.906281,4,4,4,House,House,False,495.0,m2,False
2016564667,listing,/3-6-pitman-lane-woonona-nsw-2517-2016564667,670000,is-sold,Sold by private treaty 04 Jun 2021,20210604,3/6 Pitman Lane,WOONONA,NSW,2517,-34.3394547,150.9109,2,2,2,ApartmentUnitFlat,Apartment / Unit / Flat,False,0.0,m2,False
2016839561,listing,/428-princes-hwy-woonona-nsw-2517-2016839561,1225000,is-sold,Sold by private treaty 29 May 2021,20210529,428 Princes Hwy,WOONONA,NSW,2517,-34.3423042,150.904709,2,2,2,House,House,False,733.0,m2,False
2016863266,listing,/7-june-parade-woonona-nsw-2517-2016863266,1235000,is-sold,Sold by private treaty 06 May 2021,20210506,7 June Parade,WOONONA,NSW,2517,-34.3381271,150.8993,3,3,3,House,House,False,0.0,m2,False
2016908541,listing,/6-kareela-road-woonona-nsw-2517-2016908541,3750000,is-sold,Sold at auction 01 May 2021,20210501,6 Kareela Road,WOONONA,NSW,2517,-34.34744,150.9204,7,7,7,House,House,False,626.0,m2,False
2016921768,listing,/12-60-keerong-avenue-russell-vale-nsw-2517-2016921768,675000,is-sold,Sold by private treaty 10 May 2021,20210510,12/60 Keerong Avenue,RUSSELL VALE,NSW,2517,-34.3600578,150.901443,2,2,2,Townhouse,Townhouse,False,0.0,m2,False
2016930408,listing,/23-nicholson-road-woonona-nsw-2517-2016930408,905000,is-sold,Sold by private treaty 07 May 2021,20210507,23 Nicholson Road,WOONONA,NSW,2517,-34.34424,150.907379,2,2,2,House,House,False,435.0,m2,False
2016936900,listing,/37-gray-street-woonona-nsw-2517-2016936900,1450000,is-sold,Sold prior to auction 27 Apr 2021,20210427,37 Gray Street,WOONONA,NSW,2517,-34.3474159,150.910416,3,3,3,House,House,False,613.0,m2,False
2016939741,listing,/8-woonona-parade-woonona-nsw-2517-2016939741,1805000,is-sold,Sold by private treaty 03 May 2021,20210503,8 Woonona Parade,WOONONA,NSW,2517,-34.3414536,150.902359,5,5,5,House,House,False,670.0,m2,False
2016944323,listing,/44-gahans-lane-woonona-nsw-2517-2016944323,1410000,is-sold,Sold by private treaty 30 Apr 2021,20210430,44 Gahans Lane,WOONONA,NSW,2517,-34.3440247,150.898941,3,3,3,House,House,False,556.0,m2,False
2016953155,listing,/3-65-campbell-street-woonona-nsw-2517-2016953155,847500,is-sold,Sold by private treaty 01 May 2021,20210501,3/65 Campbell Street,WOONONA,NSW,2517,-34.344,150.913391,3,3,3,Townhouse,Townhouse,False,0.0,m2,False
2016960658,listing,/3a-cooper-avenue-woonona-nsw-2517-2016960658,2222000,is-sold,Sold prior to auction 11 May 2021,20210511,3A Cooper Avenue,WOONONA,NSW,2517,-34.3471451,150.914474,,,,VacantLand,Vacant land,False,3057.0,m2,False
2016970574,listing,/6-high-street-woonona-nsw-2517-2016970574,1265000,is-sold,Sold at auction 25 May 2021,20210525,6 High Street,WOONONA,NSW,2517,-34.3425026,150.901688,4,4,4,House,House,False,423.0,m2,False
2016978045,listing,/66-gray-street-woonona-nsw-2517-2016978045,890000,is-sold,Sold at auction 24 May 2021,20210524,66 Gray Street,WOONONA,NSW,2517,-34.34779,150.910263,3,3,3,House,House,False,409.0,m2,False
2016983682,listing,/61-kathleen-crescent-woonona-nsw-2517-2016983682,1175000,is-sold,Sold by private treaty 12 May 2021,20210512,61 Kathleen Crescent,WOONONA,NSW,2517,-34.3540878,150.905762,3,3,3,House,House,False,0.0,m2,False
2016995314,listing,/31-cotterill-avenue-woonona-nsw-2517-2016995314,950000,is-sold,Sold by private treaty 24 May 2021,20210524,31 Cotterill Avenue,WOONONA,NSW,2517,-34.3511734,150.9141,2,2,2,House,House,False,544.0,m2,False
2016997694,listing,/49-russell-street-woonona-nsw-2517-2016997694,1220000,is-sold,Sold at auction 04 Jun 2021,20210604,49 Russell Street,WOONONA,NSW,2517,-34.3413162,150.911026,2,2,2,House,House,False,489.0,m2,False
2017012730,listing,/8-balmer-crescent-woonona-nsw-2517-2017012730,1310000,is-sold,Sold at auction 08 Jun 2021,20210608,8 Balmer Crescent,WOONONA,NSW,2517,-34.3376579,150.901947,4,4,4,House,House,False,1309.0,m2,False
2017013295,listing,/3-kathleen-crescent-woonona-nsw-2517-2017013295,1110000,is-sold,Sold at auction 05 Jun 2021,20210605,3 Kathleen Crescent,WOONONA,NSW,2517,-34.35515,150.90863,3,3,3,House,House,False,0.0,m2,False
2017013493,listing,/1-5-forestview-way-woonona-nsw-2517-2017013493,870000,is-sold,Sold by private treaty 25 May 2021,20210525,1/5 Forestview Way,WOONONA,NSW,2517,-34.3484955,150.903229,3,3,3,Townhouse,Townhouse,False,234.0,m2,False
2017018374,listing,/5-popes-road-woonona-nsw-2517-2017018374,1450000,is-sold,Sold by private treaty 01 Jun 2021,20210601,5 Popes Road,WOONONA,NSW,2517,-34.34209,150.90358,3,3,3,House,House,False,563.0,m2,False
2016202697,listing,/4-13-popes-road-woonona-nsw-2517-2016202697,900000,is-sold,Sold by private treaty 07 Apr 2021,20210407,4/13 Popes Road,WOONONA,NSW,2517,-34.3418427,150.903,3,3,3,Townhouse,Townhouse,False,0.0,m2,False
2016769973,listing,/4-wayari-way-woonona-nsw-2517-2016769973,720000,is-sold,Sold by private treaty 07 Apr 2021,20210407,4 Wayari Way,WOONONA,NSW,2517,-34.34921,150.902771,2,2,2,Villa,Villa,False,0.0,m2,False
2016824593,listing,/14-2-forestview-way-woonona-nsw-2517-2016824593,660000,is-sold,Sold by private treaty 21 Apr 2021,20210421,14/2 Forestview Way,WOONONA,NSW,2517,-34.3477364,150.903275,3,3,3,ApartmentUnitFlat,Apartment / Unit / Flat,False,0.0,m2,False
2016883569,listing,/1-10-beach-drive-woonona-nsw-2517-2016883569,930000,is-sold,Sold at auction 17 Apr 2021,20210417,1/10 Beach Drive,WOONONA,NSW,2517,-34.3505974,150.918945,2,2,2,ApartmentUnitFlat,Apartment / Unit / Flat,False,0.0,m2,False
2016883583,listing,/3-10-beach-drive-woonona-nsw-2517-2016883583,660000,is-sold,Sold at auction 17 Apr 2021,20210417,3/10 Beach Drive,WOONONA,NSW,2517,-34.3505974,150.918945,1,1,1,ApartmentUnitFlat,Apartment / Unit / Flat,False,0.0,m2,False
2016899097,listing,/16-alfred-street-woonona-nsw-2517-2016899097,1880000,is-sold,Sold at auction 23 Apr 2021,20210423,16 Alfred Street,WOONONA,NSW,2517,-34.34808,150.908691,3,3,3,House,House,False,700.0,m2,False
2016899190,listing,/3-91-campbell-street-woonona-nsw-2517-2016899190,905000,is-sold,Sold by private treaty 07 Apr 2021,20210407,3/91 Campbell Street,WOONONA,NSW,2517,-34.34366,150.910934,3,3,3,Townhouse,Townhouse,False,0.0,m2,False
2016902116,listing,/11-liddle-street-woonona-nsw-2517-2016902116,1660000,is-sold,Sold at auction 22 Apr 2021,20210422,11 Liddle Street,WOONONA,NSW,2517,-34.3459549,150.908142,3,3,3,House,House,False,859.0,m2,False
2016902286,listing,/13-woodland-avenue-woonona-nsw-2517-2016902286,1336000,is-sold,Sold at auction 21 Apr 2021,20210421,13 Woodland Avenue,WOONONA,NSW,2517,-34.3462677,150.902084,4,4,4,House,House,False,405.0,m2,False
2016902292,listing,/1-44-campbell-street-woonona-nsw-2517-2016902292,855000,is-sold,Sold by private treaty 09 Apr 2021,20210409,1/44 Campbell Street,WOONONA,NSW,2517,-34.3421936,150.907013,3,3,3,Townhouse,Townhouse,False,0.0,m2,False
2016903420,listing,/64-beach-drive-woonona-nsw-2517-2016903420,4200000,is-sold,Sold by private treaty 19 Apr 2021,20210419,64 Beach Drive,WOONONA,NSW,2517,-34.35454,150.9184,4,4,4,House,House,False,784.0,m2,False
2016905534,listing,/7b-forestview-way-woonona-nsw-2517-2016905534,1020000,is-sold,Sold prior to auction 20 Apr 2021,20210420,7B Forestview Way,WOONONA,NSW,2517,-34.34821,150.902939,3,3,3,SemiDetached,Semi-Detached,False,0.0,m2,False
2016909852,listing,/5-edward-corrigan-close-woonona-nsw-2517-2016909852,1525000,is-sold,Sold prior to auction 21 Apr 2021,20210421,5 Edward Corrigan Close,WOONONA,NSW,2517,-34.3588257,150.91272,5,5,5,House,House,False,553.0,m2,False
2016915577,listing,/22-alfred-street-woonona-nsw-2517-2016915577,1905000,is-sold,Sold by private treaty 14 Apr 2021,20210414,22 Alfred Street,WOONONA,NSW,2517,-34.34804,150.908173,5,5,5,House,House,False,696.0,m2,False
2016917768,listing,/1-44-keerong-avenue-russell-vale-nsw-2517-2016917768,705000,is-sold,Sold by private treaty 15 Apr 2021,20210415,1/44 Keerong Avenue,RUSSELL VALE,NSW,2517,-34.360527,150.9029,3,3,3,Townhouse,Townhouse,False,0.0,m2,False
2016918094,listing,/71-duke-street-woonona-nsw-2517-2016918094,1450000,is-sold,Sold by private treaty 14 Apr 2021,20210414,71 Duke Street,WOONONA,NSW,2517,-34.351387,150.894577,4,4,4,House,House,False,618.0,m2,False
2016931632,listing,/5-16-campbell-street-woonona-nsw-2517-2016931632,1100000,is-sold,Sold by private treaty 20 Apr 2021,20210420,5/16 Campbell Street,WOONONA,NSW,2517,-34.34383,150.918808,3,3,3,Townhouse,Townhouse,False,0.0,m2,False
2016934572,listing,/3-19-nicholson-road-woonona-nsw-2517-2016934572,750000,is-sold,Sold by private treaty 20 Apr 2021,20210420,3/19 Nicholson Road,WOONONA,NSW,2517,-34.3437271,150.907227,3,3,3,Townhouse,Townhouse,False,0.0,m2,False
2016936488,listing,/4-60-62-keerong-avenue-russell-vale-nsw-2517-2016936488,710000,is-sold,Sold by private treaty 22 Apr 2021,20210422,4/60-62 Keerong Avenue,RUSSELL VALE,NSW,2517,-34.3600578,150.901443,2,2,2,Townhouse,Townhouse,False,0.0,m2,False
2016954044,listing,/2-23-hopetoun-street-woonona-nsw-2517-2016954044,801000,is-sold,Sold by private treaty 26 Apr 2021,20210426,2/23 Hopetoun Street,WOONONA,NSW,2517,-34.3399963,150.910675,3,3,3,Townhouse,Townhouse,False,0.0,m2,False
2016013697,listing,/24-39-collaery-road-russell-vale-nsw-2517-2016013697,716100,is-sold,Sold by private treaty 17 Mar 2021,20210317,24/39 Collaery Road,RUSSELL VALE,NSW,2517,-34.35692,150.902,3,3,3,Townhouse,Townhouse,False,0.0,m2,False
2016062217,listing,/17-high-street-woonona-nsw-2517-2016062217,1140000,is-sold,Sold by private treaty 15 Mar 2021,20210315,17 High Street,WOONONA,NSW,2517,-34.3438644,150.901855,3,3,3,House,House,False,0.0,m2,False
2016305111,listing,/5-35-nicholson-road-woonona-nsw-2517-2016305111,875000,is-sold,Sold by private treaty 18 Mar 2021,20210318,5/35 Nicholson Road,WOONONA,NSW,2517,-34.3446,150.908356,3,3,3,Townhouse,Townhouse,False,0.0,m2,False
2016553370,listing,/5-13-luxor-st-woonona-nsw-2517-2016553370,760000,is-sold,Sold by private treaty 30 Mar 2021,20210330,5/13 Luxor St,WOONONA,NSW,2517,-34.3400955,150.906525,3,3,3,Townhouse,Townhouse,False,0.0,m2,False
2016799101,listing,/13-68-russell-street-woonona-nsw-2517-2016799101,395000,is-sold,Sold by private treaty 16 Mar 2021,20210316,13/68 Russell Street,WOONONA,NSW,2517,-34.3421974,150.911987,1,1,1,ApartmentUnitFlat,Apartment / Unit / Flat,False,0.0,m2,False
2016800783,listing,/13-john-cawley-crescent-woonona-nsw-2517-2016800783,2850000,is-sold,Sold at auction 13 Mar 2021,20210313,13 John Cawley Crescent,WOONONA,NSW,2517,-34.3584862,150.9176,5,5,5,House,House,False,1000.0,m2,False
2016805715,listing,/32-gray-street-woonona-nsw-2517-2016805715,1400000,is-sold,Sold at auction 15 Mar 2021,20210315,32 Gray Street,WOONONA,NSW,2517,-34.347187,150.907166,3,3,3,House,House,False,687.0,m2,False
2016807557,listing,/29-joanne-street-woonona-nsw-2517-2016807557,2120000,is-sold,Sold at auction 17 Mar 2021,20210317,29 Joanne Street,WOONONA,NSW,2517,-34.3383522,150.897125,6,6,6,House,House,False,765.0,m2,False
2016838360,listing,/47-hillcrest-avenue-woonona-nsw-2517-2016838360,1405000,is-sold,Sold prior to auction 19 Mar 2021,20210319,47 Hillcrest Avenue,WOONONA,NSW,2517,-34.3384056,150.901764,3,3,3,House,House,False,401.0,m2,False
2016839442,listing,/6-10a-kiandra-rd-woonona-nsw-2517-2016839442,690000,is-sold,Sold by private treaty 12 Mar 2021,20210312,6/10A Kiandra Rd,WOONONA,NSW,2517,-34.34818,150.916183,2,2,2,Townhouse,Townhouse,False,0.0,m2,False
2016840678,listing,/2-70-gray-street-woonona-nsw-2517-2016840678,500000,is-sold,Sold by private treaty 24 Mar 2021,20210324,2/70 Gray Street,WOONONA,NSW,2517,-34.34801,150.910721,2,2,2,Villa,Villa,False,0.0,m2,False
2016849596,listing,/47-park-road-woonona-nsw-2517-2016849596,1505000,is-sold,Sold at auction 27 Mar 2021,20210327,47 Park Road,WOONONA,NSW,2517,-34.349102,150.912323,3,3,3,House,House,False,0.0,m2,False
2016870580,listing,/24-cedar-terrace-woonona-nsw-2517-2016870580,1310000,is-sold,Sold by private treaty 31 Mar 2021,20210331,24 Cedar Terrace,WOONONA,NSW,2517,-34.34611,150.897812,4,4,4,House,House,False,346.0,m2,False
2016870617,listing,/4-26-popes-road-woonona-nsw-2517-2016870617,910000,is-sold,Sold by private treaty 23 Mar 2021,20210323,4/26 Popes Road,WOONONA,NSW,2517,-34.34242,150.901169,4,4,4,Townhouse,Townhouse,False,0.0,m2,False
2016870721,listing,/94a-popes-road-woonona-nsw-2517-2016870721,1080000,is-sold,Sold by private treaty 16 Mar 2021,20210316,94a Popes Road,WOONONA,NSW,2517,-34.34191,150.897873,4,4,4,House,House,False,0.0,m2,False
2016872743,listing,/4-11-hopetoun-street-woonona-nsw-2517-2016872743,775000,is-sold,Sold by private treaty 23 Mar 2021,20210323,4/11 Hopetoun Street,WOONONA,NSW,2517,-34.3404961,150.911667,3,3,3,Villa,Villa,False,0.0,m2,False
2016875330,listing,/23-lilly-pilly-circuit-woonona-nsw-2517-2016875330,1130000,is-sold,Sold by private treaty 29 Mar 2021,20210329,23 Lilly Pilly Circuit,WOONONA,NSW,2517,-34.3448753,150.902985,3,3,3,House,House,False,377.0,m2,False
2016885132,listing,/1-harriet-spearing-drive-woonona-nsw-2517-2016885132,1430000,is-sold,Sold by private treaty 19 Mar 2021,20210319,1 Harriet Spearing Drive,WOONONA,NSW,2517,-34.3567734,150.913986,4,4,4,House,House,False,630.0,m2,False
2016885843,listing,/638-princes-highway-russell-vale-nsw-2517-2016885843,1130000,is-sold,Sold prior to auction 03 Apr 2021,20210403,638 Princes Highway,RUSSELL VALE,NSW,2517,-34.3587,150.900436,3,3,3,House,House,False,1005.0,m2,False
2016996746,listing,/3-balmer-crescent-woonona-nsw-2517-2016996746,1255000,is-sold,Sold by private treaty 01 Apr 2021,20210401,3 Balmer Crescent,WOONONA,NSW,2517,-34.3381767,150.901413,2,2,2,House,House,False,607.0,m2,False
2016055239,listing,/9-50-russell-street-woonona-nsw-2517-2016055239,650000,is-sold,Sold by private treaty 25 Feb 2021,20210225,9/50 Russell Street,WOONONA,NSW,2517,-34.34202,150.910828,3,3,3,Townhouse,Townhouse,False,0.0,m2,False
2016722508,listing,/3-6-mitchell-road-woonona-nsw-2517-2016722508,470000,is-sold,Sold by private treaty 08 Mar 2021,20210308,3/6 Mitchell Road,WOONONA,NSW,2517,-34.3481979,150.910767,2,2,2,Villa,Villa,False,0.0,m2,False
2016772429,listing,/49-thompson-street-woonona-nsw-2517-2016772429,1250000,is-sold,Sold by private treaty 03 Mar 2021,20210303,49 Thompson Street,WOONONA,NSW,2517,-34.3433037,150.913208,4,4,4,House,House,False,351.0,m2,False
2016782203,listing,/8-19-nicholson-road-woonona-nsw-2517-2016782203,755000,is-sold,Sold by private treaty 05 Mar 2021,20210305,8/19 Nicholson Road,WOONONA,NSW,2517,-34.3437271,150.907227,3,3,3,Townhouse,Townhouse,False,0.0,m2,False
2016785551,listing,/60-rixons-pass-road-woonona-nsw-2517-2016785551,1325000,is-sold,Sold at auction 03 Mar 2021,20210303,60 Rixons Pass Road,WOONONA,NSW,2517,-34.35164,150.897079,3,3,3,House,House,False,569.0,m2,False
2016787527,listing,/29b-nicholson-road-woonona-nsw-2517-2016787527,1265000,is-sold,Sold prior to auction 26 Feb 2021,20210226,29B Nicholson Road,WOONONA,NSW,2517,-34.3438454,150.908173,4,4,4,House,House,False,820.0,m2,False
2016787606,listing,/637-princes-highway-russell-vale-nsw-2517-2016787606,805000,is-sold,Sold by private treaty 05 Mar 2021,20210305,637 Princes Highway,RUSSELL VALE,NSW,2517,-34.3585777,150.901031,3,3,3,House,House,False,575.0,m2,False
2016802461,listing,/1-13-alice-street-woonona-nsw-2517-2016802461,492000,is-sold,Sold by private treaty 01 Mar 2021,20210301,1/13 Alice Street,WOONONA,NSW,2517,-34.3536263,150.908829,2,2,2,ApartmentUnitFlat,Apartment / Unit / Flat,False,0.0,m2,False
2016803971,listing,/8-377-princes-highway-woonona-nsw-2517-2016803971,620000,is-sold,Sold by private treaty 26 Feb 2021,20210226,8/377 Princes Highway,WOONONA,NSW,2517,-34.3413849,150.907059,2,2,2,ApartmentUnitFlat,Apartment / Unit / Flat,False,0.0,m2,False
2016805592,listing,/5-47-thompson-st-woonona-nsw-2517-2016805592,440000,is-sold,Sold by private treaty 11 Mar 2021,20210311,5/47 Thompson St,WOONONA,NSW,2517,-34.3431778,150.913513,2,2,2,ApartmentUnitFlat,Apartment / Unit / Flat,False,0.0,m2,False
2016808039,listing,/4-cherry-st-woonona-nsw-2517-2016808039,1060000,is-sold,Sold by private treaty 04 Mar 2021,20210304,4 Cherry St,WOONONA,NSW,2517,-34.34655,150.902786,3,3,3,House,House,False,398.0,m2,False
2016808971,listing,/40-fretus-avenue-woonona-nsw-2517-2016808971,1140000,is-sold,Sold by private treaty 11 Mar 2021,20210311,40 Fretus Avenue,WOONONA,NSW,2517,-34.34358,150.898438,4,4,4,House,House,False,556.0,m2,False
2016812479,listing,/36-june-parade-woonona-nsw-2517-2016812479,1160000,is-sold,Sold at auction 01 Mar 2021,20210301,36 June Parade,WOONONA,NSW,2517,-34.33932,150.89827,4,4,4,House,House,False,601.0,m2,False
2016815479,listing,/8-13-luxor-street-woonona-nsw-2517-2016815479,920000,is-sold,Sold by private treaty 02 Mar 2021,20210302,8/13 Luxor Street,WOONONA,NSW,2517,-34.3400955,150.906525,3,3,3,Townhouse,Townhouse,False,0.0,m2,False
2016818256,listing,/5-neville-avenue-russell-vale-nsw-2517-2016818256,1700000,is-sold,Sold prior to auction 05 Mar 2021,20210305,5 Neville Avenue,RUSSELL VALE,NSW,2517,-34.356945,150.903625,4,4,4,House,House,False,696.0,m2,False
2016821763,listing,/37-corrie-road-woonona-nsw-2517-2016821763,1210000,is-sold,Sold by private treaty 26 Feb 2021,20210226,37 Corrie Road,WOONONA,NSW,2517,-34.33675,150.901352,3,3,3,House,House,False,1081.0,m2,False
2016828194,listing,/1-16-ball-street-woonona-nsw-2517-2016828194,920000,is-sold,Sold by private treaty 03 Mar 2021,20210303,1/16 Ball Street,WOONONA,NSW,2517,-34.341526,150.904663,4,4,4,Townhouse,Townhouse,False,0.0,m2,False
2016835687,listing,/7-14-popes-road-woonona-nsw-2517-2016835687,810000,is-sold,Sold by private treaty 06 Mar 2021,20210306,7/14 Popes Road,WOONONA,NSW,2517,-34.34265,150.902557,4,4,4,Townhouse,Townhouse,False,0.0,m2,False
2016843584,listing,/7-henry-fry-place-woonona-nsw-2517-2016843584,1183000,is-sold,Sold by private treaty 09 Mar 2021,20210309,7 Henry Fry Place,WOONONA,NSW,2517,-34.3581161,150.913025,3,3,3,House,House,False,0.0,m2,False
2016885031,listing,/24-flame-tree-circuit-woonona-nsw-2517-2016885031,930000,is-sold,Sold by private treaty 06 Mar 2021,20210306,24 Flame Tree Circuit,WOONONA,NSW,2517,-34.3491974,150.898087,3,3,3,House,House,False,267.0,m2,False
2016445843,listing,/41-joanne-st-woonona-nsw-2517-2016445843,750000,is-sold,Sold by private treaty 06 Feb 2021,20210206,41 Joanne St,WOONONA,NSW,2517,-34.3384476,150.895386,,,,VacantLand,Vacant land,True,1.23,ha,False
2016567878,listing,/21a-moreton-street-russell-vale-nsw-2517-2016567878,710000,is-sold,Sold by private treaty 04 Feb 2021,20210204,21A Moreton Street,RUSSELL VALE,NSW,2517,-34.35778,150.8969,3,3,3,Villa,Villa,False,0.0,m2,False
2016689354,listing,/14-wayari-way-woonona-nsw-2517-2016689354,720000,is-sold,Sold by private treaty 20 Feb 2021,20210220,14 Wayari Way,WOONONA,NSW,2517,-34.3493156,150.9032,2,2,2,House,House,False,0.0,m2,False
2016724153,listing,/31-peppermint-circuit-woonona-nsw-2517-2016724153,1462000,is-sold,Sold at auction 02 Feb 2021,20210202,31 Peppermint Circuit,WOONONA,NSW,2517,-34.34547,150.895874,4,4,4,House,House,False,914.0,m2,False
2016725270,listing,/7-leslie-street-russell-vale-nsw-2517-2016725270,1315000,is-sold,Sold at auction 03 Feb 2021,20210203,7 Leslie Street,RUSSELL VALE,NSW,2517,-34.3567963,150.904572,4,4,4,House,House,False,923.0,m2,False
2016728202,listing,/104-popes-rd-woonona-nsw-2517-2016728202,1430000,is-sold,Sold by private treaty 08 Feb 2021,20210208,104 Popes Rd,WOONONA,NSW,2517,-34.3405266,150.896622,4,4,4,House,House,False,1200.0,m2,False
2016728401,listing,/6-133b-campbell-st-woonona-nsw-2517-2016728401,495000,is-sold,Sold by private treaty 08 Feb 2021,20210208,6/133B Campbell St,WOONONA,NSW,2517,-34.3434753,150.907944,2,2,2,ApartmentUnitFlat,Apartment / Unit / Flat,False,0.0,m2,False
2016739389,listing,/2-91-campbell-street-woonona-nsw-2517-2016739389,835000,is-sold,Sold by private treaty 27 Jan 2021,20210127,2/91 Campbell Street,WOONONA,NSW,2517,-34.34366,150.910934,3,3,3,Townhouse,Townhouse,False,0.0,m2,False
2016740026,listing,/8-doris-avenue-woonona-nsw-2517-2016740026,980000,is-sold,Sold by private treaty 27 Jan 2021,20210127,8 Doris Avenue,WOONONA,NSW,2517,-34.3553429,150.907852,3,3,3,House,House,False,556.0,m2,False
2016742786,listing,/20-stephen-drive-woonona-nsw-2517-2016742786,1020000,is-sold,Sold by private treaty 30 Jan 2021,20210130,20 Stephen Drive,WOONONA,NSW,2517,-34.3346672,150.896988,3,3,3,House,House,False,689.0,m2,False
2016744917,listing,/6-collaery-road-russell-vale-nsw-2517-2016744917,1255000,is-sold,Sold at auction 10 Feb 2021,20210210,6 Collaery Road,RUSSELL VALE,NSW,2517,-34.3564949,150.90831,3,3,3,House,House,False,961.0,m2,False
2016749555,listing,/2-434-438-princes-hwy-woonona-nsw-2517-2016749555,645000,is-sold,Sold by private treaty 17 Feb 2021,20210217,2/434-438 Princes Hwy,WOONONA,NSW,2517,-34.3428421,150.904,3,3,3,Townhouse,Townhouse,False,0.0,m2,False
2016759300,listing,/15-duke-street-woonona-nsw-2517-2016759300,1450000,is-sold,Sold at auction 05 Feb 2021,20210205,15 Duke Street,WOONONA,NSW,2517,-34.3516464,150.900177,5,5,5,House,House,False,0.0,m2,False
2016761716,listing,/6-cooper-ave-woonona-nsw-2517-2016761716,1190000,is-sold,Sold at auction 13 Feb 2021,20210213,6 Cooper Ave,WOONONA,NSW,2517,-34.34639,150.91481,4,4,4,House,House,False,618.0,m2,False
2016771223,listing,/5-narelle-crescent-woonona-nsw-2517-2016771223,1176000,is-sold,Sold at auction 24 Feb 2021,20210224,5 Narelle Crescent,WOONONA,NSW,2517,-34.3544273,150.907532,4,4,4,House,House,False,556.0,m2,False
2016774983,listing,/14-silkwood-road-woonona-nsw-2517-2016774983,935000,is-sold,Sold by private treaty 08 Feb 2021,20210208,14 Silkwood Road,WOONONA,NSW,2517,-34.3481674,150.899567,3,3,3,House,House,False,313.0,m2,False
2016777075,listing,/8-51-53-russell-street-woonona-nsw-2517-2016777075,659000,is-sold,Sold by private treaty 11 Feb 2021,20210211,8/51-53 Russell Street,WOONONA,NSW,2517,-34.3411636,150.91127,2,2,2,Townhouse,Townhouse,False,0.0,m2,False
2016784528,listing,/2-28-popes-road-woonona-nsw-2517-2016784528,720000,is-sold,Sold by private treaty 11 Feb 2021,20210211,2/28 Popes Road,WOONONA,NSW,2517,-34.3421059,150.901031,3,3,3,Townhouse,Townhouse,False,0.0,m2,False
2016802878,listing,/39-athol-street-woonona-nsw-2517-2016802878,1150000,is-sold,Sold by private treaty 15 Feb 2021,20210215,39 Athol Street,WOONONA,NSW,2517,-34.33793,150.902527,4,4,4,House,House,False,0.0,m2,False
2016816376,listing,/23-cedar-terrace-woonona-nsw-2517-2016816376,1180000,is-sold,Sold by private treaty 19 Feb 2021,20210219,23 Cedar Terrace,WOONONA,NSW,2517,-34.3455734,150.898041,3,3,3,House,House,False,0.0,m2,False
2016305112,listing,/2-35-nicholson-road-woonona-nsw-2517-2016305112,710000,is-sold,Sold by private treaty 16 Dec 2020,20201216,2/35 Nicholson Road,WOONONA,NSW,2517,-34.3446,150.908356,3,3,3,Townhouse,Townhouse,False,0.0,m2,False
2016520226,listing,/25-flame-tree-circuit-woonona-nsw-2517-2016520226,690000,is-sold,Sold by private treaty 03 Dec 2020,20201203,25 Flame Tree Circuit,WOONONA,NSW,2517,-34.34934,150.8974,2,2,2,House,House,False,336.0,m2,False
