id,listingType,url,price,tagClassName,tagText,date,street,suburb,state,postcode,lat,lng,beds,baths,parking,propertyType,propertyTypeFormatted,isRural,landSize,landUnit,isRetirement
2018353192,listing,/3-33-farrell-street-balgownie-nsw-2519-2018353192,700000,is-sold,Sold by private treaty 28 Feb 2023,20230228,3/33 Farrell Street,BALGOWNIE,NSW,2519,-34.3879433,150.879044,2,2,2,Villa,Villa,False,0,m2,False
2018215755,listing,/47-cabbage-tree-lane-fairy-meadow-nsw-2519-2018215755,820000,is-sold,Sold by private treaty 27 Feb 2023,20230227,47 Cabbage Tree Lane,FAIRY MEADOW,NSW,2519,-34.3969955,150.8855,2,2,2,House,House,False,588,m2,False
2017817618,listing,/4-11-balmoral-street-balgownie-nsw-2519-2017817618,1350000,is-sold,Sold by private treaty 01 Feb 2023,20230201,4/11 Balmoral Street,BALGOWNIE,NSW,2519,-34.390274,150.880676,3,3,3,Townhouse,Townhouse,False,0,m2,False
2018053002,listing,/1-4-ryan-street-balgownie-nsw-2519-2018053002,730000,is-sold,Sold by private treaty 27 Jan 2023,20230127,1/4 Ryan Street,BALGOWNIE,NSW,2519,-34.39044,150.878723,2,2,2,Townhouse,Townhouse,False,0,m2,False
2018094236,listing,/16-chapman-street-fairy-meadow-nsw-2519-2018094236,950000,is-sold,Sold by private treaty 30 Jan 2023,20230130,16 Chapman Street,FAIRY MEADOW,NSW,2519,-34.3872871,150.897766,3,3,3,House,House,False,663,m2,False
2018220319,listing,/1-33-mount-ousley-road-mount-ousley-nsw-2519-2018220319,,is-sold,Sold by private treaty 10 Feb 2023,20230210,1/33 Mount Ousley Road,MOUNT OUSLEY,NSW,2519,-34.4028625,150.887772,2,2,2,ApartmentUnitFlat,Apartment / Unit / Flat,False,0,m2,False
2018245605,listing,/12-hill-grove-balgownie-nsw-2519-2018245605,899000,is-sold,Sold by private treaty 10 Feb 2023,20230210,12 Hill Grove,BALGOWNIE,NSW,2519,-34.3844223,150.874176,3,3,3,House,House,False,556,m2,False
2018247919,listing,/17-124-princes-highway-fairy-meadow-nsw-2519-2018247919,660000,is-sold,Sold by private treaty 06 Feb 2023,20230206,17/124 Princes Highway,FAIRY MEADOW,NSW,2519,-34.3942757,150.893021,2,2,2,ApartmentUnitFlat,Apartment / Unit / Flat,False,0,m2,False
2018270894,listing,/34-margaret-street-balgownie-nsw-2519-2018270894,1370500,is-sold,Sold by private treaty 30 Jan 2023,20230130,34 Margaret Street,BALGOWNIE,NSW,2519,-34.38387,150.876953,4,4,4,House,House,False,556,m2,False
2018280071,listing,/19-balfour-street-fairy-meadow-nsw-2519-2018280071,1020000,is-sold,Sold at auction 04 Feb 2023,20230204,19 Balfour Street,FAIRY MEADOW,NSW,2519,-34.3867531,150.887909,3,3,3,House,House,False,720,m2,False
2018284319,listing,/75-new-mount-pleasant-road-mount-pleasant-nsw-2519-2018284319,,is-sold,Sold at auction 03 Feb 2023,20230203,75 New Mount Pleasant Road,MOUNT PLEASANT,NSW,2519,-34.39399,150.871765,4,4,4,House,House,False,565,m2,False
2018284369,listing,/5-25-carters-lane-fairy-meadow-nsw-2519-2018284369,790000,is-sold,Sold by private treaty 02 Feb 2023,20230202,5/25 Carters Lane,FAIRY MEADOW,NSW,2519,-34.388134,150.90361,3,3,3,ApartmentUnitFlat,Apartment / Unit / Flat,False,0,m2,False
2018284682,listing,/1-153-155-balgownie-road-balgownie-nsw-2519-2018284682,950000,is-sold,Sold by private treaty 30 Jan 2023,20230130,1/153-155 Balgownie Road,BALGOWNIE,NSW,2519,-34.38866,150.876053,3,3,3,Townhouse,Townhouse,False,0,m2,False
2018298346,listing,/3-7-9-cambridge-avenue-fairy-meadow-nsw-2519-2018298346,653000,is-sold,Sold by private treaty 20 Feb 2023,20230220,3/7-9 Cambridge Avenue,FAIRY MEADOW,NSW,2519,-34.3926353,150.8923,2,2,2,Townhouse,Townhouse,False,0,m2,False
2018314527,listing,/22-ian-bruce-crescent-balgownie-nsw-2519-2018314527,1010000,is-sold,Sold by private treaty 17 Feb 2023,20230217,22 Ian Bruce Crescent,BALGOWNIE,NSW,2519,-34.38978,150.87236,3,3,3,House,House,False,720,m2,False
2018320662,listing,/63-donald-street-fairy-meadow-nsw-2519-2018320662,1550000,is-sold,Sold by private treaty 07 Feb 2023,20230207,63 Donald Street,FAIRY MEADOW,NSW,2519,-34.3943977,150.900391,5,5,5,House,House,False,0,m2,False
2018324702,listing,/60-sunninghill-circuit-mount-ousley-nsw-2519-2018324702,946000,is-sold,Sold by private treaty 10 Feb 2023,20230210,60 Sunninghill Circuit,MOUNT OUSLEY,NSW,2519,-34.40059,150.875946,3,3,3,House,House,False,594,m2,False
2018325107,listing,/12-brynymor-place-balgownie-nsw-2519-2018325107,1400000,is-sold,Sold prior to auction 10 Feb 2023,20230210,12 Brynymor Place,BALGOWNIE,NSW,2519,-34.39469,150.87677,5,5,5,House,House,False,719,m2,False
2018325128,listing,/100-brokers-road-balgownie-nsw-2519-2018325128,,is-sold,Sold at auction 23 Feb 2023,20230223,100 Brokers Road,BALGOWNIE,NSW,2519,-34.38776,150.871,5,5,5,House,House,False,689,m2,False
2018347292,listing,/13-bassett-street-fairy-meadow-nsw-2519-2018347292,1700000,is-sold,Sold prior to auction 01 Mar 2023,20230301,13 Bassett Street,FAIRY MEADOW,NSW,2519,-34.39832,150.885544,4,4,4,House,House,False,0,m2,False
2018020403,listing,/c201-5-grand-court-fairy-meadow-nsw-2519-2018020403,,is-sold,Sold by private treaty 27 Jan 2023,20230127,C201/5 Grand Court,FAIRY MEADOW,NSW,2519,-34.38982,150.90419,3,3,3,ApartmentUnitFlat,Apartment / Unit / Flat,False,0,m2,False
2018033935,listing,/40-fairy-avenue-fairy-meadow-nsw-2519-2018033935,1000000,is-sold,Sold by private treaty 16 Dec 2022,20221216,40 Fairy Avenue,FAIRY MEADOW,NSW,2519,-34.3960152,150.888519,3,3,3,House,House,False,740,m2,False
2018108912,listing,/20a-hunter-street-balgownie-nsw-2519-2018108912,860000,is-sold,Sold by private treaty 23 Jan 2023,20230123,20A Hunter Street,BALGOWNIE,NSW,2519,-34.3870163,150.877,2,2,2,House,House,False,600,m2,False
2018137329,listing,/13-51-princes-highway-fairy-meadow-nsw-2519-2018137329,550000,is-sold,Sold by private treaty 19 Dec 2022,20221219,13/51 Princes Highway,FAIRY MEADOW,NSW,2519,-34.3943062,150.892471,2,2,2,ApartmentUnitFlat,Apartment / Unit / Flat,False,0,m2,False
2018149799,listing,/33-25-carters-lane-fairy-meadow-nsw-2519-2018149799,690000,is-sold,Sold by private treaty 13 Dec 2022,20221213,33/25 Carters Lane,FAIRY MEADOW,NSW,2519,-34.388134,150.90361,2,2,2,ApartmentUnitFlat,Apartment / Unit / Flat,False,0,m2,False
2018159177,listing,/1-hunter-street-balgownie-nsw-2519-2018159177,780000,is-sold,Sold by private treaty 12 Dec 2022,20221212,1 Hunter Street,BALGOWNIE,NSW,2519,-34.3879242,150.878433,2,2,2,SemiDetached,Semi-Detached,False,252,m2,False
2018173131,listing,/5-brynymor-place-balgownie-nsw-2519-2018173131,1150000,is-sold,Sold by private treaty 22 Dec 2022,20221222,5 Brynymor Place,BALGOWNIE,NSW,2519,-34.3950462,150.87645,4,4,4,House,House,False,556,m2,False
2018206040,listing,/237-201-pioneer-road-fairy-meadow-nsw-2519-2018206040,335000,is-sold,Sold by private treaty 20 Dec 2022,20221220,237/201 Pioneer Road,FAIRY MEADOW,NSW,2519,-34.3904953,150.905914,2,2,2,House,House,False,0,m2,False
2018207276,listing,/7-6-kembla-street-balgownie-nsw-2519-2018207276,843000,is-sold,Sold by private treaty 16 Dec 2022,20221216,7/6 Kembla Street,BALGOWNIE,NSW,2519,-34.39028,150.876129,3,3,3,Townhouse,Townhouse,False,0,m2,False
2018221973,listing,/1-foothills-road-balgownie-nsw-2519-2018221973,,is-sold,Sold by private treaty 22 Dec 2022,20221222,1 Foothills Road,BALGOWNIE,NSW,2519,-34.381382,150.882492,3,3,3,House,House,False,515,m2,False
2018226080,listing,/2-70-donald-street-fairy-meadow-nsw-2519-2018226080,432500,is-sold,Sold by private treaty 21 Dec 2022,20221221,2/70 Donald Street,FAIRY MEADOW,NSW,2519,-34.395,150.899811,1,1,1,ApartmentUnitFlat,Apartment / Unit / Flat,False,0,m2,False
2018232239,listing,/29-bootie-street-balgownie-nsw-2519-2018232239,1980000,is-sold,Sold by private treaty 17 Jan 2023,20230117,29 Bootie Street,BALGOWNIE,NSW,2519,-34.3826561,150.868454,5,5,5,House,House,False,671,m2,False
2018244415,listing,/4-mclean-avenue-fairy-meadow-nsw-2519-2018244415,980000,is-sold,Sold prior to auction 17 Dec 2022,20221217,4 Mclean Avenue,FAIRY MEADOW,NSW,2519,-34.39624,150.885178,3,3,3,House,House,False,607,m2,False
2018246047,listing,/1-24-26-daisy-street-fairy-meadow-nsw-2519-2018246047,715000,is-sold,Sold by private treaty 14 Dec 2022,20221214,1/24-26 Daisy Street,FAIRY MEADOW,NSW,2519,-34.3932381,150.895508,2,2,2,Townhouse,Townhouse,False,0,m2,False
2018246871,listing,/149-cabbage-tree-lane-mount-pleasant-nsw-2519-2018246871,,is-sold,Sold by private treaty 12 Jan 2023,20230112,149 Cabbage Tree Lane,MOUNT PLEASANT,NSW,2519,-34.39563,150.875183,4,4,4,House,House,False,911,m2,False
2018263951,listing,/2-24a-brian-street-balgownie-nsw-2519-2018263951,,is-sold,Sold by private treaty 27 Jan 2023,20230127,2/24A Brian Street,BALGOWNIE,NSW,2519,-34.3840141,150.885,2,2,2,Villa,Villa,False,0,m2,False
2018270904,listing,/28-greenslopes-avenue-mount-ousley-nsw-2519-2018270904,1350000,is-sold,Sold by private treaty 20 Jan 2023,20230120,28 Greenslopes Avenue,MOUNT OUSLEY,NSW,2519,-34.3977623,150.876678,4,4,4,House,House,False,777,m2,False
2018279844,listing,/3-83-balgownie-road-balgownie-nsw-2519-2018279844,505000,is-sold,Sold by private treaty 19 Jan 2023,20230119,3/83 Balgownie Road,BALGOWNIE,NSW,2519,-34.3890076,150.882675,2,2,2,ApartmentUnitFlat,Apartment / Unit / Flat,False,0,m2,False
2018303386,listing,/2-8-margaret-street-balgownie-nsw-2519-2018303386,1475000,is-sold,Sold by private treaty 20 Jan 2023,20230120,2/8 Margaret Street,BALGOWNIE,NSW,2519,-34.3842,150.879135,3,3,3,SemiDetached,Semi-Detached,False,309,m2,False
2018304225,listing,/2-113-meadow-street-fairy-meadow-nsw-2519-2018304225,730000,is-sold,Sold by private treaty 20 Jan 2023,20230120,2/113 Meadow Street,FAIRY MEADOW,NSW,2519,-34.3851967,150.885727,2,2,2,Townhouse,Townhouse,False,189,m2,False
2018039720,listing,/7-214-220-princes-highway-fairy-meadow-nsw-2519-2018039720,484000,is-sold,Sold by private treaty 28 Nov 2022,20221128,7/214-220 Princes Highway,FAIRY MEADOW,NSW,2519,-34.4025879,150.892471,2,2,2,ApartmentUnitFlat,Apartment / Unit / Flat,False,0,m2,False
2018088453,listing,/8-ryan-street-balgownie-nsw-2519-2018088453,1290000,is-sold,Sold by private treaty 30 Nov 2022,20221130,8 Ryan Street,BALGOWNIE,NSW,2519,-34.3906,150.879181,4,4,4,House,House,False,569,m2,False
2018127863,listing,/18-kingsford-street-fairy-meadow-nsw-2519-2018127863,940000,is-sold,Sold by private treaty 18 Nov 2022,20221118,18 Kingsford Street,FAIRY MEADOW,NSW,2519,-34.3888435,150.896713,2,2,2,House,House,False,662,m2,False
2018131888,listing,/1-14-lang-street-balgownie-nsw-2519-2018131888,340000,is-sold,Sold by private treaty 08 Dec 2022,20221208,1/14 Lang Street,BALGOWNIE,NSW,2519,-34.3859,150.874222,1,1,1,ApartmentUnitFlat,Apartment / Unit / Flat,False,0,m2,False
2018153508,listing,/261-201-pioneer-road-fairy-meadow-nsw-2519-2018153508,565000,is-sold,Sold by private treaty 29 Nov 2022,20221129,261/201 Pioneer Road,FAIRY MEADOW,NSW,2519,-34.3904953,150.905914,2,2,2,ApartmentUnitFlat,Apartment / Unit / Flat,False,0,m2,False
2018157010,listing,/542-201-pioneer-road-fairy-meadow-nsw-2519-2018157010,720000,is-sold,Sold by private treaty 24 Nov 2022,20221124,542/201 Pioneer Road,FAIRY MEADOW,NSW,2519,-34.3904953,150.905914,3,3,3,House,House,False,0,m2,True
2018181763,listing,/24-214-220-princes-highway-fairy-meadow-nsw-2519-2018181763,560000,is-sold,Sold by private treaty 01 Dec 2022,20221201,24/214-220 Princes Highway,FAIRY MEADOW,NSW,2519,-34.4025879,150.892471,2,2,2,ApartmentUnitFlat,Apartment / Unit / Flat,False,0,m2,False
2018186067,listing,/26-dumfries-avenue-mount-ousley-nsw-2519-2018186067,1200000,is-sold,Sold prior to auction 21 Nov 2022,20221121,26 Dumfries Avenue,MOUNT OUSLEY,NSW,2519,-34.4017525,150.884338,3,3,3,House,House,False,631,m2,False
2018187470,listing,/15-gowan-brae-avenue-mount-ousley-nsw-2519-2018187470,950000,is-sold,Sold by private treaty 30 Nov 2022,20221130,15 Gowan Brae Avenue,MOUNT OUSLEY,NSW,2519,-34.4038277,150.885681,3,3,3,House,House,False,516,m2,False
2018188152,listing,/20-balgownie-road-fairy-meadow-nsw-2519-2018188152,875000,is-sold,Sold by private treaty 12 Dec 2022,20221212,20 Balgownie Road,FAIRY MEADOW,NSW,2519,-34.3892441,150.891083,2,2,2,House,House,False,721,m2,False
2018189133,listing,/4-kenneth-grove-balgownie-nsw-2519-2018189133,1150000,is-sold,Sold prior to auction 24 Nov 2022,20221124,4 Kenneth Grove,BALGOWNIE,NSW,2519,-34.38658,150.873627,4,4,4,House,House,False,0,m2,False
2018190264,listing,/2-arvenis-crescent-balgownie-nsw-2519-2018190264,1420000,is-sold,Sold at auction 05 Dec 2022,20221205,2 Arvenis Crescent,BALGOWNIE,NSW,2519,-34.3912,150.873413,4,4,4,House,House,False,558,m2,False
2018192185,listing,/7-paradise-avenue-mount-pleasant-nsw-2519-2018192185,965000,is-sold,Sold by private treaty 30 Nov 2022,20221130,7 Paradise Avenue,MOUNT PLEASANT,NSW,2519,-34.394558,150.8667,4,4,4,House,House,False,885,m2,False
2018207628,listing,/3-14-daisy-street-fairy-meadow-nsw-2519-2018207628,835000,is-sold,Sold by private treaty 25 Nov 2022,20221125,3/14 Daisy Street,FAIRY MEADOW,NSW,2519,-34.3927765,150.89444,3,3,3,Townhouse,Townhouse,False,0,m2,False
2018207976,listing,/1-alexander-street-fairy-meadow-nsw-2519-2018207976,1060000,is-sold,Sold at auction 10 Dec 2022,20221210,1 Alexander Street,FAIRY MEADOW,NSW,2519,-34.38527,150.890121,3,3,3,House,House,False,619,m2,False
2018209623,listing,/90-hopewood-crescent-fairy-meadow-nsw-2519-2018209623,1010000,is-sold,Sold at auction 10 Dec 2022,20221210,90 Hopewood Crescent,FAIRY MEADOW,NSW,2519,-34.39404,150.886627,3,3,3,House,House,False,695,m2,False
2018218755,listing,/76-hopewood-crescent-fairy-meadow-nsw-2519-2018218755,860000,is-sold,Sold at auction 12 Dec 2022,20221212,76 Hopewood Crescent,FAIRY MEADOW,NSW,2519,-34.394352,150.885544,3,3,3,House,House,False,696,m2,False
2018225241,listing,/8-20-russell-street-balgownie-nsw-2519-2018225241,1160000,is-sold,Sold by private treaty 25 Nov 2022,20221125,8/20 Russell Street,BALGOWNIE,NSW,2519,-34.3917274,150.881088,3,3,3,Townhouse,Townhouse,False,0,m2,False
2018255770,listing,/3-1-bourke-street-fairy-meadow-nsw-2519-2018255770,530000,is-sold,Sold by private treaty 01 Dec 2022,20221201,3/1 Bourke Street,FAIRY MEADOW,NSW,2519,-34.3974342,150.897263,2,2,2,ApartmentUnitFlat,Apartment / Unit / Flat,False,0,m2,False
2018274214,listing,/300-201-pioneer-road-fairy-meadow-nsw-2519-2018274214,500000,is-sold,Sold by private treaty 28 Nov 2022,20221128,300/201 Pioneer Road,FAIRY MEADOW,NSW,2519,-34.3904953,150.905914,2,2,2,House,House,False,0,m2,True
2017278397,listing,/34a-parrish-avenue-mount-pleasant-nsw-2519-2017278397,,is-sold,Sold by private treaty 28 Oct 2022,20221028,34A Parrish Avenue,MOUNT PLEASANT,NSW,2519,-34.3974648,150.861633,4,4,4,House,House,False,809,m2,False
2017740815,listing,/2-3-bourke-street-fairy-meadow-nsw-2519-2017740815,570000,is-sold,Sold by private treaty 08 Nov 2022,20221108,2/3 Bourke Street,FAIRY MEADOW,NSW,2519,-34.3973045,150.897064,2,2,2,ApartmentUnitFlat,Apartment / Unit / Flat,False,0,m2,False
2017958584,listing,/122-balgownie-road-balgownie-nsw-2519-2017958584,1200000,is-sold,Sold at auction 07 Nov 2022,20221107,122 Balgownie Road,BALGOWNIE,NSW,2519,-34.38864,150.879974,4,4,4,House,House,False,695,m2,False
2018014755,listing,/22-helen-brae-avenue-fairy-meadow-nsw-2519-2018014755,1175000,is-sold,Sold by private treaty 02 Nov 2022,20221102,22 Helen Brae Avenue,FAIRY MEADOW,NSW,2519,-34.39523,150.886169,3,3,3,House,House,False,3159,m2,False
2018043785,listing,/21-dymock-street-fairy-meadow-nsw-2519-2018043785,1480000,is-sold,Sold by private treaty 25 Oct 2022,20221025,21 Dymock Street,FAIRY MEADOW,NSW,2519,-34.3949051,150.883087,4,4,4,House,House,False,601,m2,False
2018073072,listing,/198-brokers-road-mount-pleasant-nsw-2519-2018073072,1049000,is-sold,Sold by private treaty 31 Oct 2022,20221031,198 Brokers Road,MOUNT PLEASANT,NSW,2519,-34.3961067,150.869614,4,4,4,House,House,False,563,m2,False
2018088223,listing,/77-214-princes-highway-fairy-meadow-nsw-2519-2018088223,407500,is-sold,Sold by private treaty 28 Oct 2022,20221028,77/214 Princes Highway,FAIRY MEADOW,NSW,2519,-34.4025879,150.892471,1,1,1,ApartmentUnitFlat,Apartment / Unit / Flat,False,0,m2,False
2018090073,listing,/40-ryan-street-balgownie-nsw-2519-2018090073,950000,is-sold,Sold by private treaty 03 Nov 2022,20221103,40 Ryan Street,BALGOWNIE,NSW,2519,-34.3937569,150.877975,4,4,4,House,House,False,929,m2,False
2018092304,listing,/110-hopewood-crescent-fairy-meadow-nsw-2519-2018092304,1045000,is-sold,Sold by private treaty 28 Oct 2022,20221028,110 Hopewood Crescent,FAIRY MEADOW,NSW,2519,-34.3939362,150.888214,3,3,3,House,House,False,0,m2,False
2018093274,listing,/17-51-princes-highway-fairy-meadow-nsw-2519-2018093274,540000,is-sold,Sold by private treaty 24 Oct 2022,20221024,17/51 Princes Highway,FAIRY MEADOW,NSW,2519,-34.3943062,150.892471,2,2,2,ApartmentUnitFlat,Apartment / Unit / Flat,False,0,m2,False
2018106662,listing,/37-wallace-road-fernhill-nsw-2519-2018106662,,is-sold,Sold by private treaty 16 Nov 2022,20221116,37 Wallace Road,FERNHILL,NSW,2519,-34.3825035,150.8859,3,3,3,House,House,False,350,m2,False
2018116818,listing,/1-17-balmoral-street-balgownie-nsw-2519-2018116818,1330000,is-sold,Sold at auction 29 Oct 2022,20221029,1/17 Balmoral Street,BALGOWNIE,NSW,2519,-34.3902,150.879944,4,4,4,Townhouse,Townhouse,False,0,m2,False
2018125646,listing,/4-woodland-parade-mount-ousley-nsw-2519-2018125646,1400000,is-sold,Sold at auction 03 Nov 2022,20221103,4 Woodland Parade,MOUNT OUSLEY,NSW,2519,-34.3962746,150.8769,5,5,5,House,House,False,1107,m2,False
2018126023,listing,/166-cabbage-tree-lane-mount-pleasant-nsw-2519-2018126023,1355000,is-sold,Sold at auction 31 Oct 2022,20221031,166 Cabbage Tree Lane,MOUNT PLEASANT,NSW,2519,-34.39511,150.875244,3,3,3,House,House,False,594,m2,False
2018127738,listing,/1-47-russell-street-balgownie-nsw-2519-2018127738,980000,is-sold,Sold by private treaty 28 Oct 2022,20221028,1/47 Russell Street,BALGOWNIE,NSW,2519,-34.3927956,150.88179,3,3,3,Townhouse,Townhouse,False,0,m2,False
2018137713,listing,/26-jardine-street-fairy-meadow-nsw-2519-2018137713,1270000,is-sold,Sold at auction 11 Nov 2022,20221111,26 Jardine Street,FAIRY MEADOW,NSW,2519,-34.3880424,150.89653,3,3,3,House,House,False,575,m2,False
2018139841,listing,/102-brokers-road-balgownie-nsw-2519-2018139841,1190000,is-sold,Sold by private treaty 04 Nov 2022,20221104,102 Brokers Road,BALGOWNIE,NSW,2519,-34.3879166,150.871,4,4,4,House,House,False,632,m2,False
2018144899,listing,/58-tucker-avenue-balgownie-nsw-2519-2018144899,1300000,is-sold,Sold at auction 12 Nov 2022,20221112,58 Tucker Avenue,BALGOWNIE,NSW,2519,-34.381012,150.873276,4,4,4,House,House,False,588,m2,False
2018156088,listing,/67-parrish-avenue-mount-pleasant-nsw-2519-2018156088,905000,is-sold,Sold by private treaty 09 Nov 2022,20221109,67 Parrish Avenue,MOUNT PLEASANT,NSW,2519,-34.3972969,150.860687,3,3,3,House,House,False,588,m2,False
2018174439,listing,/537-201-pioneer-road-fairy-meadow-nsw-2519-2018174439,,is-sold,Sold by private treaty 31 Oct 2022,20221031,537/201 Pioneer Road,FAIRY MEADOW,NSW,2519,-34.3904953,150.905914,2,2,2,House,House,False,0,m2,False
2017446636,listing,/4-59-61-russell-street-balgownie-nsw-2519-2017446636,,is-sold,Sold by private treaty 29 Sep 2022,20220929,4/59-61 Russell Street,BALGOWNIE,NSW,2519,-34.39324,150.881271,3,3,3,Townhouse,Townhouse,False,0,m2,False
2017876463,listing,/5-15-cambridge-avenue-fairy-meadow-nsw-2519-2017876463,625000,is-sold,Sold by private treaty 05 Oct 2022,20221005,5/15 Cambridge Avenue,FAIRY MEADOW,NSW,2519,-34.3930855,150.89212,2,2,2,Townhouse,Townhouse,False,0,m2,False
2017906495,listing,/2a-guest-avenue-fairy-meadow-nsw-2519-2017906495,1050000,is-sold,Sold by private treaty 30 Sep 2022,20220930,2A Guest Avenue,FAIRY MEADOW,NSW,2519,-34.3939056,150.891312,4,4,4,House,House,False,240,m2,False
2017922509,listing,/4-3-bourke-street-fairy-meadow-nsw-2519-2017922509,515000,is-sold,Sold by private treaty 20 Oct 2022,20221020,4/3 Bourke Street,FAIRY MEADOW,NSW,2519,-34.3972664,150.897079,2,2,2,ApartmentUnitFlat,Apartment / Unit / Flat,False,0,m2,False
2017932518,listing,/10-stanbrook-avenue-mount-ousley-nsw-2519-2017932518,1330000,is-sold,Sold by private treaty 20 Oct 2022,20221020,10 Stanbrook Avenue,MOUNT OUSLEY,NSW,2519,-34.3999748,150.8829,4,4,4,House,House,False,715,m2,False
2017972668,listing,/7-rann-street-fairy-meadow-nsw-2519-2017972668,990000,is-sold,Sold by private treaty 17 Oct 2022,20221017,7 Rann Street,FAIRY MEADOW,NSW,2519,-34.39176,150.898941,3,3,3,House,House,False,556,m2,False
2017991420,listing,/35-25-carters-lane-fairy-meadow-nsw-2519-2017991420,792500,is-sold,Sold by private treaty 11 Oct 2022,20221011,35/25 Carters Lane,FAIRY MEADOW,NSW,2519,-34.388134,150.90361,3,3,3,ApartmentUnitFlat,Apartment / Unit / Flat,False,0,m2,False
2017996908,listing,/17-rann-street-fairy-meadow-nsw-2519-2017996908,1000000,is-sold,Sold at auction 04 Oct 2022,20221004,17 Rann Street,FAIRY MEADOW,NSW,2519,-34.39255,150.898621,3,3,3,House,House,False,588,m2,False
2018008210,listing,/7-terrell-place-balgownie-nsw-2519-2018008210,1325000,is-sold,Sold by private treaty 13 Oct 2022,20221013,7 Terrell Place,BALGOWNIE,NSW,2519,-34.3817253,150.869461,4,4,4,House,House,False,1069,m2,False
2018035767,listing,/4-rose-parade-mount-pleasant-nsw-2519-2018035767,2660000,is-sold,Sold by private treaty 15 Oct 2022,20221015,4 Rose Parade,MOUNT PLEASANT,NSW,2519,-34.3908,150.870178,4,4,4,House,House,False,0,m2,False
2018037621,listing,/52-rose-parade-mount-pleasant-nsw-2519-2018037621,1590000,is-sold,Sold by private treaty 19 Oct 2022,20221019,52 Rose Parade,MOUNT PLEASANT,NSW,2519,-34.3936348,150.86705,5,5,5,House,House,False,1075,m2,False
2018052140,listing,/30-new-mount-pleasant-road-balgownie-nsw-2519-2018052140,1075000,is-sold,Sold at auction 29 Sep 2022,20220929,30 New Mount Pleasant Road,BALGOWNIE,NSW,2519,-34.39296,150.8756,3,3,3,House,House,False,575,m2,False
2018054427,listing,/31-frost-parade-balgownie-nsw-2519-2018054427,855000,is-sold,Sold by private treaty 21 Sep 2022,20220921,31 Frost Parade,BALGOWNIE,NSW,2519,-34.3823662,150.8738,3,3,3,House,House,False,538,m2,False
2018065542,listing,/29-wright-street-fernhill-nsw-2519-2018065542,850000,is-sold,Sold by private treaty 29 Sep 2022,20220929,29 Wright Street,FERNHILL,NSW,2519,-34.3834763,150.883224,3,3,3,House,House,False,632,m2,False
2018066111,listing,/25-chalmers-street-balgownie-nsw-2519-2018066111,985000,is-sold,Sold by private treaty 20 Oct 2022,20221020,25 Chalmers Street,BALGOWNIE,NSW,2519,-34.3853569,150.873367,3,3,3,House,House,False,601,m2,False
2018078942,listing,/5-2a-douglas-road-fernhill-nsw-2519-2018078942,760000,is-sold,Sold by private treaty 05 Oct 2022,20221005,5/2A Douglas Road,FERNHILL,NSW,2519,-34.38447,150.894409,2,2,2,Townhouse,Townhouse,False,0,m2,False
2018079432,listing,/12-macarthur-avenue-mount-ousley-nsw-2519-2018079432,1380000,is-sold,Sold prior to auction 13 Oct 2022,20221013,12 Macarthur Avenue,MOUNT OUSLEY,NSW,2519,-34.4004,150.887131,3,3,3,House,House,False,638,m2,False
2018079444,listing,/2-20-montague-street-fairy-meadow-nsw-2519-2018079444,760000,is-sold,Sold prior to auction 15 Oct 2022,20221015,2/20 Montague Street,FAIRY MEADOW,NSW,2519,-34.3969421,150.896057,2,2,2,Villa,Villa,False,0,m2,False
2018086057,listing,/12-hudson-avenue-balgownie-nsw-2519-2018086057,1350000,is-sold,Sold by private treaty 30 Sep 2022,20220930,12 Hudson Avenue,BALGOWNIE,NSW,2519,-34.3903427,150.872086,4,4,4,House,House,False,658,m2,False
2018148017,listing,/5-gownie-place-balgownie-nsw-2519-2018148017,1200000,is-sold,Sold by private treaty 30 Sep 2022,20220930,5 Gownie Place,BALGOWNIE,NSW,2519,-34.38685,150.877335,5,5,5,House,House,False,0,m2,False
2016990457,listing,/2-12-william-street-balgownie-nsw-2519-2016990457,1100000,is-sold,Sold by private treaty 19 Sep 2022,20220919,2/12 William Street,BALGOWNIE,NSW,2519,-34.3878,150.874039,3,3,3,Townhouse,Townhouse,False,0,m2,False
2017858615,listing,/101b-hamilton-street-fairy-meadow-nsw-2519-2017858615,1350000,is-sold,Sold by private treaty 09 Sep 2022,20220909,101B Hamilton Street,FAIRY MEADOW,NSW,2519,-34.3979225,150.881271,4,4,4,House,House,False,425,m2,False
2017872707,listing,/14-pankhurst-avenue-fairy-meadow-nsw-2519-2017872707,1050000,is-sold,Sold by private treaty 09 Sep 2022,20220909,14 Pankhurst Avenue,FAIRY MEADOW,NSW,2519,-34.39781,150.888168,4,4,4,House,House,False,620,m2,False
2017888098,listing,/210-brokers-road-mount-pleasant-nsw-2519-2017888098,1140000,is-sold,Sold by private treaty 12 Sep 2022,20220912,210 Brokers Road,MOUNT PLEASANT,NSW,2519,-34.3972244,150.869415,3,3,3,House,House,False,810,m2,False
2017899109,listing,/46-25-carters-lane-fairy-meadow-nsw-2519-2017899109,655000,is-sold,Sold by private treaty 14 Sep 2022,20220914,46/25 Carters Lane,FAIRY MEADOW,NSW,2519,-34.388134,150.90361,2,2,2,ApartmentUnitFlat,Apartment / Unit / Flat,False,0,m2,False
2017919615,listing,/8-lombard-avenue-fairy-meadow-nsw-2519-2017919615,990000,is-sold,Sold by private treaty 16 Sep 2022,20220916,8 Lombard Avenue,FAIRY MEADOW,NSW,2519,-34.3928146,150.887726,4,4,4,House,House,False,556,m2,False
2017926902,listing,/3-157-balgownie-road-balgownie-nsw-2519-2017926902,675000,is-sold,Sold by private treaty 14 Sep 2022,20220914,3/157 Balgownie Road,BALGOWNIE,NSW,2519,-34.38853,150.875885,2,2,2,Townhouse,Townhouse,False,0,m2,False
2017933953,listing,/3-46-balmoral-street-balgownie-nsw-2519-2017933953,735000,is-sold,Sold at auction 08 Sep 2022,20220908,3/46 Balmoral Street,BALGOWNIE,NSW,2519,-34.3895874,150.878952,3,3,3,Townhouse,Townhouse,False,0,m2,False
2017941277,listing,/1-158-princes-highway-fairy-meadow-nsw-2519-2017941277,470000,is-sold,Sold by private treaty 15 Sep 2022,20220915,1/158 Princes Highway,FAIRY MEADOW,NSW,2519,-34.3978081,150.892456,2,2,2,ApartmentUnitFlat,Apartment / Unit / Flat,False,0,m2,False
2017944339,listing,/81-hopewood-crescent-fairy-meadow-nsw-2519-2017944339,1295000,is-sold,Sold by private treaty 15 Sep 2022,20220915,81 Hopewood Crescent,FAIRY MEADOW,NSW,2519,-34.3933372,150.887909,3,3,3,House,House,False,563,m2,False
2017953219,listing,/100-new-mount-pleasant-road-mount-pleasant-nsw-2519-2017953219,1550000,is-sold,Sold by private treaty 06 Sep 2022,20220906,100 New Mount Pleasant Road,MOUNT PLEASANT,NSW,2519,-34.39523,150.867157,5,5,5,House,House,False,1037,m2,False
2017963294,listing,/18-tolson-place-balgownie-nsw-2519-2017963294,828000,is-sold,Sold by private treaty 02 Sep 2022,20220902,18 Tolson Place,BALGOWNIE,NSW,2519,-34.3819351,150.8779,3,3,3,House,House,False,633,m2,False
2017964877,listing,/1-17-buckland-street-balgownie-nsw-2519-2017964877,1000000,is-sold,Sold at auction 13 Sep 2022,20220913,1/17 Buckland Street,BALGOWNIE,NSW,2519,-34.3839455,150.882965,3,3,3,Townhouse,Townhouse,False,0,m2,False
2017978166,listing,/11-garratt-avenue-fairy-meadow-nsw-2519-2017978166,1145000,is-sold,Sold by private treaty 30 Aug 2022,20220830,11 Garratt Avenue,FAIRY MEADOW,NSW,2519,-34.3933334,150.885132,3,3,3,House,House,False,1480,m2,False
2017995384,listing,/32-wellington-drive-balgownie-nsw-2519-2017995384,1900000,is-sold,Sold at auction 11 Sep 2022,20220911,32 Wellington Drive,BALGOWNIE,NSW,2519,-34.3896,150.867157,5,5,5,House,House,False,1142,m2,False
2018000242,listing,/58-214-220-princes-highway-fairy-meadow-nsw-2519-2018000242,500000,is-sold,Sold by private treaty 05 Sep 2022,20220905,58/214-220 Princes Highway,FAIRY MEADOW,NSW,2519,-34.4025879,150.892471,2,2,2,ApartmentUnitFlat,Apartment / Unit / Flat,False,0,m2,False
2018009149,listing,/105-3-grand-court-fairy-meadow-nsw-2519-2018009149,900000,is-sold,Sold by private treaty 07 Sep 2022,20220907,105/3 Grand Court,FAIRY MEADOW,NSW,2519,-34.3903236,150.903183,2,2,2,ApartmentUnitFlat,Apartment / Unit / Flat,False,0,m2,False
2018021702,listing,/19-brian-street-fairy-meadow-nsw-2519-2018021702,1060000,is-sold,Sold by private treaty 06 Sep 2022,20220906,19 Brian Street,FAIRY MEADOW,NSW,2519,-34.38499,150.8863,3,3,3,House,House,False,601,m2,False
2018054064,listing,/11-church-street-balgownie-nsw-2519-2018054064,1450000,is-sold,Sold by private treaty 15 Sep 2022,20220915,11 Church Street,BALGOWNIE,NSW,2519,-34.38718,150.878082,3,3,3,House,House,False,380,m2,False
2018075539,listing,/25-jardine-street-fairy-meadow-nsw-2519-2018075539,1175000,is-sold,Sold by private treaty 14 Sep 2022,20220914,25 Jardine Street,FAIRY MEADOW,NSW,2519,-34.38832,150.896088,3,3,3,House,House,False,650,m2,False
2017812043,listing,/20-parrish-avenue-mount-pleasant-nsw-2519-2017812043,1305000,is-sold,Sold by private treaty 05 Aug 2022,20220805,20 Parrish Avenue,MOUNT PLEASANT,NSW,2519,-34.3975945,150.863052,4,4,4,House,House,False,1353,m2,False
2017851599,listing,/2-36-maxwell-street-fairy-meadow-nsw-2519-2017851599,367000,is-sold,Sold by private treaty 28 Jul 2022,20220728,2/36 Maxwell Street,FAIRY MEADOW,NSW,2519,-34.38889,150.88681,1,1,1,ApartmentUnitFlat,Apartment / Unit / Flat,False,0,m2,False
2017876418,listing,/19-mcgrath-street-fairy-meadow-nsw-2519-2017876418,895000,is-sold,Sold by private treaty 19 Aug 2022,20220819,19 Mcgrath Street,FAIRY MEADOW,NSW,2519,-34.4001732,150.889175,3,3,3,House,House,False,601,m2,False
2017882224,listing,/31-breda-street-fairy-meadow-nsw-2519-2017882224,1140000,is-sold,Sold by private treaty 03 Aug 2022,20220803,31 Breda Street,FAIRY MEADOW,NSW,2519,-34.385788,150.887085,3,3,3,House,House,False,601,m2,False
2017914741,listing,/60-storey-street-fairy-meadow-nsw-2519-2017914741,980000,is-sold,Sold by private treaty 01 Aug 2022,20220801,60 Storey Street,FAIRY MEADOW,NSW,2519,-34.393795,150.898987,4,4,4,House,House,False,602,m2,False
2017919926,listing,/72-duncan-street-balgownie-nsw-2519-2017919926,880000,is-sold,Sold by private treaty 04 Aug 2022,20220804,72 Duncan Street,BALGOWNIE,NSW,2519,-34.38275,150.874313,2,2,2,House,House,False,558,m2,False
2017925281,listing,/3-madden-street-fernhill-nsw-2519-2017925281,1000000,is-sold,Sold by private treaty 10 Aug 2022,20220810,3 Madden Street,FERNHILL,NSW,2519,-34.3824,150.883362,3,3,3,House,House,False,573,m2,False
2017932305,listing,/104-214-220-princes-highway-fairy-meadow-nsw-2519-2017932305,494000,is-sold,Sold by private treaty 23 Aug 2022,20220823,104/214-220 Princes Highway,FAIRY MEADOW,NSW,2519,-34.4025879,150.892471,2,2,2,ApartmentUnitFlat,Apartment / Unit / Flat,False,0,m2,False
2017933688,listing,/26-chalmers-street-balgownie-nsw-2519-2017933688,965000,is-sold,Sold by private treaty 12 Aug 2022,20220812,26 Chalmers Street,BALGOWNIE,NSW,2519,-34.38495,150.873,3,3,3,House,House,False,607,m2,False
2017944090,listing,/1-the-parkway-balgownie-nsw-2519-2017944090,1600000,is-sold,Sold by private treaty 03 Aug 2022,20220803,1 The Parkway,BALGOWNIE,NSW,2519,-34.38861,150.873367,5,5,5,House,House,False,843,m2,False
2017953710,listing,/36-bootie-street-balgownie-nsw-2519-2017953710,1855000,is-sold,Sold at auction 18 Aug 2022,20220818,36 Bootie Street,BALGOWNIE,NSW,2519,-34.3819962,150.868439,4,4,4,House,House,False,813,m2,False
2017956765,listing,/10-73-81-balgownie-road-balgownie-nsw-2519-2017956765,890000,is-sold,Sold by private treaty 23 Aug 2022,20220823,10/73-81 Balgownie Road,BALGOWNIE,NSW,2519,-34.3889351,150.88356,3,3,3,Villa,Villa,False,0,m2,False
2017960500,listing,/31-cowper-street-fairy-meadow-nsw-2519-2017960500,1630000,is-sold,Sold prior to auction 23 Aug 2022,20220823,31 Cowper Street,FAIRY MEADOW,NSW,2519,-34.3980179,150.898056,3,3,3,House,House,False,629,m2,False
2017961924,listing,/244-201-pioneer-road-fairy-meadow-nsw-2519-2017961924,450000,is-sold,Sold by private treaty 13 Aug 2022,20220813,244/201 Pioneer Road,FAIRY MEADOW,NSW,2519,-34.3904953,150.905914,2,2,2,House,House,False,0,m2,False
2017963044,listing,/2-104-balgownie-road-balgownie-nsw-2519-2017963044,825000,is-sold,Sold by private treaty 26 Aug 2022,20220826,2/104 Balgownie Road,BALGOWNIE,NSW,2519,-34.38884,150.881729,2,2,2,Townhouse,Townhouse,False,0,m2,False
2017975966,listing,/199-brokers-road-mount-pleasant-nsw-2519-2017975966,1250000,is-sold,Sold by private treaty 15 Aug 2022,20220815,199 Brokers Road,MOUNT PLEASANT,NSW,2519,-34.3977165,150.869736,4,4,4,House,House,False,708,m2,False
2017983519,listing,/b503-5-grand-court-fairy-meadow-nsw-2519-2017983519,1420000,is-sold,Sold by private treaty 04 Aug 2022,20220804,B503/5 Grand Court,FAIRY MEADOW,NSW,2519,-34.38982,150.90419,3,3,3,ApartmentUnitFlat,Apartment / Unit / Flat,False,0,m2,False
2018009743,listing,/15a-daisy-street-fairy-meadow-nsw-2519-2018009743,1230000,is-sold,Sold by private treaty 19 Aug 2022,20220819,15A Daisy Street,FAIRY MEADOW,NSW,2519,-34.39242,150.89476,4,4,4,House,House,False,420,m2,False
2018018308,listing,/1-12-william-street-balgownie-nsw-2519-2018018308,1195000,is-sold,Sold by private treaty 22 Aug 2022,20220822,1/12 William Street,BALGOWNIE,NSW,2519,-34.3878,150.874039,3,3,3,Townhouse,Townhouse,False,0,m2,False
2018034386,listing,/16-donald-street-fairy-meadow-nsw-2519-2018034386,1235000,is-sold,Sold by private treaty 29 Aug 2022,20220829,16 Donald Street,FAIRY MEADOW,NSW,2519,-34.3911552,150.900574,3,3,3,House,House,False,464,m2,False
2017756998,listing,/45-sunninghill-circuit-mount-ousley-nsw-2519-2017756998,1140000,is-sold,Sold by private treaty 12 Jul 2022,20220712,45 Sunninghill Circuit,MOUNT OUSLEY,NSW,2519,-34.4007,150.874863,3,3,3,House,House,False,670,m2,False
2017764972,listing,/2-6-kembla-street-balgownie-nsw-2519-2017764972,840000,is-sold,Sold by private treaty 29 Jun 2022,20220629,2/6 Kembla Street,BALGOWNIE,NSW,2519,-34.39028,150.876129,3,3,3,Townhouse,Townhouse,False,0,m2,False
2017808612,listing,/5-chalmers-street-balgownie-nsw-2519-2017808612,1200000,is-sold,Sold by private treaty 22 Jul 2022,20220722,5 Chalmers Street,BALGOWNIE,NSW,2519,-34.3834038,150.873718,3,3,3,House,House,False,563,m2,False
2017814881,listing,/37-jobson-avenue-mount-ousley-nsw-2519-2017814881,1450000,is-sold,Sold by private treaty 04 Jul 2022,20220704,37 Jobson Avenue,MOUNT OUSLEY,NSW,2519,-34.4046822,150.887451,4,4,4,House,House,False,607,m2,False
2017859690,listing,/4-47-49-elliotts-road-fairy-meadow-nsw-2519-2017859690,769200,is-sold,Sold prior to auction 28 Jun 2022,20220628,4/47-49 Elliotts Road,FAIRY MEADOW,NSW,2519,-34.394783,150.894836,3,3,3,Townhouse,Townhouse,False,0,m2,False
2017860624,listing,/15-hamilton-street-fairy-meadow-nsw-2519-2017860624,1105000,is-sold,Sold by private treaty 29 Jun 2022,20220629,15 Hamilton Street,FAIRY MEADOW,NSW,2519,-34.3999023,150.88768,4,4,4,House,House,False,678,m2,False
2017865373,listing,/4-9-hunter-street-balgownie-nsw-2519-2017865373,1115000,is-sold,Sold by private treaty 08 Jul 2022,20220708,4/9 Hunter Street,BALGOWNIE,NSW,2519,-34.3877029,150.8775,3,3,3,Townhouse,Townhouse,False,0,m2,False
2017875511,listing,/20-mclean-avenue-fairy-meadow-nsw-2519-2017875511,887000,is-sold,Sold prior to auction 13 Jul 2022,20220713,20 McLean Avenue,FAIRY MEADOW,NSW,2519,-34.3954735,150.8839,2,2,2,House,House,False,1372,m2,False
2017882751,listing,/2-154-princes-highway-fairy-meadow-nsw-2519-2017882751,460000,is-sold,Sold by private treaty 01 Jul 2022,20220701,2/154 Princes Highway,FAIRY MEADOW,NSW,2519,-34.39726,150.8927,2,2,2,ApartmentUnitFlat,Apartment / Unit / Flat,False,0,m2,False
2017885993,listing,/5-strone-avenue-mount-ousley-nsw-2519-2017885993,900000,is-sold,Sold by private treaty 08 Jul 2022,20220708,5 Strone Avenue,MOUNT OUSLEY,NSW,2519,-34.4010239,150.888168,3,3,3,House,House,False,683,m2,False
2017891796,listing,/203-brokers-road-mount-pleasant-nsw-2519-2017891796,1300000,is-sold,Sold by private treaty 08 Jul 2022,20220708,203 Brokers Road,MOUNT PLEASANT,NSW,2519,-34.3980865,150.869675,3,3,3,House,House,False,651,m2,False
2017893219,listing,/2-134-carters-lane-fairy-meadow-nsw-2519-2017893219,555000,is-sold,Sold by private treaty 18 Jul 2022,20220718,2/134 Carters Lane,FAIRY MEADOW,NSW,2519,-34.39517,150.900757,2,2,2,ApartmentUnitFlat,Apartment / Unit / Flat,False,0,m2,False
2017893751,listing,/7-dymock-street-fairy-meadow-nsw-2519-2017893751,860000,is-sold,Sold at auction 16 Jul 2022,20220716,7 Dymock Street,FAIRY MEADOW,NSW,2519,-34.3950653,150.884308,2,2,2,House,House,False,1138,m2,False
2017900951,listing,/11-hopewood-crescent-fairy-meadow-nsw-2519-2017900951,1150000,is-sold,Sold at auction 23 Jul 2022,20220723,11 Hopewood Crescent,FAIRY MEADOW,NSW,2519,-34.3914757,150.883179,5,5,5,House,House,False,556,m2,False
2017906165,listing,/2-124-princes-highway-fairy-meadow-nsw-2519-2017906165,496000,is-sold,Sold by private treaty 27 Jul 2022,20220727,2/124 Princes Highway,FAIRY MEADOW,NSW,2519,-34.3942757,150.893021,1,1,1,ApartmentUnitFlat,Apartment / Unit / Flat,False,0,m2,False
2017911959,listing,/2-85-87-cabbage-tree-lane-fairy-meadow-nsw-2519-2017911959,1350000,is-sold,Sold by private treaty 22 Jul 2022,20220722,2/85-87 Cabbage Tree Lane,FAIRY MEADOW,NSW,2519,-34.39714,150.881729,5,5,5,Townhouse,Townhouse,False,0,m2,False
2017937219,listing,/38-rae-crescent-balgownie-nsw-2519-2017937219,1275000,is-sold,Sold by private treaty 07 Jul 2022,20220707,38 Rae Crescent,BALGOWNIE,NSW,2519,-34.3848343,150.877457,3,3,3,House,House,False,0,m2,False
2017952168,listing,/7-13-15-soudan-street-fairy-meadow-nsw-2519-2017952168,380000,is-sold,Sold by private treaty 15 Jul 2022,20220715,7/13-15 Soudan Street,FAIRY MEADOW,NSW,2519,-34.4013252,150.892487,1,1,1,ApartmentUnitFlat,Apartment / Unit / Flat,False,0,m2,False
2017955103,listing,/50-hopewood-crescent-fairy-meadow-nsw-2519-2017955103,1050000,is-sold,Sold by private treaty 22 Jul 2022,20220722,50 Hopewood Crescent,FAIRY MEADOW,NSW,2519,-34.393795,150.882629,3,3,3,House,House,False,682,m2,False
2017984784,listing,/7-20-russell-street-balgownie-nsw-2519-2017984784,1180000,is-sold,Sold by private treaty 21 Jul 2022,20220721,7/20 Russell Street,BALGOWNIE,NSW,2519,-34.3917274,150.881088,3,3,3,Townhouse,Townhouse,False,0,m2,False
2017673178,listing,/67-214-220-princes-highway-fairy-meadow-nsw-2519-2017673178,608000,is-sold,Sold by private treaty 01 Jun 2022,20220601,67/214-220 Princes Highway,FAIRY MEADOW,NSW,2519,-34.402607,150.892471,2,2,2,ApartmentUnitFlat,Apartment / Unit / Flat,False,0,m2,False
2017739900,listing,/3-parkview-grove-mount-ousley-nsw-2519-2017739900,937000,is-sold,Sold at auction 20 Jun 2022,20220620,3 Parkview Grove,MOUNT OUSLEY,NSW,2519,-34.3985825,150.8775,3,3,3,House,House,False,556,m2,False
2017764075,listing,/13-helen-brae-avenue-fairy-meadow-nsw-2519-2017764075,940000,is-sold,Sold by private treaty 21 Jun 2022,20220621,13 Helen Brae Avenue,FAIRY MEADOW,NSW,2519,-34.3954964,150.886581,3,3,3,House,House,False,556,m2,False
2017765138,listing,/225-201-pioneer-road-fairy-meadow-nsw-2519-2017765138,235000,is-sold,Sold by private treaty 16 Jun 2022,20220616,225/201 Pioneer Road,FAIRY MEADOW,NSW,2519,-34.3904953,150.905914,2,2,2,ApartmentUnitFlat,Apartment / Unit / Flat,False,0,m2,False
2017771857,listing,/b304-5-grand-court-fairy-meadow-nsw-2519-2017771857,645000,is-sold,Sold at auction 27 May 2022,20220527,B304/5 Grand Court,FAIRY MEADOW,NSW,2519,-34.38982,150.90419,1,1,1,ApartmentUnitFlat,Apartment / Unit / Flat,False,0,m2,False
2017777081,listing,/1-3-ryan-street-balgownie-nsw-2519-2017777081,900000,is-sold,Sold by private treaty 15 Jun 2022,20220615,1/3 Ryan Street,BALGOWNIE,NSW,2519,-34.39065,150.87999,3,3,3,Villa,Villa,False,0,m2,False
2017785347,listing,/7-strone-avenue-mount-ousley-nsw-2519-2017785347,1300000,is-sold,Sold by private treaty 22 Jun 2022,20220622,7 Strone Avenue,MOUNT OUSLEY,NSW,2519,-34.4011574,150.888214,4,4,4,House,House,False,664,m2,False
2017789735,listing,/2-dymock-street-fairy-meadow-nsw-2519-2017789735,1265000,is-sold,Sold by private treaty 23 Jun 2022,20220623,2 Dymock Street,FAIRY MEADOW,NSW,2519,-34.39446,150.884262,4,4,4,House,House,False,620,m2,False
2017791328,listing,/2-58-elliotts-road-fairy-meadow-nsw-2519-2017791328,730000,is-sold,Sold by private treaty 03 Jun 2022,20220603,2/58 Elliotts Road,FAIRY MEADOW,NSW,2519,-34.3942223,150.894852,2,2,2,Townhouse,Townhouse,False,0,m2,False
2017797858,listing,/c102-5-grand-court-fairy-meadow-nsw-2519-2017797858,875000,is-sold,Sold prior to auction 27 May 2022,20220527,C102/5 Grand Court,FAIRY MEADOW,NSW,2519,-34.38982,150.90419,2,2,2,ApartmentUnitFlat,Apartment / Unit / Flat,False,0,m2,False
2017810024,listing,/202-3-grand-court-fairy-meadow-nsw-2519-2017810024,910000,is-sold,Sold by private treaty 17 Jun 2022,20220617,202/3 Grand Court,FAIRY MEADOW,NSW,2519,-34.3903275,150.903351,2,2,2,ApartmentUnitFlat,Apartment / Unit / Flat,False,0,m2,False
2017816915,listing,/18-grafton-street-fairy-meadow-nsw-2519-2017816915,1502000,is-sold,Sold at auction 16 Jun 2022,20220616,18 Grafton Street,FAIRY MEADOW,NSW,2519,-34.3958549,150.893631,5,5,5,House,House,False,774,m2,False
2017821701,listing,/2-43-balmoral-street-balgownie-nsw-2519-2017821701,1305000,is-sold,Sold at auction 23 Jun 2022,20220623,2/43 Balmoral Street,BALGOWNIE,NSW,2519,-34.3897247,150.87645,3,3,3,Townhouse,Townhouse,False,0,m2,False
2017822217,listing,/2-10-kembla-street-balgownie-nsw-2519-2017822217,1000000,is-sold,Sold by private treaty 16 Jun 2022,20220616,2/10 Kembla Street,BALGOWNIE,NSW,2519,-34.3919334,150.876678,3,3,3,Townhouse,Townhouse,False,0,m2,False
2017830321,listing,/18-cabbage-tree-lane-fairy-meadow-nsw-2519-2017830321,1060000,is-sold,Sold by private treaty 01 Jun 2022,20220601,18 Cabbage Tree Lane,FAIRY MEADOW,NSW,2519,-34.3970528,150.89,3,3,3,House,House,False,615,m2,False
2017843011,listing,/13-chalmers-street-balgownie-nsw-2519-2017843011,1350000,is-sold,Sold at auction 27 Jun 2022,20220627,13 Chalmers Street,BALGOWNIE,NSW,2519,-34.3842621,150.873718,4,4,4,House,House,False,556,m2,False
2017844046,listing,/mount-ousley-nsw-2519-2017844046,1050000,is-sold,Sold by private treaty 26 May 2022,20220526,,MOUNT OUSLEY,NSW,2519,-34.4024162,150.88678,3,3,3,House,House,False,0,m2,False
2017869945,listing,/20-60-62-balmoral-street-balgownie-nsw-2519-2017869945,725000,is-sold,Sold by private treaty 24 Jun 2022,20220624,20/60-62 Balmoral Street,BALGOWNIE,NSW,2519,-34.3889771,150.8768,2,2,2,Townhouse,Townhouse,False,0,m2,False
2017870722,listing,/25-73-81-balgownie-road-balgownie-nsw-2519-2017870722,800000,is-sold,Sold by private treaty 21 Jun 2022,20220621,25/73-81 Balgownie Road,BALGOWNIE,NSW,2519,-34.3889351,150.88356,2,2,2,Villa,Villa,False,0,m2,False
2017875400,listing,/83-hamilton-street-fairy-meadow-nsw-2519-2017875400,1250000,is-sold,Sold by private treaty 23 Jun 2022,20220623,83 Hamilton Street,FAIRY MEADOW,NSW,2519,-34.39908,150.880676,4,4,4,House,House,False,879,m2,False
2017680078,listing,/4-12-clifford-street-fairy-meadow-nsw-2519-2017680078,1000000,is-sold,Sold by private treaty 11 May 2022,20220511,4/12 Clifford Street,FAIRY MEADOW,NSW,2519,-34.395813,150.894989,4,4,4,Townhouse,Townhouse,False,0,m2,False
2017697065,listing,/35-hamilton-street-fairy-meadow-nsw-2519-2017697065,1450000,is-sold,Sold by private treaty 05 May 2022,20220505,35 Hamilton Street,FAIRY MEADOW,NSW,2519,-34.399704,150.885223,4,4,4,House,House,False,733,m2,False
2017717907,listing,/3-27-hunter-street-balgownie-nsw-2519-2017717907,885000,is-sold,Sold by private treaty 05 May 2022,20220505,3/27 Hunter Street,BALGOWNIE,NSW,2519,-34.38747,150.875549,2,2,2,Villa,Villa,False,0,m2,False
2017724809,listing,/11-51-59-princes-highway-fairy-meadow-nsw-2519-2017724809,,is-sold,Sold by private treaty 09 May 2022,20220509,11/51 - 59 Princes Highway,FAIRY MEADOW,NSW,2519,-34.39437,150.892471,2,2,2,ApartmentUnitFlat,Apartment / Unit / Flat,False,0,m2,False
2017726043,listing,/25-parrish-avenue-mount-pleasant-nsw-2519-2017726043,3100000,is-sold,Sold by private treaty 06 May 2022,20220506,25 Parrish Avenue,MOUNT PLEASANT,NSW,2519,-34.3986931,150.86377,5,5,5,House,House,False,1371,m2,False
2017728382,listing,/19-jobson-avenue-mount-ousley-nsw-2519-2017728382,1100000,is-sold,Sold by private treaty 04 May 2022,20220504,19 Jobson Avenue,MOUNT OUSLEY,NSW,2519,-34.4049263,150.888992,4,4,4,House,House,False,569,m2,False
2017732880,listing,/48-the-parkway-balgownie-nsw-2519-2017732880,1630000,is-sold,Sold by private treaty 19 May 2022,20220519,48 The Parkway,BALGOWNIE,NSW,2519,-34.3925858,150.872314,4,4,4,House,House,False,560,m2,False
2017732982,listing,/25-helen-brae-avenue-fairy-meadow-nsw-2519-2017732982,920000,is-sold,Sold prior to auction 13 May 2022,20220513,25 Helen Brae Avenue,FAIRY MEADOW,NSW,2519,-34.3958,150.885635,3,3,3,House,House,False,556,m2,False
2017735884,listing,/126-cabbage-tree-lane-fairy-meadow-nsw-2519-2017735884,1220000,is-sold,Sold by private treaty 05 May 2022,20220505,126 Cabbage Tree Lane,FAIRY MEADOW,NSW,2519,-34.39575,150.879318,4,4,4,House,House,False,835,m2,False
2017737456,listing,/13-mcmahon-street-fairy-meadow-nsw-2519-2017737456,1000000,is-sold,Sold at auction 14 May 2022,20220514,13 McMahon Street,FAIRY MEADOW,NSW,2519,-34.3986626,150.88472,3,3,3,House,House,False,766,m2,False
2017740976,listing,/63-greenslopes-avenue-mount-pleasant-nsw-2519-2017740976,1120000,is-sold,Sold prior to auction 11 May 2022,20220511,63 Greenslopes Avenue,MOUNT PLEASANT,NSW,2519,-34.398674,150.872864,4,4,4,House,House,False,853,m2,False
2017741097,listing,/40-donald-street-fairy-meadow-nsw-2519-2017741097,1520000,is-sold,Sold at auction 13 May 2022,20220513,40 Donald Street,FAIRY MEADOW,NSW,2519,-34.3928337,150.900177,4,4,4,House,House,False,518,m2,False
2017762833,listing,/101a-hamilton-street-fairy-meadow-nsw-2519-2017762833,1340000,is-sold,Sold by private treaty 25 May 2022,20220525,101A Hamilton Street,FAIRY MEADOW,NSW,2519,-34.3979378,150.881241,4,4,4,House,House,False,365,m2,False
2017764803,listing,/11-balmoral-street-balgownie-nsw-2519-2017764803,1300000,is-sold,Sold by private treaty 05 May 2022,20220505,11 Balmoral Street,BALGOWNIE,NSW,2519,-34.390274,150.880676,3,3,3,Townhouse,Townhouse,False,0,m2,False
2017772741,listing,/4b-tamblin-street-fairy-meadow-nsw-2519-2017772741,1385000,is-sold,Sold prior to auction 19 May 2022,20220519,4b Tamblin Street,FAIRY MEADOW,NSW,2519,-34.3892365,150.885864,3,3,3,SemiDetached,Semi-Detached,False,0,m2,False
2017775952,listing,/4-29-rann-street-fairy-meadow-nsw-2519-2017775952,510000,is-sold,Sold by private treaty 11 May 2022,20220511,4/29 Rann Street,FAIRY MEADOW,NSW,2519,-34.3934441,150.898392,2,2,2,ApartmentUnitFlat,Apartment / Unit / Flat,False,0,m2,False
2017777057,listing,/20-cabbage-tree-lane-fairy-meadow-nsw-2519-2017777057,1250000,is-sold,Sold prior to auction 19 May 2022,20220519,20 Cabbage Tree Lane,FAIRY MEADOW,NSW,2519,-34.3970451,150.889816,3,3,3,House,House,False,600,m2,False
2017782819,listing,/4-42-rann-street-fairy-meadow-nsw-2519-2017782819,500000,is-sold,Sold by private treaty 20 May 2022,20220520,4/42 Rann Street,FAIRY MEADOW,NSW,2519,-34.3939056,150.897583,2,2,2,ApartmentUnitFlat,Apartment / Unit / Flat,False,0,m2,False
2017785069,listing,/141-214-220-princes-highway-fairy-meadow-nsw-2519-2017785069,400000,is-sold,Sold by private treaty 24 May 2022,20220524,141/214-220 Princes Highway,FAIRY MEADOW,NSW,2519,-34.402607,150.892471,1,1,1,ApartmentUnitFlat,Apartment / Unit / Flat,False,0,m2,False
2017813721,listing,/10-frost-parade-balgownie-nsw-2519-2017813721,1110000,is-sold,Sold by private treaty 04 May 2022,20220504,10 Frost Parade,BALGOWNIE,NSW,2519,-34.38209,150.875168,2,2,2,House,House,False,607,m2,False
2012704277,listing,/46-princes-highway-fairy-meadow-nsw-2519-2012704277,750000,is-sold,Sold by private treaty 03 May 2022,20220503,46 Princes Highway,FAIRY MEADOW,NSW,2519,-34.39037,150.893951,3,3,3,House,House,False,708,m2,False
2017374206,listing,/36-rose-parade-mount-pleasant-nsw-2519-2017374206,2850000,is-sold,Sold by private treaty 22 Apr 2022,20220422,36 Rose parade,MOUNT PLEASANT,NSW,2519,-34.392395,150.867767,5,5,5,House,House,False,15000,m2,False
2017505350,listing,/42-sherwood-drive-balgownie-nsw-2519-2017505350,1660000,is-sold,Sold by private treaty 13 Apr 2022,20220413,42 Sherwood Drive,BALGOWNIE,NSW,2519,-34.38752,150.868546,4,4,4,House,House,False,601,m2,False
2017549066,listing,/101-cabbage-tree-lane-mount-ousley-nsw-2519-2017549066,1400000,is-sold,Sold by private treaty 03 May 2022,20220503,101 Cabbage Tree Lane,MOUNT OUSLEY,NSW,2519,-34.39636,150.880585,5,5,5,House,House,False,0,m2,False
2017556230,listing,/46-princes-highway-fairy-meadow-nsw-2519-2017556230,1255000,is-sold,Sold by private treaty 25 Apr 2022,20220425,46 Princes Highway,FAIRY MEADOW,NSW,2519,-34.3903465,150.893845,3,3,3,House,House,False,713,m2,False
2017563943,listing,/18-terrell-place-balgownie-nsw-2519-2017563943,2175000,is-sold,Sold by private treaty 14 Apr 2022,20220414,18 Terrell Place,BALGOWNIE,NSW,2519,-34.3809166,150.868256,4,4,4,House,House,False,1886,m2,False
2017664981,listing,/5-stanbrook-avenue-mount-ousley-nsw-2519-2017664981,1630000,is-sold,Sold at auction 08 Apr 2022,20220408,5 Stanbrook Avenue,MOUNT OUSLEY,NSW,2519,-34.4004631,150.88295,5,5,5,House,House,False,638,m2,False
2017672086,listing,/20-bellebrae-avenue-mount-ousley-nsw-2519-2017672086,1200000,is-sold,Sold by private treaty 22 Apr 2022,20220422,20 Bellebrae Avenue,MOUNT OUSLEY,NSW,2519,-34.4000854,150.877228,4,4,4,House,House,False,942,m2,False
2017672093,listing,/3-macarthur-avenue-mount-ousley-nsw-2519-2017672093,1255000,is-sold,Sold at auction 11 Apr 2022,20220411,3 MacArthur Avenue,MOUNT OUSLEY,NSW,2519,-34.400856,150.887222,4,4,4,House,House,False,594,m2,False
2017674824,listing,/47-sunninghill-circuit-mount-ousley-nsw-2519-2017674824,1122000,is-sold,Sold by private treaty 20 Apr 2022,20220420,47 Sunninghill Circuit,MOUNT OUSLEY,NSW,2519,-34.40062,150.875,4,4,4,House,House,False,670,m2,False
2017678500,listing,/72-214-220-princes-highway-fairy-meadow-nsw-2519-2017678500,379000,is-sold,Sold by private treaty 11 Apr 2022,20220411,72/214-220 Princes Highway,FAIRY MEADOW,NSW,2519,-34.402607,150.892471,1,1,1,ApartmentUnitFlat,Apartment / Unit / Flat,False,0,m2,False
2017679345,listing,/34-wallace-road-fernhill-nsw-2519-2017679345,1110000,is-sold,Sold at auction 13 Apr 2022,20220413,34 Wallace Road,FERNHILL,NSW,2519,-34.38281,150.889679,2,2,2,House,House,False,593,m2,False
2017682792,listing,/23-cowper-street-fairy-meadow-nsw-2519-2017682792,1310000,is-sold,Sold by private treaty 21 Apr 2022,20220421,23 Cowper Street,FAIRY MEADOW,NSW,2519,-34.3973236,150.898224,2,2,2,House,House,False,629,m2,False
2017691798,listing,/36-chalmers-street-balgownie-nsw-2519-2017691798,1125000,is-sold,Sold by private treaty 14 Apr 2022,20220414,36 Chalmers Street,BALGOWNIE,NSW,2519,-34.38611,150.872589,3,3,3,House,House,False,0,m2,False
2017696235,listing,/3-12-russell-street-balgownie-nsw-2519-2017696235,1120000,is-sold,Sold by private treaty 21 Apr 2022,20220421,3/12 Russell Street,BALGOWNIE,NSW,2519,-34.3911171,150.88118,3,3,3,Townhouse,Townhouse,False,0,m2,False
2017696746,listing,/6-42-carters-lane-fairy-meadow-nsw-2519-2017696746,820000,is-sold,Sold at auction 21 Apr 2022,20220421,6/42 Carters Lane,FAIRY MEADOW,NSW,2519,-34.3885727,150.901489,3,3,3,Townhouse,Townhouse,False,0,m2,False
2017699003,listing,/25-gore-street-balgownie-nsw-2519-2017699003,1630000,is-sold,Sold by private treaty 14 Apr 2022,20220414,25 Gore Street,BALGOWNIE,NSW,2519,-34.3835869,150.869141,4,4,4,House,House,False,0,m2,False
2017701627,listing,/26-ellengowan-crescent-fairy-meadow-nsw-2519-2017701627,1100000,is-sold,Sold at auction 20 Apr 2022,20220420,26 Ellengowan Crescent,FAIRY MEADOW,NSW,2519,-34.390728,150.886856,2,2,2,House,House,False,556,m2,False
2017705046,listing,/120-carters-lane-fairy-meadow-nsw-2519-2017705046,1446000,is-sold,Sold prior to auction 20 Apr 2022,20220420,120 Carters Lane,FAIRY MEADOW,NSW,2519,-34.39425,150.901031,3,3,3,House,House,False,519,m2,False
2017735395,listing,/9-balfour-street-fairy-meadow-nsw-2519-2017735395,1270000,is-sold,Sold by private treaty 29 Apr 2022,20220429,9 Balfour Street,FAIRY MEADOW,NSW,2519,-34.3869247,150.888718,3,3,3,House,House,False,601,m2,False
2017445043,listing,/4-alvan-parade-mount-pleasant-nsw-2519-2017445043,1400000,is-sold,Sold by private treaty 23 Mar 2022,20220323,4 Alvan Parade,MOUNT PLEASANT,NSW,2519,-34.3952637,150.872086,4,4,4,House,House,False,1366,m2,False
2017531169,listing,/16-cottage-green-mount-ousley-nsw-2519-2017531169,1170000,is-sold,Sold by private treaty 05 Apr 2022,20220405,16 Cottage Green,MOUNT OUSLEY,NSW,2519,-34.3964729,150.878586,4,4,4,House,House,False,614,m2,False
2017568789,listing,/5-10-montague-street-fairy-meadow-nsw-2519-2017568789,489000,is-sold,Sold by private treaty 15 Mar 2022,20220315,5/10 Montague Street,FAIRY MEADOW,NSW,2519,-34.3960266,150.896576,2,2,2,ApartmentUnitFlat,Apartment / Unit / Flat,False,0,m2,False
2017591864,listing,/9-fairy-avenue-fairy-meadow-nsw-2519-2017591864,1150000,is-sold,Sold at auction 19 Mar 2022,20220319,9 Fairy Avenue,FAIRY MEADOW,NSW,2519,-34.396553,150.889908,4,4,4,House,House,False,601,m2,False
2017596348,listing,/34-sunninghill-circuit-mount-ousley-nsw-2519-2017596348,1250000,is-sold,Sold by private treaty 17 Mar 2022,20220317,34 Sunninghill Circuit,MOUNT OUSLEY,NSW,2519,-34.3997841,150.873764,3,3,3,House,House,False,765,m2,False
2017606165,listing,/12-smith-street-fairy-meadow-nsw-2519-2017606165,1060000,is-sold,Sold by private treaty 28 Mar 2022,20220328,12 Smith Street,FAIRY MEADOW,NSW,2519,-34.3904839,150.897079,4,4,4,House,House,False,753,m2,False
2017609433,listing,/3-113-meadow-street-fairy-meadow-nsw-2519-2017609433,915000,is-sold,Sold by private treaty 15 Mar 2022,20220315,3/113 Meadow Street,FAIRY MEADOW,NSW,2519,-34.3851967,150.885727,2,2,2,Villa,Villa,False,0,m2,False
2017622910,listing,/21-howson-place-balgownie-nsw-2519-2017622910,1000000,is-sold,Sold by private treaty 06 Apr 2022,20220406,21 Howson Place,BALGOWNIE,NSW,2519,-34.3820572,150.870728,3,3,3,House,House,False,569,m2,False
2017626480,listing,/1-23-elliotts-road-fairy-meadow-nsw-2519-2017626480,955000,is-sold,Sold by private treaty 06 Apr 2022,20220406,1/23 Elliotts Road,FAIRY MEADOW,NSW,2519,-34.39587,150.899033,3,3,3,Villa,Villa,False,0,m2,False
2017627028,listing,/19-farrell-street-balgownie-nsw-2519-2017627028,1260000,is-sold,Sold at auction 21 Mar 2022,20220321,19 Farrell Street,BALGOWNIE,NSW,2519,-34.38816,150.880173,3,3,3,House,House,False,705,m2,False
2017633515,listing,/24-blanchard-crescent-balgownie-nsw-2519-2017633515,1625000,is-sold,Sold by private treaty 22 Mar 2022,20220322,24 Blanchard Crescent,BALGOWNIE,NSW,2519,-34.3879852,150.867981,4,4,4,House,House,False,1155,m2,False
2017639729,listing,/33-lombard-avenue-fairy-meadow-nsw-2519-2017639729,1165000,is-sold,Sold at auction 02 Apr 2022,20220402,33 Lombard Avenue,FAIRY MEADOW,NSW,2519,-34.39239,150.8844,3,3,3,House,House,False,569,m2,False
2017653918,listing,/58-new-mount-pleasant-road-mount-pleasant-nsw-2519-2017653918,1750000,is-sold,Sold at auction 07 Apr 2022,20220407,58 New Mount Pleasant Road,MOUNT PLEASANT,NSW,2519,-34.3932266,150.872879,6,6,6,House,House,False,720,m2,False
2017654039,listing,/23-breda-street-fairy-meadow-nsw-2519-2017654039,1600000,is-sold,Sold prior to auction 04 Apr 2022,20220404,23 Breda Street,FAIRY MEADOW,NSW,2519,-34.3859024,150.88768,5,5,5,House,House,False,0,m2,False
2017660951,listing,/8-4-clifford-street-fairy-meadow-nsw-2519-2017660951,850000,is-sold,Sold by private treaty 30 Mar 2022,20220330,8/4 Clifford Street,FAIRY MEADOW,NSW,2519,-34.39523,150.895325,2,2,2,ApartmentUnitFlat,Apartment / Unit / Flat,False,0,m2,False
2017661706,listing,/balgownie-nsw-2519-2017661706,1900000,is-sold,Sold by private treaty 14 Mar 2022,20220314,,BALGOWNIE,NSW,2519,-34.3947563,150.877319,5,5,5,House,House,False,1499,m2,False
2017681521,listing,/252-201-pioneer-road-fairy-meadow-nsw-2519-2017681521,520000,is-sold,Sold by private treaty 05 Apr 2022,20220405,252/201 Pioneer Road,FAIRY MEADOW,NSW,2519,-34.3904953,150.905914,2,2,2,House,House,False,0,m2,False
2017682660,listing,/14-parkview-grove-mount-ousley-nsw-2519-2017682660,1167000,is-sold,Sold by private treaty 30 Mar 2022,20220330,14 Parkview Grove,MOUNT OUSLEY,NSW,2519,-34.3993225,150.876724,3,3,3,House,House,False,942,m2,False
2017691201,listing,/3-94-new-mt-pleasant-road-mount-pleasant-nsw-2519-2017691201,,is-sold,Sold by private treaty 07 Apr 2022,20220407,3/94 New Mt Pleasant Road,MOUNT PLEASANT,NSW,2519,-34.39509,150.8679,3,3,3,Townhouse,Townhouse,False,0,m2,False
2017707307,listing,/15-chapman-street-fairy-meadow-nsw-2519-2017707307,950000,is-sold,Sold by private treaty 25 Mar 2022,20220325,15 Chapman Street,FAIRY MEADOW,NSW,2519,-34.3876839,150.897446,3,3,3,House,House,False,586,m2,False
2017367279,listing,/24-51-59-princes-highway-fairy-meadow-nsw-2519-2017367279,,is-sold,Sold by private treaty 04 Mar 2022,20220304,24/51-59 Princes Highway,FAIRY MEADOW,NSW,2519,-34.39437,150.892471,2,2,2,ApartmentUnitFlat,Apartment / Unit / Flat,False,0,m2,False
2017469899,listing,/15-sherwood-drive-balgownie-nsw-2519-2017469899,1950000,is-sold,Sold by private treaty 14 Feb 2022,20220214,15 Sherwood Drive,BALGOWNIE,NSW,2519,-34.3867149,150.868958,4,4,4,House,House,False,693,m2,False
2017520084,listing,/7-chalmers-street-balgownie-nsw-2519-2017520084,1280000,is-sold,Sold prior to auction 04 Feb 2022,20220204,7 Chalmers Street,BALGOWNIE,NSW,2519,-34.38355,150.87381,3,3,3,House,House,False,575,m2,False
2017537438,listing,/13a-tamblin-street-fairy-meadow-nsw-2519-2017537438,1200500,is-sold,Sold by private treaty 09 Mar 2022,20220309,13a Tamblin Street,FAIRY MEADOW,NSW,2519,-34.3897438,150.8849,4,4,4,House,House,False,890,m2,False
2017541055,listing,/22-124-princes-highway-fairy-meadow-nsw-2519-2017541055,540000,is-sold,Sold by private treaty 04 Mar 2022,20220304,22/124 Princes Highway,FAIRY MEADOW,NSW,2519,-34.3942757,150.893021,1,1,1,ApartmentUnitFlat,Apartment / Unit / Flat,False,0,m2,False
2017543916,listing,/102-1-grand-court-fairy-meadow-nsw-2519-2017543916,775000,is-sold,Sold by private treaty 04 Feb 2022,20220204,102/1 Grand Court,FAIRY MEADOW,NSW,2519,-34.3907051,150.9026,2,2,2,ApartmentUnitFlat,Apartment / Unit / Flat,False,0,m2,False
2017548443,listing,/14-frost-parade-balgownie-nsw-2519-2017548443,900000,is-sold,Sold by private treaty 16 Feb 2022,20220216,14 Frost Parade,BALGOWNIE,NSW,2519,-34.3819733,150.874374,3,3,3,House,House,False,579,m2,False
2017552701,listing,/99-hamilton-street-fairy-meadow-nsw-2519-2017552701,1151500,is-sold,Sold by private treaty 10 Feb 2022,20220210,99 Hamilton Street,FAIRY MEADOW,NSW,2519,-34.3979568,150.881088,3,3,3,House,House,False,651,m2,False
2017556817,listing,/12-14-elsie-court-balgownie-nsw-2519-2017556817,2800000,is-sold,Sold prior to auction 25 Feb 2022,20220225,12-14 Elsie Court,BALGOWNIE,NSW,2519,-34.390976,150.876434,4,4,4,House,House,False,1547,m2,False
2017559113,listing,/27-cambridge-avenue-fairy-meadow-nsw-2519-2017559113,1357000,is-sold,Sold at auction 04 Mar 2022,20220304,27 Cambridge Avenue,FAIRY MEADOW,NSW,2519,-34.39399,150.891953,3,3,3,House,House,False,753,m2,False
2017565981,listing,/26-greenslopes-avenue-mount-ousley-nsw-2519-2017565981,1165500,is-sold,Sold prior to auction 16 Feb 2022,20220216,26 Greenslopes Avenue,MOUNT OUSLEY,NSW,2519,-34.39785,150.876862,3,3,3,House,House,False,0,m2,False
2017570765,listing,/6-9-11-collaery-avenue-fairy-meadow-nsw-2519-2017570765,560000,is-sold,Sold by private treaty 10 Mar 2022,20220310,6/9-11 Collaery Avenue,FAIRY MEADOW,NSW,2519,-34.40026,150.892532,2,2,2,ApartmentUnitFlat,Apartment / Unit / Flat,False,0,m2,False
2017580756,listing,/13-breda-street-fairy-meadow-nsw-2519-2017580756,1260000,is-sold,Sold at auction 04 Mar 2022,20220304,13 Breda Street,FAIRY MEADOW,NSW,2519,-34.385994,150.888489,3,3,3,House,House,False,600,m2,False
2017594052,listing,/17-duncan-street-balgownie-nsw-2519-2017594052,1060000,is-sold,Sold at auction 14 Mar 2022,20220314,17 Duncan Street,BALGOWNIE,NSW,2519,-34.3836632,150.878067,3,3,3,House,House,False,556,m2,False
2017594617,listing,/177-cabbage-tree-lane-mount-pleasant-nsw-2519-2017594617,1230000,is-sold,Sold by private treaty 11 Mar 2022,20220311,177 Cabbage Tree Lane,MOUNT PLEASANT,NSW,2519,-34.3953056,150.870789,3,3,3,House,House,False,2236,m2,False
2017601521,listing,/69-parrish-avenue-mount-pleasant-nsw-2519-2017601521,1510000,is-sold,Sold at auction 08 Mar 2022,20220308,69 Parrish Avenue,MOUNT PLEASANT,NSW,2519,-34.3972855,150.860519,4,4,4,House,House,False,473,m2,False
2017603202,listing,/10-wallace-road-fernhill-nsw-2519-2017603202,1160000,is-sold,Sold by private treaty 14 Feb 2022,20220214,10 Wallace Road,FERNHILL,NSW,2519,-34.3831024,150.891724,3,3,3,House,House,False,695,m2,False
2017615865,listing,/8-13-15-soudan-street-fairy-meadow-nsw-2519-2017615865,370000,is-sold,Sold by private treaty 11 Mar 2022,20220311,8/13-15 Soudan Street,FAIRY MEADOW,NSW,2519,-34.40136,150.892487,1,1,1,ApartmentUnitFlat,Apartment / Unit / Flat,False,0,m2,False
2017617220,listing,/69-margaret-street-balgownie-nsw-2519-2017617220,1350000,is-sold,Sold by private treaty 18 Feb 2022,20220218,69 Margaret Street,BALGOWNIE,NSW,2519,-34.3839951,150.874084,3,3,3,House,House,False,0,m2,False
2017660783,listing,/5-12-william-street-balgownie-nsw-2519-2017660783,1250000,is-sold,Sold by private treaty 14 Mar 2022,20220314,5/12 William Street,BALGOWNIE,NSW,2519,-34.3878,150.874039,3,3,3,Townhouse,Townhouse,False,0,m2,False
2016778585,listing,/3-17-balmoral-street-balgownie-nsw-2519-2016778585,1250000,is-sold,Sold by private treaty 03 Feb 2022,20220203,3/17 Balmoral Street,BALGOWNIE,NSW,2519,-34.39024,150.879944,4,4,4,Townhouse,Townhouse,False,0,m2,False
2017225250,listing,/78-214-220-princes-highway-fairy-meadow-nsw-2519-2017225250,296000,is-sold,Sold by private treaty 28 Jan 2022,20220128,78/214-220 Princes Highway,FAIRY MEADOW,NSW,2519,-34.402607,150.892471,,1.0,,Studio,Studio,False,0,m2,False
2017312373,listing,/17-paradise-avenue-mount-pleasant-nsw-2519-2017312373,1480000,is-sold,Sold by private treaty 21 Dec 2021,20211221,17 Paradise Avenue,MOUNT PLEASANT,NSW,2519,-34.3945,150.865509,4,4,4,House,House,False,556,m2,False
2017317477,listing,/13-foothills-road-balgownie-nsw-2519-2017317477,1140000,is-sold,Sold by private treaty 20 Jan 2022,20220120,13 Foothills Road,BALGOWNIE,NSW,2519,-34.38222,150.882355,3,3,3,House,House,False,589,m2,False
2017345235,listing,/20-192-198-princes-highway-fairy-meadow-nsw-2519-2017345235,465000,is-sold,Sold by private treaty 12 Jan 2022,20220112,20/192-198 Princes Highway,FAIRY MEADOW,NSW,2519,-34.4007,150.89209,2,2,2,ApartmentUnitFlat,Apartment / Unit / Flat,False,0,m2,False
2017349193,listing,/b101-5-grand-court-fairy-meadow-nsw-2519-2017349193,1220000,is-sold,Sold by private treaty 17 Dec 2021,20211217,B101/5 Grand Court,FAIRY MEADOW,NSW,2519,-34.3898125,150.9042,3,3,3,ApartmentUnitFlat,Apartment / Unit / Flat,False,0,m2,False
2017355064,listing,/29-25-carters-lane-fairy-meadow-nsw-2519-2017355064,710000,is-sold,Sold by private treaty 17 Dec 2021,20211217,29/25 Carters Lane,FAIRY MEADOW,NSW,2519,-34.38815,150.903656,2,2,2,ApartmentUnitFlat,Apartment / Unit / Flat,False,0,m2,False
2017364711,listing,/161-cabbage-tree-lane-mount-pleasant-nsw-2519-2017364711,1370000,is-sold,Sold by private treaty 27 Jan 2022,20220127,161 Cabbage Tree Lane,MOUNT PLEASANT,NSW,2519,-34.3954735,150.87381,6,6,6,House,House,False,556,m2,False
2017397587,listing,/3-4-kembla-street-balgownie-nsw-2519-2017397587,962500,is-sold,Sold by private treaty 16 Dec 2021,20211216,3/4 Kembla Street,BALGOWNIE,NSW,2519,-34.3902435,150.876968,3,3,3,Townhouse,Townhouse,False,0,m2,False
2017414460,listing,/35-frost-parade-balgownie-nsw-2519-2017414460,1050000,is-sold,Sold by private treaty 17 Dec 2021,20211217,35 Frost Parade,BALGOWNIE,NSW,2519,-34.38235,150.873444,5,5,5,House,House,False,538,m2,False
2017419433,listing,/36-25-carters-lane-fairy-meadow-nsw-2519-2017419433,680000,is-sold,Sold by private treaty 14 Jan 2022,20220114,36/25 Carters Lane,FAIRY MEADOW,NSW,2519,-34.38815,150.903656,2,2,2,ApartmentUnitFlat,Apartment / Unit / Flat,False,0,m2,False
2017450492,listing,/101-214-220-princes-hwy-fairy-meadow-nsw-2519-2017450492,500000,is-sold,Sold by private treaty 17 Dec 2021,20211217,101/214-220 Princes Hwy,FAIRY MEADOW,NSW,2519,-34.402607,150.892471,2,2,2,ApartmentUnitFlat,Apartment / Unit / Flat,False,0,m2,False
2017453107,listing,/2-23-montague-street-fairy-meadow-nsw-2519-2017453107,507000,is-sold,Sold by private treaty 31 Jan 2022,20220131,2/23 Montague Street,FAIRY MEADOW,NSW,2519,-34.39758,150.896759,2,2,2,ApartmentUnitFlat,Apartment / Unit / Flat,False,0,m2,False
2017460365,listing,/147-new-mount-pleasant-road-mount-pleasant-nsw-2519-2017460365,1110000,is-sold,Sold by private treaty 20 Dec 2021,20211220,147 New Mount Pleasant Road,MOUNT PLEASANT,NSW,2519,-34.3955421,150.8631,4,4,4,House,House,False,607,m2,False
2017468208,listing,/b504-5-grand-court-fairy-meadow-nsw-2519-2017468208,662000,is-sold,Sold by private treaty 17 Dec 2021,20211217,B504/5 Grand Court,FAIRY MEADOW,NSW,2519,-34.38982,150.90419,1,1,1,ApartmentUnitFlat,Apartment / Unit / Flat,False,0,m2,False
2017469961,listing,/17-6-kembla-street-balgownie-nsw-2519-2017469961,742000,is-sold,Sold by private treaty 11 Dec 2021,20211211,17/6 Kembla Street,BALGOWNIE,NSW,2519,-34.39028,150.876129,3,3,3,Townhouse,Townhouse,False,0,m2,False
2017491972,listing,/8-margaret-street-balgownie-nsw-2519-2017491972,1215000,is-sold,Sold by private treaty 14 Dec 2021,20211214,8 Margaret Street,BALGOWNIE,NSW,2519,-34.3842659,150.879089,4,4,4,House,House,False,0,m2,False
2017497742,listing,/48-tucker-avenue-balgownie-nsw-2519-2017497742,1070000,is-sold,Sold by private treaty 01 Feb 2022,20220201,48 Tucker Avenue,BALGOWNIE,NSW,2519,-34.3812027,150.874268,3,3,3,House,House,False,575,m2,False
2017534833,listing,/1-highcrest-avenue-balgownie-nsw-2519-2017534833,1310000,is-sold,Sold by private treaty 27 Jan 2022,20220127,1 Highcrest Avenue,BALGOWNIE,NSW,2519,-34.39235,150.872635,4,4,4,House,House,False,558,m2,False
2017538975,listing,/142-cabbage-tree-lane-fairy-meadow-nsw-2519-2017538975,982200,is-sold,Sold by private treaty 27 Jan 2022,20220127,142 Cabbage Tree Lane,FAIRY MEADOW,NSW,2519,-34.39555,150.877731,3,3,3,House,House,False,556,m2,False
2017154087,listing,/12c-napier-street-balgownie-nsw-2519-2017154087,1060000,is-sold,Sold by private treaty 19 Nov 2021,20211119,12C Napier Street,BALGOWNIE,NSW,2519,-34.3872566,150.878677,3,3,3,House,House,False,0,m2,False
2017268442,listing,/26-frost-parade-balgownie-nsw-2519-2017268442,1100000,is-sold,Sold by private treaty 24 Nov 2021,20211124,26 Frost Parade,BALGOWNIE,NSW,2519,-34.3818626,150.873322,3,3,3,House,House,False,556,m2,False
2017277176,listing,/13-mcgrath-street-fairy-meadow-nsw-2519-2017277176,1050000,is-sold,Sold by private treaty 09 Dec 2021,20211209,13 McGrath Street,FAIRY MEADOW,NSW,2519,-34.40058,150.889679,3,3,3,House,House,False,588,m2,False
2017347496,listing,/5-5a-mt-ousley-road-fairy-meadow-nsw-2519-2017347496,720000,is-sold,Sold by private treaty 22 Nov 2021,20211122,5/5a Mt Ousley Road,FAIRY MEADOW,NSW,2519,-34.403183,150.890015,2,2,2,Villa,Villa,False,0,m2,False
2017354228,listing,/23-25-carters-lane-fairy-meadow-nsw-2519-2017354228,820000,is-sold,Sold at auction 18 Nov 2021,20211118,23/25 Carters Lane,FAIRY MEADOW,NSW,2519,-34.38815,150.903656,3,3,3,ApartmentUnitFlat,Apartment / Unit / Flat,False,0,m2,False
2017367276,listing,/25-51-59-princes-highway-fairy-meadow-nsw-2519-2017367276,600000,is-sold,Sold by private treaty 18 Nov 2021,20211118,25/51-59 Princes Highway,FAIRY MEADOW,NSW,2519,-34.39437,150.892471,2,2,2,ApartmentUnitFlat,Apartment / Unit / Flat,False,0,m2,False
2017374993,listing,/40-sherwood-drive-balgownie-nsw-2519-2017374993,1975000,is-sold,Sold prior to auction 18 Nov 2021,20211118,40 Sherwood Drive,BALGOWNIE,NSW,2519,-34.38754,150.868317,4,4,4,House,House,False,0,m2,False
2017376888,listing,/a103-5-grand-court-fairy-meadow-nsw-2519-2017376888,1500000,is-sold,Sold by private treaty 22 Nov 2021,20211122,A103/5 Grand Court,FAIRY MEADOW,NSW,2519,-34.3898125,150.9042,3,3,3,ApartmentUnitFlat,Apartment / Unit / Flat,False,0,m2,False
2017379438,listing,/6-4-lahiff-place-balgownie-nsw-2519-2017379438,710000,is-sold,Sold by private treaty 25 Nov 2021,20211125,6/4 Lahiff Place,BALGOWNIE,NSW,2519,-34.38313,150.881027,3,3,3,Villa,Villa,False,0,m2,False
2017381613,listing,/10-ellengowan-crescent-fairy-meadow-nsw-2519-2017381613,1150000,is-sold,Sold at auction 26 Nov 2021,20211126,10 Ellengowan Crescent,FAIRY MEADOW,NSW,2519,-34.39,150.886032,3,3,3,House,House,False,557,m2,False
2017389342,listing,/16-helen-brae-avenue-fairy-meadow-nsw-2519-2017389342,1150000,is-sold,Sold by private treaty 09 Dec 2021,20211209,16 Helen Brae Avenue,FAIRY MEADOW,NSW,2519,-34.3950462,150.886612,4,4,4,House,House,False,556,m2,False
2017390336,listing,/60-hopewood-crescent-fairy-meadow-nsw-2519-2017390336,1500100,is-sold,Sold prior to auction 26 Nov 2021,20211126,60 Hopewood Crescent,FAIRY MEADOW,NSW,2519,-34.3942871,150.883774,4,4,4,House,House,False,594,m2,False
2017396419,listing,/10-foothills-road-mount-ousley-nsw-2519-2017396419,1172000,is-sold,Sold at auction 30 Nov 2021,20211130,10 Foothills Road,MOUNT OUSLEY,NSW,2519,-34.3971519,150.880127,4,4,4,House,House,False,607,m2,False
2017397590,listing,/26-balfour-street-fairy-meadow-nsw-2519-2017397590,1390000,is-sold,Sold at auction 30 Nov 2021,20211130,26 Balfour Street,FAIRY MEADOW,NSW,2519,-34.3863564,150.887451,3,3,3,House,House,False,600,m2,False
2017403375,listing,/6-gowan-brae-avenue-mount-ousley-nsw-2519-2017403375,990000,is-sold,Sold by private treaty 29 Nov 2021,20211129,6 Gowan Brae Avenue,MOUNT OUSLEY,NSW,2519,-34.4031258,150.885269,3,3,3,House,House,False,613,m2,False
2017416153,listing,/14-norman-street-fairy-meadow-nsw-2519-2017416153,1210000,is-sold,Sold by private treaty 19 Nov 2021,20211119,14 Norman Street,FAIRY MEADOW,NSW,2519,-34.3912163,150.896088,3,3,3,House,House,False,645,m2,False
2017417583,listing,/19-brennan-crescent-balgownie-nsw-2519-2017417583,1440000,is-sold,Sold prior to auction 26 Nov 2021,20211126,19 Brennan Crescent,BALGOWNIE,NSW,2519,-34.3819466,150.879242,4,4,4,House,House,False,591,m2,False
2017425438,listing,/173-brokers-road-mount-pleasant-nsw-2519-2017425438,1055000,is-sold,Sold at auction 11 Dec 2021,20211211,173 Brokers Road,MOUNT PLEASANT,NSW,2519,-34.3951759,150.870224,2,2,2,House,House,False,714,m2,False
2017479782,listing,/14-hill-grove-balgownie-nsw-2519-2017479782,1060000,is-sold,Sold prior to auction 09 Dec 2021,20211209,14 Hill Grove,BALGOWNIE,NSW,2519,-34.38444,150.874,5,5,5,House,House,False,556,m2,False
2017479917,listing,/4-20-russell-street-balgownie-nsw-2519-2017479917,1200000,is-sold,Sold by private treaty 10 Dec 2021,20211210,4/20 Russell Street,BALGOWNIE,NSW,2519,-34.3917274,150.881088,3,3,3,Townhouse,Townhouse,False,0,m2,False
2017187945,listing,/24-norman-street-fairy-meadow-nsw-2519-2017187945,1310000,is-sold,Sold by private treaty 17 Nov 2021,20211117,24 Norman Street,FAIRY MEADOW,NSW,2519,-34.39098,150.895172,4,4,4,House,House,False,650,m2,False
2017249578,listing,/36-mcgrath-street-fairy-meadow-nsw-2519-2017249578,1100000,is-sold,Sold by private treaty 10 Nov 2021,20211110,36 McGrath Street,FAIRY MEADOW,NSW,2519,-34.3989639,150.889862,3,3,3,House,House,False,563,m2,False
2017259633,listing,/144-brokers-road-balgownie-nsw-2519-2017259633,1275000,is-sold,Sold by private treaty 26 Oct 2021,20211026,144 Brokers Road,BALGOWNIE,NSW,2519,-34.3916664,150.870316,4,4,4,House,House,False,1107,m2,False
2017305649,listing,/20-grand-court-fairy-meadow-nsw-2519-2017305649,1525000,is-sold,Sold prior to auction 25 Oct 2021,20211025,20 Grand Court,FAIRY MEADOW,NSW,2519,-34.3889427,150.903259,3,3,3,House,House,False,284,m2,False
2017314289,listing,/44-ellengowan-crescent-fairy-meadow-nsw-2519-2017314289,1375000,is-sold,Sold at auction 27 Oct 2021,20211027,44 Ellengowan Crescent,FAIRY MEADOW,NSW,2519,-34.3912773,150.888214,4,4,4,House,House,False,556,m2,False
2017314524,listing,/7-60-elliotts-road-fairy-meadow-nsw-2519-2017314524,540000,is-sold,Sold by private treaty 29 Oct 2021,20211029,7/60 Elliotts Road,FAIRY MEADOW,NSW,2519,-34.394104,150.894669,2,2,2,ApartmentUnitFlat,Apartment / Unit / Flat,False,0,m2,False
2017318135,listing,/7-bertone-close-fairy-meadow-nsw-2519-2017318135,1375000,is-sold,Sold by private treaty 04 Nov 2021,20211104,7 Bertone Close,FAIRY MEADOW,NSW,2519,-34.3897629,150.903046,3,3,3,SemiDetached,Semi-Detached,False,226,m2,False
2017319079,listing,/28-douglas-road-fernhill-nsw-2519-2017319079,2050000,is-sold,Sold by private treaty 24 Oct 2021,20211024,28 Douglas Road,FERNHILL,NSW,2519,-34.3838959,150.890488,5,5,5,House,House,False,765,m2,False
2017319524,listing,/128-carters-lane-fairy-meadow-nsw-2519-2017319524,1365000,is-sold,Sold at auction 29 Oct 2021,20211029,128 Carters Lane,FAIRY MEADOW,NSW,2519,-34.3948059,150.9009,3,3,3,House,House,False,569,m2,False
2017341188,listing,/282-201-pioneer-road-fairy-meadow-nsw-2519-2017341188,,is-sold,Sold by private treaty 10 Nov 2021,20211110,282/201 Pioneer Road,FAIRY MEADOW,NSW,2519,-34.3904953,150.905914,1,1,1,Villa,Villa,False,0,m2,False
2017342229,listing,/152-meadow-street-fairy-meadow-nsw-2519-2017342229,,is-sold,Sold by private treaty 30 Oct 2021,20211030,152 Meadow Street,FAIRY MEADOW,NSW,2519,-34.3868523,150.884735,3,3,3,House,House,False,0,m2,False
2017347225,listing,/7-sansey-avenue-mount-ousley-nsw-2519-2017347225,1327500,is-sold,Sold prior to auction 28 Oct 2021,20211028,7 Sansey Avenue,MOUNT OUSLEY,NSW,2519,-34.40065,150.884583,5,5,5,House,House,False,556,m2,False
2017348321,listing,/82-ramah-avenue-mount-pleasant-nsw-2519-2017348321,1710000,is-sold,Sold prior to auction 15 Nov 2021,20211115,82 Ramah Avenue,MOUNT PLEASANT,NSW,2519,-34.3973541,150.8699,4,4,4,House,House,False,797,m2,False
2017358203,listing,/40-bruce-road-fernhill-nsw-2519-2017358203,865000,is-sold,Sold by private treaty 10 Nov 2021,20211110,40 Bruce Road,FERNHILL,NSW,2519,-34.3847427,150.888718,3,3,3,House,House,False,0,m2,False
2017374030,listing,/6-138-carters-lane-fairy-meadow-nsw-2519-2017374030,565000,is-sold,Sold prior to auction 10 Nov 2021,20211110,6/138 Carters Lane,FAIRY MEADOW,NSW,2519,-34.39549,150.90062,2,2,2,ApartmentUnitFlat,Apartment / Unit / Flat,False,0,m2,False
2017374619,listing,/4-174-176-balgownie-road-balgownie-nsw-2519-2017374619,737000,is-sold,Sold by private treaty 16 Nov 2021,20211116,4/174-176 Balgownie Road,BALGOWNIE,NSW,2519,-34.38821,150.876953,2,2,2,Townhouse,Townhouse,False,0,m2,False
2017384784,listing,/7-12-william-street-balgownie-nsw-2519-2017384784,,is-sold,Sold by private treaty 04 Nov 2021,20211104,7/12 William Street,BALGOWNIE,NSW,2519,-34.3878,150.874039,3,3,3,Townhouse,Townhouse,False,0,m2,False
2017396784,listing,/81-hopewood-crescent-fairy-meadow-nsw-2519-2017396784,1088000,is-sold,Sold prior to auction 16 Nov 2021,20211116,81 Hopewood Crescent,FAIRY MEADOW,NSW,2519,-34.39338,150.887909,3,3,3,House,House,False,569,m2,False
2017397652,listing,/502-3-grand-court-fairy-meadow-nsw-2519-2017397652,1100000,is-sold,Sold by private treaty 17 Nov 2021,20211117,502/3 Grand Court,FAIRY MEADOW,NSW,2519,-34.3903275,150.903351,2,2,2,ApartmentUnitFlat,Apartment / Unit / Flat,False,0,m2,False
2017433369,listing,/2-25-farrell-street-balgownie-nsw-2519-2017433369,855000,is-sold,Sold by private treaty 12 Nov 2021,20211112,2/25 Farrell Street,BALGOWNIE,NSW,2519,-34.3881378,150.879715,3,3,3,Townhouse,Townhouse,False,0,m2,False
2016996197,listing,/9-grand-court-fairy-meadow-nsw-2519-2016996197,1340000,is-sold,Sold by private treaty 11 Oct 2021,20211011,9 Grand Court,FAIRY MEADOW,NSW,2519,-34.38963,150.903763,4,4,4,House,House,False,391,m2,False
2017241693,listing,/130-hopewood-crescent-fairy-meadow-nsw-2519-2017241693,975000,is-sold,Sold by private treaty 18 Oct 2021,20211018,130 Hopewood Crescent,FAIRY MEADOW,NSW,2519,-34.39516,150.888809,4,4,4,House,House,False,594,m2,False
2017260711,listing,/31-balgownie-road-fairy-meadow-nsw-2519-2017260711,1035000,is-sold,Sold by private treaty 16 Oct 2021,20211016,31 Balgownie Road,FAIRY MEADOW,NSW,2519,-34.3885956,150.88736,3,3,3,House,House,False,0,m2,False
2017277059,listing,/18-73-balgownie-road-balgownie-nsw-2519-2017277059,767000,is-sold,Sold by private treaty 15 Oct 2021,20211015,18/73 Balgownie Road,BALGOWNIE,NSW,2519,-34.3889351,150.88356,2,2,2,Villa,Villa,False,0,m2,False
2017279858,listing,/35-bootie-street-balgownie-nsw-2519-2017279858,2125000,is-sold,Sold at auction 21 Oct 2021,20211021,35 Bootie Street,BALGOWNIE,NSW,2519,-34.3825035,150.868256,4,4,4,House,House,False,588,m2,False
2017281367,listing,/5-brian-street-fairy-meadow-nsw-2519-2017281367,1502000,is-sold,Sold at auction 21 Oct 2021,20211021,5 Brian Street,FAIRY MEADOW,NSW,2519,-34.3859634,150.886078,4,4,4,House,House,False,0,m2,False
2017281916,listing,/3-devenish-street-fernhill-nsw-2519-2017281916,916000,is-sold,Sold at auction 23 Oct 2021,20211023,3 Devenish Street,FERNHILL,NSW,2519,-34.3824768,150.884979,2,2,2,House,House,False,0,m2,False
2017293724,listing,/68-ellengowan-crescent-fairy-meadow-nsw-2519-2017293724,1200000,is-sold,Sold by private treaty 12 Oct 2021,20211012,68 Ellengowan Crescent,FAIRY MEADOW,NSW,2519,-34.3906555,150.889175,3,3,3,House,House,False,683,m2,False
2017301759,listing,/1-122d-meadow-street-fairy-meadow-nsw-2519-2017301759,1020000,is-sold,Sold by private treaty 18 Oct 2021,20211018,1/122D Meadow Street,FAIRY MEADOW,NSW,2519,-34.3842659,150.88533,3,3,3,Townhouse,Townhouse,False,286,m2,False
2017304365,listing,/2-56-foothills-road-balgownie-nsw-2519-2017304365,715000,is-sold,Sold by private treaty 22 Oct 2021,20211022,2/56 Foothills Road,BALGOWNIE,NSW,2519,-34.3859634,150.881042,2,2,2,Townhouse,Townhouse,False,0,m2,False
2017306015,listing,/27-rae-crescent-balgownie-nsw-2519-2017306015,1600000,is-sold,Sold prior to auction 19 Oct 2021,20211019,27 Rae Crescent,BALGOWNIE,NSW,2519,-34.3853226,150.877884,4,4,4,House,House,False,1132,m2,False
2017308183,listing,/8a-northwood-road-mount-ousley-nsw-2519-2017308183,800000,is-sold,Sold by private treaty 22 Oct 2021,20211022,8a Northwood Road,MOUNT OUSLEY,NSW,2519,-34.4011536,150.873245,2,2,2,Townhouse,Townhouse,False,0,m2,False
2017309982,listing,/2-stanbrook-avenue-mount-ousley-nsw-2519-2017309982,1305000,is-sold,Sold by private treaty 12 Oct 2021,20211012,2 Stanbrook Avenue,MOUNT OUSLEY,NSW,2519,-34.40007,150.883591,3,3,3,House,House,False,651,m2,False
2017311005,listing,/4-12-william-street-balgownie-nsw-2519-2017311005,,is-sold,Sold by private treaty 08 Oct 2021,20211008,4/12 William Street,BALGOWNIE,NSW,2519,-34.3878,150.874039,3,3,3,Townhouse,Townhouse,False,0,m2,False
2017315791,listing,/142a-meadow-street-fairy-meadow-nsw-2519-2017315791,1372000,is-sold,Sold by private treaty 16 Oct 2021,20211016,142A Meadow Street,FAIRY MEADOW,NSW,2519,-34.3861732,150.8849,4,4,4,House,House,False,0,m2,False
2017316372,listing,/154-214-princes-highway-fairy-meadow-nsw-2519-2017316372,425000,is-sold,Sold by private treaty 22 Oct 2021,20211022,154/214 Princes Highway,FAIRY MEADOW,NSW,2519,-34.402607,150.892471,1,1,1,ApartmentUnitFlat,Apartment / Unit / Flat,False,0,m2,False
2017319182,listing,/6-12-william-street-balgownie-nsw-2519-2017319182,,is-sold,Sold by private treaty 13 Oct 2021,20211013,6/12 William Street,BALGOWNIE,NSW,2519,-34.3878,150.874039,3,3,3,Townhouse,Townhouse,False,0,m2,False
2017321392,listing,/14-hudson-avenue-balgownie-nsw-2519-2017321392,1275000,is-sold,Sold prior to auction 22 Oct 2021,20211022,14 Hudson Avenue,BALGOWNIE,NSW,2519,-34.3903923,150.871811,3,3,3,House,House,False,670,m2,False
2017327002,listing,/2-47-russell-street-balgownie-nsw-2519-2017327002,1000000,is-sold,Sold by private treaty 21 Oct 2021,20211021,2/47 Russell Street,BALGOWNIE,NSW,2519,-34.39275,150.881485,3,3,3,Townhouse,Townhouse,False,0,m2,False
2017327596,listing,/15-gaynor-avenue-mount-ousley-nsw-2519-2017327596,1020000,is-sold,Sold by private treaty 07 Oct 2021,20211007,15 Gaynor Avenue,MOUNT OUSLEY,NSW,2519,-34.40394,150.886719,3,3,3,House,House,False,594,m2,False
2017045630,listing,/5-hamilton-street-fairy-meadow-nsw-2519-2017045630,1155000,is-sold,Sold at auction 15 Sep 2021,20210915,5 Hamilton Street,FAIRY MEADOW,NSW,2519,-34.40004,150.888428,3,3,3,House,House,False,672,m2,False
2017105026,listing,/c202-5-grand-court-fairy-meadow-nsw-2519-2017105026,840000,is-sold,Sold by private treaty 13 Sep 2021,20210913,C202/5 Grand Court,FAIRY MEADOW,NSW,2519,-34.3898125,150.9042,2,2,2,ApartmentUnitFlat,Apartment / Unit / Flat,False,0,m2,False
2017195222,listing,/172-brokers-road-mount-pleasant-nsw-2519-2017195222,2500000,is-sold,Sold prior to auction 10 Sep 2021,20210910,172 Brokers Road,MOUNT PLEASANT,NSW,2519,-34.39399,150.869843,4,4,4,House,House,False,1840,m2,False
2017221040,listing,/4-jardine-street-fairy-meadow-nsw-2519-2017221040,880000,is-sold,Sold prior to auction 28 Sep 2021,20210928,4 Jardine Street,FAIRY MEADOW,NSW,2519,-34.38813,150.898453,3,3,3,House,House,False,575,m2,False
2017223015,listing,/1-20c-hunter-street-balgownie-nsw-2519-2017223015,887000,is-sold,Sold by private treaty 21 Sep 2021,20210921,1/20c Hunter Street,BALGOWNIE,NSW,2519,-34.3874245,150.876755,2,2,2,Townhouse,Townhouse,False,0,m2,False
2017228268,listing,/188-brokers-road-mount-pleasant-nsw-2519-2017228268,1515000,is-sold,Sold prior to auction 01 Oct 2021,20211001,188 Brokers Road,MOUNT PLEASANT,NSW,2519,-34.3953934,150.869614,5,5,5,House,House,False,816,m2,False
2017240373,listing,/64-hamilton-street-fairy-meadow-nsw-2519-2017240373,1320000,is-sold,Sold by private treaty 04 Oct 2021,20211004,64 Hamilton Street,FAIRY MEADOW,NSW,2519,-34.3984222,150.881363,4,4,4,House,House,False,664,m2,False
2017243990,listing,/14-balgownie-road-fairy-meadow-nsw-2519-2017243990,1177250,is-sold,Sold prior to auction 24 Sep 2021,20210924,14 Balgownie Road,FAIRY MEADOW,NSW,2519,-34.3894157,150.891586,3,3,3,House,House,False,626,m2,False
2017246172,listing,/35-balfour-street-fairy-meadow-nsw-2519-2017246172,1260000,is-sold,Sold at auction 28 Sep 2021,20210928,35 Balfour Street,FAIRY MEADOW,NSW,2519,-34.38657,150.886581,3,3,3,House,House,False,638,m2,False
2017259371,listing,/33-cambridge-avenue-fairy-meadow-nsw-2519-2017259371,1200000,is-sold,Sold prior to auction 30 Sep 2021,20210930,33 Cambridge Avenue,FAIRY MEADOW,NSW,2519,-34.3944168,150.8919,2,2,2,House,House,False,0,m2,False
2017269051,listing,/1-19-elliotts-road-fairy-meadow-nsw-2519-2017269051,1045000,is-sold,Sold by private treaty 27 Sep 2021,20210927,1/19 Elliotts Road,FAIRY MEADOW,NSW,2519,-34.3961258,150.899323,3,3,3,Townhouse,Townhouse,False,0,m2,False
2017271166,listing,/4-10-ruger-drive-balgownie-nsw-2519-2017271166,840000,is-sold,Sold prior to auction 01 Oct 2021,20211001,4/10 Ruger Drive,BALGOWNIE,NSW,2519,-34.3856239,150.87056,3,3,3,Townhouse,Townhouse,False,0,m2,False
2017276981,listing,/3-17-buckland-street-balgownie-nsw-2519-2017276981,990000,is-sold,Sold by private treaty 29 Sep 2021,20210929,3/17 Buckland Street,BALGOWNIE,NSW,2519,-34.38394,150.883,3,3,3,Townhouse,Townhouse,False,0,m2,False
2017278439,listing,/6-20-russell-street-balgownie-nsw-2519-2017278439,1160000,is-sold,Sold by private treaty 10 Sep 2021,20210910,6/20 Russell Street,BALGOWNIE,NSW,2519,-34.3917274,150.881088,3,3,3,Townhouse,Townhouse,False,0,m2,False
2017281375,listing,/3-20-russell-street-balgownie-nsw-2519-2017281375,1150000,is-sold,Sold by private treaty 13 Sep 2021,20210913,3/20 Russell Street,BALGOWNIE,NSW,2519,-34.3917274,150.881088,3,3,3,Townhouse,Townhouse,False,0,m2,False
2017294867,listing,/1-20-russell-street-balgownie-nsw-2519-2017294867,1160000,is-sold,Sold by private treaty 17 Sep 2021,20210917,1/20 Russell Street,BALGOWNIE,NSW,2519,-34.3917274,150.881088,3,3,3,Townhouse,Townhouse,False,0,m2,False
2017295024,listing,/10-20-russell-street-balgownie-nsw-2519-2017295024,1140000,is-sold,Sold by private treaty 17 Sep 2021,20210917,10/20 Russell Street,BALGOWNIE,NSW,2519,-34.3917274,150.881088,3,3,3,Townhouse,Townhouse,False,0,m2,False
2017304650,listing,/3-12-william-street-balgownie-nsw-2519-2017304650,,is-sold,Sold by private treaty 06 Oct 2021,20211006,3/12 William Street,BALGOWNIE,NSW,2519,-34.3878,150.874039,3,3,3,Townhouse,Townhouse,False,0,m2,False
2017307814,listing,/1-24-cowper-street-fairy-meadow-nsw-2519-2017307814,701500,is-sold,Sold by private treaty 21 Sep 2021,20210921,1/24 Cowper Street,FAIRY MEADOW,NSW,2519,-34.3977,150.897537,2,2,2,Townhouse,Townhouse,False,0,m2,False
2017311140,listing,/2-20-russell-street-balgownie-nsw-2519-2017311140,1130000,is-sold,Sold by private treaty 23 Sep 2021,20210923,2/20 Russell Street,BALGOWNIE,NSW,2519,-34.3917274,150.881088,3,3,3,Townhouse,Townhouse,False,0,m2,False
2016873653,listing,/206b-brokers-road-mount-pleasant-nsw-2519-2016873653,1035000,is-sold,Sold by private treaty 10 Sep 2021,20210910,206B Brokers Road,MOUNT PLEASANT,NSW,2519,-34.3967,150.869415,3,3,3,Townhouse,Townhouse,False,0,m2,False
2017133920,listing,/5-ellengowan-crescent-fairy-meadow-nsw-2519-2017133920,1340000,is-sold,Sold by private treaty 07 Sep 2021,20210907,5 Ellengowan Crescent,FAIRY MEADOW,NSW,2519,-34.3898,150.88649,4,4,4,House,House,False,658,m2,False
2017142917,listing,/5-17-ryan-street-balgownie-nsw-2519-2017142917,950000,is-sold,Sold by private treaty 07 Sep 2021,20210907,5/17 Ryan Street,BALGOWNIE,NSW,2519,-34.3917923,150.8795,3,3,3,Townhouse,Townhouse,False,0,m2,False
2017153440,listing,/10-buckland-street-fernhill-nsw-2519-2017153440,1100000,is-sold,Sold at auction 21 Aug 2021,20210821,10 Buckland Street,FERNHILL,NSW,2519,-34.3822861,150.882767,2,2,2,House,House,False,0,m2,False
2017159369,listing,/5-bushland-avenue-mount-pleasant-nsw-2519-2017159369,1050000,is-sold,Sold prior to auction 16 Aug 2021,20210816,5 Bushland Avenue,MOUNT PLEASANT,NSW,2519,-34.3971519,150.863251,4,4,4,House,House,False,1523,m2,False
2017165952,listing,/22-parrish-avenue-mount-pleasant-nsw-2519-2017165952,1600000,is-sold,Sold prior to auction 13 Aug 2021,20210813,22 Parrish Avenue,MOUNT PLEASANT,NSW,2519,-34.3975868,150.862869,5,5,5,House,House,False,1353,m2,False
2017167781,listing,/10-chalmers-street-balgownie-nsw-2519-2017167781,1070000,is-sold,Sold by private treaty 13 Aug 2021,20210813,10 Chalmers Street,BALGOWNIE,NSW,2519,-34.38375,150.873322,3,3,3,House,House,False,563,m2,False
2017178135,listing,/130-cabbage-tree-lane-fairy-meadow-nsw-2519-2017178135,1450000,is-sold,Sold prior to auction 08 Sep 2021,20210908,130 Cabbage Tree Lane,FAIRY MEADOW,NSW,2519,-34.3956833,150.8789,4,4,4,House,House,False,720,m2,False
2017185281,listing,/19-duncan-street-balgownie-nsw-2519-2017185281,1191000,is-sold,Sold at auction 24 Aug 2021,20210824,19 Duncan Street,BALGOWNIE,NSW,2519,-34.3836555,150.8779,4,4,4,House,House,False,559,m2,False
2017186178,listing,/558-201-pioneer-road-fairy-meadow-nsw-2519-2017186178,795000,is-sold,Sold by private treaty 09 Sep 2021,20210909,558/201 Pioneer Road,FAIRY MEADOW,NSW,2519,-34.3904152,150.905975,3,3,3,House,House,False,0,m2,False
2017192265,listing,/7-10-montague-street-fairy-meadow-nsw-2519-2017192265,475000,is-sold,Sold by private treaty 24 Aug 2021,20210824,7/10 Montague Street,FAIRY MEADOW,NSW,2519,-34.3960266,150.896576,2,2,2,ApartmentUnitFlat,Apartment / Unit / Flat,False,0,m2,False
2017192536,listing,/2-17-balmoral-street-balgownie-nsw-2519-2017192536,1165000,is-sold,Sold by private treaty 12 Aug 2021,20210812,2/17 Balmoral Street,BALGOWNIE,NSW,2519,-34.39024,150.879944,4,4,4,Townhouse,Townhouse,False,0,m2,False
2017195154,listing,/68-new-mount-pleasant-road-mount-pleasant-nsw-2519-2017195154,1725000,is-sold,Sold prior to auction 10 Sep 2021,20210910,68 New Mount Pleasant Road,MOUNT PLEASANT,NSW,2519,-34.3935051,150.87204,5,5,5,House,House,False,721,m2,False
2017198610,listing,/41-chalmers-street-balgownie-nsw-2519-2017198610,1152000,is-sold,Sold by private treaty 09 Sep 2021,20210909,41 Chalmers Street,BALGOWNIE,NSW,2519,-34.3872643,150.87291,3,3,3,House,House,False,1006,m2,False
2017209345,listing,/1-8-hunter-street-balgownie-nsw-2519-2017209345,950000,is-sold,Sold by private treaty 02 Sep 2021,20210902,1/8 Hunter Street,BALGOWNIE,NSW,2519,-34.38742,150.878082,3,3,3,Townhouse,Townhouse,False,0,m2,False
2017209592,listing,/11-greenslopes-avenue-mount-ousley-nsw-2519-2017209592,1311111,is-sold,Sold by private treaty 02 Sep 2021,20210902,11 Greenslopes Avenue,MOUNT OUSLEY,NSW,2519,-34.39845,150.8784,3,3,3,House,House,False,556,m2,False
2017211045,listing,/49-cabbage-tree-lane-fairy-meadow-nsw-2519-2017211045,910000,is-sold,Sold prior to auction 08 Sep 2021,20210908,49 Cabbage Tree Lane,FAIRY MEADOW,NSW,2519,-34.3969879,150.885315,4,4,4,House,House,False,594,m2,False
2017214208,listing,/14-john-street-balgownie-nsw-2519-2017214208,1865000,is-sold,Sold by private treaty 23 Aug 2021,20210823,14 John Street,BALGOWNIE,NSW,2519,-34.3864861,150.879608,,,,House,House,False,0,m2,False
2017251254,listing,/4-15-daisy-street-fairy-meadow-nsw-2519-2017251254,780000,is-sold,Sold by private treaty 06 Sep 2021,20210906,4/15 Daisy Street,FAIRY MEADOW,NSW,2519,-34.3919,150.894974,3,3,3,Townhouse,Townhouse,False,0,m2,False
2017266704,listing,/44-rae-crescent-balgownie-nsw-2519-2017266704,1100000,is-sold,Sold by private treaty 09 Sep 2021,20210909,44 Rae Crescent,BALGOWNIE,NSW,2519,-34.3847542,150.876938,3,3,3,House,House,False,588,m2,False
2017005925,listing,/2a-dobinson-street-mount-pleasant-nsw-2519-2017005925,1187500,is-sold,Sold by private treaty 06 Aug 2021,20210806,2a Dobinson Street,MOUNT PLEASANT,NSW,2519,-34.3966,150.869125,3,3,3,House,House,False,0,m2,False
2017044682,listing,/37-greenslopes-ave-mount-pleasant-nsw-2519-2017044682,975000,is-sold,Sold by private treaty 09 Jul 2021,20210709,37 Greenslopes Ave,MOUNT PLEASANT,NSW,2519,-34.3983841,150.875412,3,3,3,House,House,False,721,m2,False
2017067511,listing,/8-helen-brae-avenue-fairy-meadow-nsw-2519-2017067511,910000,is-sold,Sold by private treaty 30 Jul 2021,20210730,8 Helen Brae Avenue,FAIRY MEADOW,NSW,2519,-34.3950272,150.887222,4,4,4,House,House,False,556,m2,False
2017071808,listing,/83-214-220-princes-highway-fairy-meadow-nsw-2519-2017071808,490000,is-sold,Sold by private treaty 23 Jul 2021,20210723,83/214-220 Princes Highway,FAIRY MEADOW,NSW,2519,-34.402607,150.892471,2,2,2,ApartmentUnitFlat,Apartment / Unit / Flat,False,0,m2,False
2017083945,listing,/10-hutchinson-drive-balgownie-nsw-2519-2017083945,1440000,is-sold,Sold by private treaty 27 Jul 2021,20210727,10 Hutchinson Drive,BALGOWNIE,NSW,2519,-34.38244,150.880447,5,5,5,House,House,False,630,m2,False
2017085078,listing,/17-ellengowan-crescent-fairy-meadow-nsw-2519-2017085078,1080600,is-sold,Sold prior to auction 29 Jul 2021,20210729,17 Ellengowan Crescent,FAIRY MEADOW,NSW,2519,-34.3903923,150.887146,3,3,3,House,House,False,556,m2,False
2017087963,listing,/4-124-princes-highway-fairy-meadow-nsw-2519-2017087963,910000,is-sold,Sold by private treaty 10 Aug 2021,20210810,4/124 Princes Highway,FAIRY MEADOW,NSW,2519,-34.3942757,150.893021,3,3,3,ApartmentUnitFlat,Apartment / Unit / Flat,False,0,m2,False
2017088121,listing,/6-camden-street-balgownie-nsw-2519-2017088121,1120000,is-sold,Sold prior to auction 16 Jul 2021,20210716,6 Camden Street,BALGOWNIE,NSW,2519,-34.3915,150.8779,3,3,3,House,House,False,0,m2,False
2017089264,listing,/9-balgownie-road-fairy-meadow-nsw-2519-2017089264,958000,is-sold,Sold at auction 24 Jul 2021,20210724,9 Balgownie Road,FAIRY MEADOW,NSW,2519,-34.38884,150.889221,3,3,3,House,House,False,582,m2,False
2017092704,listing,/121-brokers-road-balgownie-nsw-2519-2017092704,2295000,is-sold,Sold at auction 20 Jul 2021,20210720,121 Brokers Road,BALGOWNIE,NSW,2519,-34.3896637,150.871353,5,5,5,House,House,False,790,m2,False
2017093241,listing,/23-51-59-princes-highway-fairy-meadow-nsw-2519-2017093241,549000,is-sold,Sold by private treaty 14 Jul 2021,20210714,23/51-59 Princes Highway,FAIRY MEADOW,NSW,2519,-34.39437,150.892471,2,2,2,ApartmentUnitFlat,Apartment / Unit / Flat,False,0,m2,False
2017094856,listing,/12-2a-jobson-avenue-mount-ousley-nsw-2519-2017094856,692000,is-sold,Sold by private treaty 13 Jul 2021,20210713,12/2A Jobson Avenue,MOUNT OUSLEY,NSW,2519,-34.4037781,150.889465,3,3,3,Villa,Villa,False,0,m2,False
2017102825,listing,/1-1-william-street-balgownie-nsw-2519-2017102825,900000,is-sold,Sold by private treaty 16 Jul 2021,20210716,1/1 William Street,BALGOWNIE,NSW,2519,-34.3869171,150.875092,3,3,3,Villa,Villa,False,0,m2,False
2017110648,listing,/21-ian-bruce-crescent-balgownie-nsw-2519-2017110648,1382000,is-sold,Sold by private treaty 05 Aug 2021,20210805,21 Ian Bruce Crescent,BALGOWNIE,NSW,2519,-34.3896141,150.872955,4,4,4,House,House,False,550,m2,False
2017117261,listing,/3-118-hopewood-crescent-fairy-meadow-nsw-2519-2017117261,625000,is-sold,Sold by private treaty 26 Jul 2021,20210726,3/118 Hopewood Crescent,FAIRY MEADOW,NSW,2519,-34.3945045,150.887878,2,2,2,Townhouse,Townhouse,False,0,m2,False
2017137279,listing,/2-new-mount-pleasant-road-balgownie-nsw-2519-2017137279,1260000,is-sold,Sold prior to auction 23 Jul 2021,20210723,2 New Mount Pleasant Road,BALGOWNIE,NSW,2519,-34.3926964,150.8784,3,3,3,House,House,False,714,m2,False
2017159547,listing,/18-hutchinson-drive-balgownie-nsw-2519-2017159547,1450000,is-sold,Sold prior to auction 05 Aug 2021,20210805,18 Hutchinson Drive,BALGOWNIE,NSW,2519,-34.38264,150.879547,5,5,5,House,House,False,523,m2,False
2017162626,listing,/6-matthew-street-fairy-meadow-nsw-2519-2017162626,1102500,is-sold,Sold at auction 11 Aug 2021,20210811,6 Matthew Street,FAIRY MEADOW,NSW,2519,-34.3973656,150.885986,3,3,3,House,House,False,722,m2,False
2017172135,listing,/10-bootie-street-balgownie-nsw-2519-2017172135,1445000,is-sold,Sold by private treaty 09 Aug 2021,20210809,10 Bootie Street,BALGOWNIE,NSW,2519,-34.3823471,150.870773,5,5,5,House,House,False,976,m2,False
2017180512,listing,/4-121-balgownie-road-balgownie-nsw-2519-2017180512,758000,is-sold,Sold by private treaty 06 Aug 2021,20210806,4/121 Balgownie Road,BALGOWNIE,NSW,2519,-34.3889236,150.87854,3,3,3,Townhouse,Townhouse,False,0,m2,False
2016934928,listing,/336-201-pioneer-road-fairy-meadow-nsw-2519-2016934928,424500,is-sold,Sold by private treaty 02 Jul 2021,20210702,336/201 Pioneer Road,FAIRY MEADOW,NSW,2519,-34.3904152,150.905975,2,2,2,House,House,False,85,m2,False
2016947982,listing,/3-23a-ryan-street-balgownie-nsw-2519-2016947982,715000,is-sold,Sold by private treaty 24 Jun 2021,20210624,3/23a Ryan Street,BALGOWNIE,NSW,2519,-34.39245,150.879684,3,3,3,Villa,Villa,False,0,m2,False
2016948725,listing,/26-51-59-princes-highway-fairy-meadow-nsw-2519-2016948725,535000,is-sold,Sold by private treaty 30 Jun 2021,20210630,26/51-59 Princes Highway,FAIRY MEADOW,NSW,2519,-34.39437,150.892471,2,2,2,ApartmentUnitFlat,Apartment / Unit / Flat,False,0,m2,False
2016956429,listing,/54-cabbage-tree-lane-fairy-meadow-nsw-2519-2016956429,965000,is-sold,Sold by private treaty 02 Jul 2021,20210702,54 Cabbage Tree Lane,FAIRY MEADOW,NSW,2519,-34.3966255,150.88681,3,3,3,House,House,False,476,m2,False
2017001729,listing,/16-wellington-drive-balgownie-nsw-2519-2017001729,1525000,is-sold,Sold by private treaty 30 Jun 2021,20210630,16 Wellington Drive,BALGOWNIE,NSW,2519,-34.388855,150.868958,7,7,7,House,House,False,708,m2,False
2017012286,listing,/202-brokers-road-mount-pleasant-nsw-2519-2017012286,852900,is-sold,Sold by private treaty 26 Jun 2021,20210626,202 Brokers Road,MOUNT PLEASANT,NSW,2519,-34.3964,150.869522,1,1,1,House,House,False,854,m2,False
2017037302,listing,/4-28-balmoral-street-balgownie-nsw-2519-2017037302,715000,is-sold,Sold by private treaty 08 Jul 2021,20210708,4/28 Balmoral Street,BALGOWNIE,NSW,2519,-34.39001,150.8808,3,3,3,Townhouse,Townhouse,False,0,m2,False
2017045879,listing,/1-napier-street-balgownie-nsw-2519-2017045879,1400000,is-sold,Sold at auction 26 Jun 2021,20210626,1 Napier Street,BALGOWNIE,NSW,2519,-34.38727,150.878967,4,4,4,House,House,False,582,m2,False
2017055397,listing,/1-6-8-elliotts-road-fairy-meadow-nsw-2519-2017055397,500000,is-sold,Sold by private treaty 29 Jun 2021,20210629,1/6-8 Elliotts Road,FAIRY MEADOW,NSW,2519,-34.3956566,150.90033,2,2,2,ApartmentUnitFlat,Apartment / Unit / Flat,False,0,m2,False
2017056362,listing,/48-dumfries-avenue-mount-ousley-nsw-2519-2017056362,950000,is-sold,Sold at auction 03 Jul 2021,20210703,48 Dumfries Avenue,MOUNT OUSLEY,NSW,2519,-34.400425,150.881592,4,4,4,House,House,False,664,m2,False
2017056851,listing,/7-ellengowan-crescent-fairy-meadow-nsw-2519-2017056851,1310000,is-sold,Sold by private treaty 25 Jun 2021,20210625,7 Ellengowan Crescent,FAIRY MEADOW,NSW,2519,-34.38992,150.88649,4,4,4,House,House,False,582,m2,False
2017058390,listing,/2-214-princes-highway-fairy-meadow-nsw-2519-2017058390,465000,is-sold,Sold by private treaty 29 Jun 2021,20210629,2/214 Princes Highway,FAIRY MEADOW,NSW,2519,-34.402607,150.892471,2,2,2,ApartmentUnitFlat,Apartment / Unit / Flat,False,0,m2,False
2017059487,listing,/196-brokers-road-mount-pleasant-nsw-2519-2017059487,1200000,is-sold,Sold prior to auction 29 Jun 2021,20210629,196 Brokers Road,MOUNT PLEASANT,NSW,2519,-34.395916,150.869415,3,3,3,House,House,False,2044,m2,False
2017062696,listing,/36-hunter-street-balgownie-nsw-2519-2017062696,1376000,is-sold,Sold at auction 03 Jul 2021,20210703,36 Hunter Street,BALGOWNIE,NSW,2519,-34.3870964,150.87532,5,5,5,House,House,False,1031,m2,False
2017074121,listing,/57-foothills-road-balgownie-nsw-2519-2017074121,1300000,is-sold,Sold by private treaty 01 Jul 2021,20210701,57 Foothills Road,BALGOWNIE,NSW,2519,-34.386116,150.881638,4,4,4,House,House,False,765,m2,False
2017075807,listing,/39-mcmahon-street-mount-ousley-nsw-2519-2017075807,1100000,is-sold,Sold by private treaty 08 Jul 2021,20210708,39 McMahon Street,MOUNT OUSLEY,NSW,2519,-34.4013329,150.88385,5,5,5,House,House,False,645,m2,False
2017076347,listing,/21-192-198-princes-highway-fairy-meadow-nsw-2519-2017076347,450000,is-sold,Sold by private treaty 08 Jul 2021,20210708,21/192-198 Princes Highway,FAIRY MEADOW,NSW,2519,-34.4007,150.89209,2,2,2,ApartmentUnitFlat,Apartment / Unit / Flat,False,0,m2,False
2017092660,listing,/10-napier-street-balgownie-nsw-2519-2017092660,1260000,is-sold,Sold by private treaty 30 Jun 2021,20210630,10 Napier Street,BALGOWNIE,NSW,2519,-34.3871231,150.878632,3,3,3,House,House,False,589,m2,False
2017101241,listing,/2-35-russell-street-balgownie-nsw-2519-2017101241,785000,is-sold,Sold by private treaty 06 Jul 2021,20210706,2/35 Russell Street,BALGOWNIE,NSW,2519,-34.39223,150.8815,3,3,3,Townhouse,Townhouse,False,0,m2,False
2017101476,listing,/32-lombard-avenue-fairy-meadow-nsw-2519-2017101476,1050000,is-sold,Sold by private treaty 08 Jul 2021,20210708,32 Lombard Avenue,FAIRY MEADOW,NSW,2519,-34.3923531,150.885635,3,3,3,House,House,False,590,m2,False
2016904632,listing,/24-118-126-princes-highway-fairy-meadow-nsw-2519-2016904632,650000,is-sold,Sold by private treaty 27 May 2021,20210527,24/118-126 Princes Highway,FAIRY MEADOW,NSW,2519,-34.3943939,150.894,2,2,2,ApartmentUnitFlat,Apartment / Unit / Flat,False,0,m2,False
2016925221,listing,/78b-balgownie-road-fairy-meadow-nsw-2519-2016925221,755000,is-sold,Sold by private treaty 27 May 2021,20210527,78B Balgownie Road,FAIRY MEADOW,NSW,2519,-34.3879967,150.8856,3,3,3,Villa,Villa,False,0,m2,False
2016935839,listing,/4-3-ryan-street-balgownie-nsw-2519-2016935839,880000,is-sold,Sold by private treaty 22 Jun 2021,20210622,4/3 Ryan Street,BALGOWNIE,NSW,2519,-34.39065,150.87999,3,3,3,Villa,Villa,False,0,m2,False
2016991394,listing,/17-rose-parade-mount-pleasant-nsw-2519-2016991394,1150000,is-sold,Sold by private treaty 28 May 2021,20210528,17 Rose Parade,MOUNT PLEASANT,NSW,2519,-34.3923454,150.868958,5,5,5,House,House,False,942,m2,False
