id,listingType,url,price,tagClassName,tagText,date,street,suburb,state,postcode,lat,lng,beds,baths,parking,propertyType,propertyTypeFormatted,isRural,landSize,landUnit,isRetirement
2018210899,listing,/lot-535-yatama-street-nowra-nsw-2541-2018210899,525000,is-sold,Sold by private treaty 28 Feb 2023,20230228,Lot 535 Yatama Street,NOWRA,NSW,2541,-34.89719,150.615784,,,,VacantLand,Vacant land,False,914,m2,False
2018269567,listing,/103-moss-street-nowra-nsw-2541-2018269567,630000,is-sold,Sold by private treaty 28 Feb 2023,20230228,103 Moss Street,NOWRA,NSW,2541,-34.87035,150.610413,3,3,3,House,House,False,619,m2,False
2018286541,listing,/5-romar-close-bomaderry-nsw-2541-2018286541,,is-sold,Sold by private treaty 27 Feb 2023,20230227,5 Romar Close,BOMADERRY,NSW,2541,-34.8406944,150.602768,4,4,4,House,House,False,660,m2,False
2018271528,listing,/31-warrigal-street-nowra-nsw-2541-2018271528,800000,is-sold,Sold by private treaty 27 Feb 2023,20230227,31 Warrigal Street,NOWRA,NSW,2541,-34.8969231,150.620667,4,4,4,House,House,False,796,m2,False
2017897180,listing,/4-cavalier-parade-bomaderry-nsw-2541-2017897180,885000,is-sold,Sold by private treaty 28 Feb 2023,20230228,4 Cavalier Parade,BOMADERRY,NSW,2541,-34.83885,150.600342,4,4,4,House,House,False,912,m2,False
2018269637,listing,/33-st-anns-street-nowra-nsw-2541-2018269637,615000,is-sold,Sold by private treaty 28 Feb 2023,20230228,33 St Anns Street,NOWRA,NSW,2541,-34.88379,150.597519,3,3,3,House,House,False,904,m2,False
2018148176,listing,/26-bowerbird-street-south-nowra-nsw-2541-2018148176,735000,is-sold,Sold by private treaty 01 Mar 2023,20230301,26 Bowerbird Street,SOUTH NOWRA,NSW,2541,-34.9119873,150.612015,3,3,3,House,House,False,666,m2,False
2018303076,listing,/29-barwon-st-bomaderry-nsw-2541-2018303076,645000,is-sold,Sold by private treaty 02 Mar 2023,20230302,29 Barwon St,BOMADERRY,NSW,2541,-34.8472939,150.5972,3,3,3,House,House,False,651,m2,False
2018319836,listing,/635-illaroo-road-bangalee-nsw-2541-2018319836,,is-sold,Sold by private treaty 06 Mar 2023,20230306,635 Illaroo Road,BANGALEE,NSW,2541,-34.8354874,150.5471,4,2,11,House,House,False,3600,m2,False
2018349496,listing,/20-33-lynburn-avenue-bomaderry-nsw-2541-2018349496,550000,is-sold,Sold by private treaty 06 Mar 2023,20230306,20/33 Lynburn Avenue,BOMADERRY,NSW,2541,-34.8567047,150.597717,3,1,1,Villa,Villa,False,906,m2,False
2018309064,listing,/17-colyer-avenue-nowra-nsw-2541-2018309064,718000,is-sold,Sold by private treaty 07 Mar 2023,20230307,17 Colyer Avenue,NOWRA,NSW,2541,-34.86981,150.597412,3,1,2,House,House,False,837,m2,False
2018337942,listing,/110-shoalhaven-street-nowra-nsw-2541-2018337942,,is-sold,Sold by private treaty 07 Mar 2023,20230307,110 Shoalhaven Street,NOWRA,NSW,2541,-34.8791656,150.594971,2,1,2,House,House,False,658,m2,False
2017982685,listing,/3-silvereye-close-south-nowra-nsw-2541-2017982685,,is-sold,Sold 22 Feb 2023,20230222,3 SILVEREYE CLOSE,SOUTH NOWRA,NSW,2541,-34.9160423,150.614487,4,3,2,House,House,False,685,m2,False
2018174055,listing,/14-gardenia-cres-bomaderry-nsw-2541-2018174055,,is-sold,Sold by private treaty 22 Feb 2023,20230222,14 Gardenia Cres,BOMADERRY,NSW,2541,-34.83309,150.600616,4,2,2,House,House,False,675,m2,False
2018175560,listing,/4-elizabeth-avenue-nowra-nsw-2541-2018175560,570000,is-sold,Sold by private treaty 24 Feb 2023,20230224,4 Elizabeth Avenue,NOWRA,NSW,2541,-34.8841362,150.607666,3,1,3,House,House,False,620,m2,False
2018217147,listing,/67-moss-street-nowra-nsw-2541-2018217147,,is-sold,Sold by private treaty 24 Feb 2023,20230224,67 Moss Street,NOWRA,NSW,2541,-34.87179,150.6073,3,2,1,House,House,False,653,m2,False
2018235386,listing,/3-21-sutherland-drive-north-nowra-nsw-2541-2018235386,565000,is-sold,Sold by private treaty 21 Feb 2023,20230221,3/21 Sutherland Drive,NORTH NOWRA,NSW,2541,-34.854,150.588577,3,1,1,Villa,Villa,False,0,m2,False
2018265309,listing,/14-casa-circuit-south-nowra-nsw-2541-2018265309,428000,is-sold,Sold by private treaty 27 Feb 2023,20230227,14 Casa Circuit,SOUTH NOWRA,NSW,2541,-34.9087639,150.6028,,,,VacantLand,Vacant land,False,501,m2,False
2018273875,listing,/33-edwards-avenue-bomaderry-nsw-2541-2018273875,495000,is-sold,Sold by private treaty 24 Feb 2023,20230224,33 Edwards Avenue,BOMADERRY,NSW,2541,-34.8382721,150.613739,2,1,2,House,House,False,803,m2,False
2018290645,listing,/4-alata-crescent-south-nowra-nsw-2541-2018290645,950000,is-sold,Sold at auction 21 Feb 2023,20230221,4 Alata Crescent,SOUTH NOWRA,NSW,2541,-34.9081535,150.617783,4,2,2,House,House,False,667,m2,False
2017865461,listing,/22-tallimba-road-bangalee-nsw-2541-2017865461,,is-sold,Sold by private treaty 15 Feb 2023,20230215,22 Tallimba Road,BANGALEE,NSW,2541,-34.83687,150.54509,4,2,3,House,House,False,4070,m2,False
2018023474,listing,/27-terralla-grove-south-nowra-nsw-2541-2018023474,,is-sold,Sold by private treaty 03 Feb 2023,20230203,27 Terralla Grove,SOUTH NOWRA,NSW,2541,-34.90654,150.610474,4,2,2,House,House,False,509,m2,False
2018119665,listing,/9-tarawara-street-bomaderry-nsw-2541-2018119665,625000,is-sold,Sold by private treaty 10 Feb 2023,20230210,9 Tarawara Street,BOMADERRY,NSW,2541,-34.8545456,150.606964,3,2,2,House,House,False,809,m2,False
2018148286,listing,/9-denbigh-place-south-nowra-nsw-2541-2018148286,,is-sold,Sold by private treaty 13 Feb 2023,20230213,9 Denbigh Place,SOUTH NOWRA,NSW,2541,-34.90749,150.611771,4,2,2,House,House,False,632,m2,False
2018165929,listing,/33-tartarian-crescent-bomaderry-nsw-2541-2018165929,,is-sold,Sold by private treaty 16 Feb 2023,20230216,33 Tartarian Crescent,BOMADERRY,NSW,2541,-34.8346825,150.589645,4,3,7,House,House,False,0,m2,False
2018176965,listing,/70-browns-road-south-nowra-nsw-2541-2018176965,820000,is-sold,Sold by private treaty 10 Feb 2023,20230210,70 Browns Road,SOUTH NOWRA,NSW,2541,-34.906086,150.6113,4,2,1,House,House,False,640,m2,False
2018210886,listing,/19a-evergreen-place-south-nowra-nsw-2541-2018210886,620000,is-sold,Sold by private treaty 15 Feb 2023,20230215,19a Evergreen Place,SOUTH NOWRA,NSW,2541,-34.9080353,150.611511,3,2,1,House,House,False,0,m2,False
2018224908,listing,/20-oxford-street-south-nowra-nsw-2541-2018224908,,is-sold,Sold by private treaty 08 Feb 2023,20230208,20 Oxford Street,SOUTH NOWRA,NSW,2541,-34.9160652,150.595352,3,1,2,AcreageSemiRural,Acreage / Semi-Rural,True,4047,m2,False
2018229609,listing,/10-coconut-drive-north-nowra-nsw-2541-2018229609,,is-sold,Sold by private treaty 03 Feb 2023,20230203,10 Coconut Drive,NORTH NOWRA,NSW,2541,-34.84923,150.5756,4,1,3,House,House,False,886,m2,False
2018233853,listing,/14-70-hillcrest-avenue-south-nowra-nsw-2541-2018233853,,is-sold,Sold by private treaty 10 Feb 2023,20230210,"14, 70 Hillcrest Avenue",SOUTH NOWRA,NSW,2541,-34.9017258,150.611588,,,,VacantLand,Vacant land,False,534,m2,False
2018251335,listing,/66-bolong-road-bomaderry-nsw-2541-2018251335,515000,is-sold,Sold by private treaty 20 Feb 2023,20230220,66 Bolong Road,BOMADERRY,NSW,2541,-34.8590736,150.604034,3,2,,House,House,False,575,m2,False
2018265228,listing,/38-bunberra-street-bomaderry-nsw-2541-2018265228,610000,is-sold,Sold by private treaty 16 Feb 2023,20230216,38 Bunberra Street,BOMADERRY,NSW,2541,-34.8516541,150.604584,2,1,1,House,House,False,809,m2,False
2018268655,listing,/96-pitt-street-north-nowra-nsw-2541-2018268655,,is-sold,Sold by private treaty 13 Feb 2023,20230213,96 Pitt Street,NORTH NOWRA,NSW,2541,-34.85781,150.570663,3,1,2,House,House,False,1961,m2,False
2018269572,listing,/7-killara-road-nowra-nsw-2541-2018269572,910000,is-sold,Sold by private treaty 20 Feb 2023,20230220,7 Killara Road,NOWRA,NSW,2541,-34.89925,150.616943,4,2,2,House,House,False,762,m2,False
2018283368,listing,/52-page-avenue-north-nowra-nsw-2541-2018283368,,is-sold,Sold by private treaty 20 Feb 2023,20230220,52 Page Avenue,NORTH NOWRA,NSW,2541,-34.85656,150.57814,3,2,2,House,House,False,661,m2,False
2018290054,listing,/56-blue-gum-way-north-nowra-nsw-2541-2018290054,,is-sold,Sold by private treaty 09 Feb 2023,20230209,56 Blue Gum Way,NORTH NOWRA,NSW,2541,-34.8527222,150.577332,4,2,2,House,House,False,773,m2,False
2018291417,listing,/5-190-kinghorne-street-nowra-nsw-2541-2018291417,485000,is-sold,Sold by private treaty 01 Feb 2023,20230201,5/190 Kinghorne Street,NOWRA,NSW,2541,-34.8839378,150.601608,2,1,1,ApartmentUnitFlat,Apartment / Unit / Flat,False,0,m2,False
2018303728,listing,/17-blue-gum-way-north-nowra-nsw-2541-2018303728,778000,is-sold,Sold by private treaty 15 Feb 2023,20230215,17 Blue Gum Way,NORTH NOWRA,NSW,2541,-34.85288,150.576279,4,2,3,House,House,False,720,m2,False
2018305742,listing,/4-3-john-purcell-way-south-nowra-nsw-2541-2018305742,530000,is-sold,Sold by private treaty 09 Feb 2023,20230209,4/3 John Purcell Way,SOUTH NOWRA,NSW,2541,-34.89821,150.60611,2,1,1,ApartmentUnitFlat,Apartment / Unit / Flat,False,239,m2,False
2018338933,listing,/8b-zieria-avenue-north-nowra-nsw-2541-2018338933,650000,is-sold,Sold by private treaty 06 Feb 2023,20230206,8B Zieria Avenue,NORTH NOWRA,NSW,2541,-34.8520622,150.576324,3,1,1,House,House,False,0,m2,False
2018019260,listing,/19-bendigo-circuit-nowra-nsw-2541-2018019260,,is-sold,Sold by private treaty 25 Jan 2023,20230125,19 Bendigo Circuit,NOWRA,NSW,2541,-34.89483,150.6122,4,2,2,House,House,False,502,m2,False
2018128101,listing,/4-dobbie-close-west-nowra-nsw-2541-2018128101,628000,is-sold,Sold by private treaty 11 Jan 2023,20230111,4 Dobbie Close,WEST NOWRA,NSW,2541,-34.8921,150.592209,3,1,4,House,House,False,646,m2,False
2018180620,listing,/1-oliver-parade-nowra-nsw-2541-2018180620,625000,is-sold,Sold by private treaty 30 Jan 2023,20230130,1 Oliver Parade,NOWRA,NSW,2541,-34.87843,150.595078,3,1,1,House,House,False,664,m2,False
2018186267,listing,/263-illaroo-road-north-nowra-nsw-2541-2018186267,475000,is-sold,Sold at auction 13 Jan 2023,20230113,263 Illaroo Road,NORTH NOWRA,NSW,2541,-34.8507919,150.578827,3,1,1,House,House,False,711,m2,False
2018189821,listing,/28-lucas-street-north-nowra-nsw-2541-2018189821,,is-sold,Sold by private treaty 25 Jan 2023,20230125,28 Lucas Street,NORTH NOWRA,NSW,2541,-34.8625336,150.570343,3,2,1,House,House,False,674,m2,False
2018198885,listing,/4-91-moss-street-nowra-nsw-2541-2018198885,355000,is-sold,Sold by private treaty 27 Jan 2023,20230127,4/91 Moss Street,NOWRA,NSW,2541,-34.87097,150.609573,2,1,1,ApartmentUnitFlat,Apartment / Unit / Flat,False,0,m2,False
2018200024,listing,/12-coralie-close-north-nowra-nsw-2541-2018200024,812500,is-sold,Sold by private treaty 13 Jan 2023,20230113,12 Coralie Close,NORTH NOWRA,NSW,2541,-34.8546677,150.583954,4,2,3,House,House,False,904,m2,False
2018210891,listing,/19b-evergreen-place-south-nowra-nsw-2541-2018210891,600000,is-sold,Sold by private treaty 18 Jan 2023,20230118,19b Evergreen Place,SOUTH NOWRA,NSW,2541,-34.9080353,150.611511,3,2,1,House,House,False,0,m2,False
2018215132,listing,/4-reiby-place-nowra-nsw-2541-2018215132,540000,is-sold,Sold by private treaty 19 Jan 2023,20230119,4 Reiby Place,NOWRA,NSW,2541,-34.89066,150.597321,4,1,3,House,House,False,1013,m2,False
2018224137,listing,/97-moss-street-nowra-nsw-2541-2018224137,470000,is-sold,Sold by private treaty 25 Jan 2023,20230125,97 Moss Street,NOWRA,NSW,2541,-34.87066,150.610031,4,1,1,House,House,False,620,m2,False
2018224502,listing,/8-arnheim-place-north-nowra-nsw-2541-2018224502,670000,is-sold,Sold by private treaty 18 Jan 2023,20230118,8 Arnheim Place,NORTH NOWRA,NSW,2541,-34.86115,150.575729,3,1,2,House,House,False,1123,m2,False
2018224770,listing,/2-robey-street-bomaderry-nsw-2541-2018224770,,is-sold,Sold by private treaty 27 Jan 2023,20230127,2 Robey Street,BOMADERRY,NSW,2541,-34.8482971,150.5997,4,1,1,House,House,False,752,m2,False
2018238073,listing,/5-seccombe-street-nowra-nsw-2541-2018238073,,is-sold,Sold by private treaty 24 Jan 2023,20230124,5 Seccombe Street,NOWRA,NSW,2541,-34.8865166,150.611786,4,1,1,House,House,False,721,m2,False
2018253024,listing,/2-2-brodie-close-bomaderry-nsw-2541-2018253024,465000,is-sold,Sold by private treaty 13 Jan 2023,20230113,2/2 Brodie Close,BOMADERRY,NSW,2541,-34.84047,150.603851,2,1,1,Villa,Villa,False,0,m2,False
2018255329,listing,/9-wirruma-close-north-nowra-nsw-2541-2018255329,,is-sold,Sold by private treaty 24 Jan 2023,20230124,9 Wirruma Close,NORTH NOWRA,NSW,2541,-34.8636971,150.582047,3,1,1,House,House,False,713,m2,False
2018269639,listing,/35-st-anns-street-nowra-nsw-2541-2018269639,540000,is-sold,Sold at auction 29 Jan 2023,20230129,35 St Anns Street,NOWRA,NSW,2541,-34.8838768,150.5977,2,1,,House,House,False,449,m2,False
2018269795,listing,/153-mckay-street-nowra-nsw-2541-2018269795,500000,is-sold,Sold at auction 29 Jan 2023,20230129,153 Mckay Street,NOWRA,NSW,2541,-34.89232,150.606445,3,1,5,House,House,False,664,m2,False
2018272606,listing,/84-osprey-road-south-nowra-nsw-2541-2018272606,740000,is-sold,Sold by private treaty 31 Jan 2023,20230131,84 Osprey Road,SOUTH NOWRA,NSW,2541,-34.91059,150.616486,3,2,1,House,House,False,351,m2,False
2018280228,listing,/1-79-page-avenue-north-nowra-nsw-2541-2018280228,525000,is-sold,Sold by private treaty 27 Jan 2023,20230127,1/79 Page Avenue,NORTH NOWRA,NSW,2541,-34.8562241,150.581635,2,1,2,ApartmentUnitFlat,Apartment / Unit / Flat,False,0,m2,False
2018286579,listing,/18-20-turley-avenue-bomaderry-nsw-2541-2018286579,,is-sold,Sold by private treaty 30 Jan 2023,20230130,18-20 Turley Avenue,BOMADERRY,NSW,2541,-34.8556061,150.595688,4,2,1,House,House,False,1385,m2,False
2017706176,listing,/5-42-lyndhurst-drive-bomaderry-nsw-2541-2017706176,422500,is-sold,Sold by private treaty 09 Jan 2023,20230109,5/42 Lyndhurst Drive,BOMADERRY,NSW,2541,-34.8431854,150.605927,2,1,1,Villa,Villa,False,91,m2,False
2018021953,listing,/1-magnolia-grove-bomaderry-nsw-2541-2018021953,665000,is-sold,Sold by private treaty 14 Dec 2022,20221214,1 Magnolia Grove,BOMADERRY,NSW,2541,-34.8341675,150.601181,3,2,1,House,House,False,231,m2,False
2018029196,listing,/7-76-brinawarr-street-bomaderry-nsw-2541-2018029196,407000,is-sold,Sold by private treaty 10 Jan 2023,20230110,7/76 Brinawarr Street,BOMADERRY,NSW,2541,-34.8575821,150.601227,2,1,2,Villa,Villa,False,0,m2,False
2018046460,listing,/8-shepherd-street-nowra-nsw-2541-2018046460,790000,is-sold,Sold by private treaty 26 Dec 2022,20221226,8 Shepherd Street,NOWRA,NSW,2541,-34.8788033,150.593155,5,3,4,House,House,False,809,m2,False
2018134007,listing,/110-west-birriley-street-bomaderry-nsw-2541-2018134007,710000,is-sold,Sold by private treaty 21 Dec 2022,20221221,110 West Birriley Street,BOMADERRY,NSW,2541,-34.846962,150.597351,3,2,3,House,House,False,715,m2,False
2018135103,listing,/41-yeovil-drive-bomaderry-nsw-2541-2018135103,740000,is-sold,Sold by private treaty 14 Dec 2022,20221214,41 Yeovil Drive,BOMADERRY,NSW,2541,-34.8410568,150.610123,4,2,2,House,House,False,682,m2,False
2018137764,listing,/6-golden-cane-avenue-north-nowra-nsw-2541-2018137764,657500,is-sold,Sold by private treaty 19 Dec 2022,20221219,6 Golden Cane Avenue,NORTH NOWRA,NSW,2541,-34.85038,150.575333,3,1,1,House,House,False,703,m2,False
2018159331,listing,/47-burradoo-crescent-nowra-nsw-2541-2018159331,,is-sold,Sold by private treaty 21 Dec 2022,20221221,47 Burradoo Crescent,NOWRA,NSW,2541,-34.88993,150.621017,4,2,2,House,House,False,704,m2,False
2018159999,listing,/6-marana-close-nowra-nsw-2541-2018159999,875000,is-sold,Sold by private treaty 16 Dec 2022,20221216,6 Marana Close,NOWRA,NSW,2541,-34.89334,150.619553,4,2,3,House,House,False,1095,m2,False
2018178355,listing,/2-146-plunkett-street-nowra-nsw-2541-2018178355,629000,is-sold,Sold by private treaty 16 Dec 2022,20221216,2/146 Plunkett Street,NOWRA,NSW,2541,-34.87986,150.608627,3,2,1,Villa,Villa,False,299,m2,False
2018178461,listing,/36-numrock-street-bomaderry-nsw-2541-2018178461,640000,is-sold,Sold by private treaty 16 Dec 2022,20221216,36 Numrock Street,BOMADERRY,NSW,2541,-34.85058,150.6029,4,1,1,House,House,False,618,m2,False
2018187317,listing,/18-junction-street-nowra-nsw-2541-2018187317,815000,is-sold,Sold by private treaty 23 Dec 2022,20221223,18 Junction Street,NOWRA,NSW,2541,-34.87382,150.595184,4,1,2,House,House,False,879,m2,False
2018198017,listing,/8-burton-street-nowra-nsw-2541-2018198017,750000,is-sold,Sold by private treaty 21 Dec 2022,20221221,8 Burton Street,NOWRA,NSW,2541,-34.8906326,150.605133,4,3,2,House,House,False,1064,m2,False
2018204360,listing,/12-silvereye-close-south-nowra-nsw-2541-2018204360,1250000,is-sold,Sold by private treaty 20 Dec 2022,20221220,12 Silvereye Close,SOUTH NOWRA,NSW,2541,-34.9160423,150.614487,4,2,2,House,House,False,805,m2,False
2018210219,listing,/7-mckay-street-nowra-nsw-2541-2018210219,525000,is-sold,Sold by private treaty 21 Dec 2022,20221221,7 McKay Street,NOWRA,NSW,2541,-34.8899879,150.613571,3,1,2,House,House,False,575,m2,False
2018228010,listing,/8-flannelflower-avenue-west-nowra-nsw-2541-2018228010,845000,is-sold,Sold by private treaty 22 Dec 2022,20221222,8 Flannelflower Avenue,WEST NOWRA,NSW,2541,-34.8944435,150.583923,4,2,2,SemiDetached,Semi-Detached,False,550,m2,False
2018228687,listing,/9a-moresby-street-nowra-nsw-2541-2018228687,630000,is-sold,Sold by private treaty 06 Jan 2023,20230106,9A Moresby Street,NOWRA,NSW,2541,-34.8935432,150.6096,3,2,1,House,House,False,508,m2,False
2018229987,listing,/88-caladenia-crescent-south-nowra-nsw-2541-2018229987,812000,is-sold,Sold by private treaty 22 Dec 2022,20221222,88 Caladenia Crescent,SOUTH NOWRA,NSW,2541,-34.90929,150.613876,4,2,2,House,House,False,530,m2,False
2018232189,listing,/9-aspromonte-drive-south-nowra-nsw-2541-2018232189,505000,is-sold,Sold by private treaty 23 Dec 2022,20221223,9 Aspromonte Drive,SOUTH NOWRA,NSW,2541,-34.9087639,150.6028,,,,VacantLand,Vacant land,False,715,m2,False
2018268577,listing,/19-westborne-drive-nowra-nsw-2541-2018268577,900000,is-sold,Sold by private treaty 22 Dec 2022,20221222,19 Westborne Drive,NOWRA,NSW,2541,-34.8877678,150.593246,4,2,2,House,House,False,778,m2,False
2017597248,listing,/108-east-street-nowra-nsw-2541-2017597248,700000,is-sold,Sold by private treaty 14 Dec 2022,20221214,108 East Street,NOWRA,NSW,2541,-34.88319,150.60408,3,1,1,House,House,False,986,m2,False
2017887371,listing,/2-22-hawthorn-avenue-nowra-nsw-2541-2017887371,380000,is-sold,Sold by private treaty 08 Dec 2022,20221208,2/22 Hawthorn Avenue,NOWRA,NSW,2541,-34.86772,150.603149,2,1,1,ApartmentUnitFlat,Apartment / Unit / Flat,False,264,m2,False
2017887854,listing,/15-westhaven-avenue-nowra-nsw-2541-2017887854,840000,is-sold,Sold by private treaty 12 Dec 2022,20221212,15 Westhaven Avenue,NOWRA,NSW,2541,-34.87248,150.595428,5,3,2,House,House,False,1005,m2,False
2017969077,listing,/1-miller-avenue-nowra-nsw-2541-2017969077,580000,is-sold,Sold by private treaty 09 Dec 2022,20221209,1 Miller Avenue,NOWRA,NSW,2541,-34.8863945,150.606155,3,1,3,House,House,False,569,m2,False
2018002787,listing,/52-yurunga-drive-north-nowra-nsw-2541-2018002787,1215000,is-sold,Sold by private treaty 07 Dec 2022,20221207,52 Yurunga Drive,NORTH NOWRA,NSW,2541,-34.8667221,150.586487,5,3,2,House,House,False,800,m2,False
2018023492,listing,/15-27-bowada-street-bomaderry-nsw-2541-2018023492,470000,is-sold,Sold by private treaty 08 Dec 2022,20221208,15/27 Bowada Street,BOMADERRY,NSW,2541,-34.85669,150.602768,2,1,1,ApartmentUnitFlat,Apartment / Unit / Flat,False,0,m2,False
2018066170,listing,/36-tartarian-crescent-bomaderry-nsw-2541-2018066170,1750000,is-sold,Sold by private treaty 02 Dec 2022,20221202,36 Tartarian Crescent,BOMADERRY,NSW,2541,-34.835743,150.591278,4,2,5,House,House,False,4017,m2,False
2018069114,listing,/72-east-street-nowra-nsw-2541-2018069114,700000,is-sold,Sold by private treaty 14 Dec 2022,20221214,72 East Street,NOWRA,NSW,2541,-34.87967,150.604767,3,1,1,House,House,False,1277,m2,False
2018084456,listing,/29-coorong-road-north-nowra-nsw-2541-2018084456,1561000,is-sold,Sold by private treaty 13 Dec 2022,20221213,29 Coorong Road,NORTH NOWRA,NSW,2541,-34.86409,150.55896,5,3,3,AcreageSemiRural,Acreage / Semi-Rural,True,1.54,ha,False
2018094858,listing,/114-shoalhaven-street-nowra-nsw-2541-2018094858,552000,is-sold,Sold by private treaty 06 Dec 2022,20221206,114 Shoalhaven Street,NOWRA,NSW,2541,-34.8806458,150.5946,2,1,2,House,House,False,559,m2,False
2018096145,listing,/199-osborne-street-nowra-nsw-2541-2018096145,690000,is-sold,Sold by private treaty 13 Dec 2022,20221213,199 Osborne Street,NOWRA,NSW,2541,-34.88719,150.595245,3,1,1,House,House,False,650,m2,False
2018110399,listing,/7-freesia-crescent-bomaderry-nsw-2541-2018110399,,is-sold,Sold by private treaty 13 Dec 2022,20221213,7 Freesia Crescent,BOMADERRY,NSW,2541,-34.83499,150.599686,4,2,2,House,House,False,720,m2,False
2018126022,listing,/2-crest-avenue-north-nowra-nsw-2541-2018126022,615000,is-sold,Sold by private treaty 12 Dec 2022,20221212,2 Crest Avenue,NORTH NOWRA,NSW,2541,-34.86093,150.59024,3,1,2,House,House,False,651,m2,False
2018171345,listing,/8-ilinga-close-north-nowra-nsw-2541-2018171345,760000,is-sold,Sold by private treaty 07 Dec 2022,20221207,8 Ilinga Close,NORTH NOWRA,NSW,2541,-34.8617439,150.580841,3,2,2,House,House,False,779,m2,False
2018186892,listing,/18-tanang-street-bomaderry-nsw-2541-2018186892,520000,is-sold,Sold by private treaty 09 Dec 2022,20221209,18 Tanang Street,BOMADERRY,NSW,2541,-34.8499,150.607941,3,1,1,House,House,False,809,m2,False
2018191334,listing,/33-jasmine-drive-bomaderry-nsw-2541-2018191334,800000,is-sold,Sold by private treaty 05 Dec 2022,20221205,33 Jasmine Drive,BOMADERRY,NSW,2541,-34.84005,150.598618,4,2,2,House,House,False,847,m2,False
2018192262,listing,/66-clipper-road-nowra-nsw-2541-2018192262,530000,is-sold,Sold by private treaty 07 Dec 2022,20221207,66 Clipper Road,NOWRA,NSW,2541,-34.8950462,150.61647,3,1,1,House,House,False,705,m2,False
2018204643,listing,/98-walsh-crescent-north-nowra-nsw-2541-2018204643,905000,is-sold,Sold prior to auction 13 Dec 2022,20221213,98 Walsh Crescent,NORTH NOWRA,NSW,2541,-34.8595238,150.5943,4,1,4,House,House,False,930,m2,False
2018204929,listing,/27-lyrebird-drive-nowra-nsw-2541-2018204929,1100000,is-sold,Sold by private treaty 09 Dec 2022,20221209,27 Lyrebird Drive,NOWRA,NSW,2541,-34.866375,150.607071,3,2,1,House,House,False,746,m2,False
2018317782,listing,/108-east-street-nowra-nsw-2541-2018317782,700000,is-sold,Sold by private treaty 14 Dec 2022,20221214,108 East Street,NOWRA,NSW,2541,-34.88319,150.60408,3,1,1,House,House,False,986,m2,False
2017472338,listing,/12-arwon-close-bangalee-nsw-2541-2017472338,1300000,is-sold,Sold by private treaty 24 Nov 2022,20221124,12 Arwon Close,BANGALEE,NSW,2541,-34.84228,150.5579,5,3,2,House,House,False,2019,m2,False
2017498616,listing,/12-beyeri-avenue-west-nowra-nsw-2541-2017498616,623000,is-sold,Sold by private treaty 23 Nov 2022,20221123,12 Beyeri Avenue,WEST NOWRA,NSW,2541,-34.88648,150.58345,3,1,6,House,House,False,764,m2,False
2017899495,listing,/4a-chestnut-avenue-bomaderry-nsw-2541-2017899495,,is-sold,Sold by private treaty 14 Nov 2022,20221114,4A Chestnut Avenue,BOMADERRY,NSW,2541,-34.8379669,150.602448,2,1,1,House,House,False,0,m2,False
2017928415,listing,/30-lydon-crescent-west-nowra-nsw-2541-2017928415,725000,is-sold,Sold by private treaty 17 Nov 2022,20221117,30 Lydon Crescent,WEST NOWRA,NSW,2541,-34.8859024,150.58493,4,2,2,House,House,False,756,m2,False
2018002008,listing,/35-moresby-street-nowra-nsw-2541-2018002008,757000,is-sold,Sold by private treaty 28 Nov 2022,20221128,35 Moresby Street,NOWRA,NSW,2541,-34.8954659,150.6094,6,2,2,House,House,False,690,m2,False
2018043416,listing,/9-jaycee-avenue-nowra-nsw-2541-2018043416,615000,is-sold,Sold by private treaty 24 Nov 2022,20221124,9 Jaycee Avenue,NOWRA,NSW,2541,-34.8898277,150.605362,3,2,2,House,House,False,748,m2,False
2018066685,listing,/5-lydon-crescent-west-nowra-nsw-2541-2018066685,620000,is-sold,Sold by private treaty 01 Dec 2022,20221201,5 Lydon Crescent,WEST NOWRA,NSW,2541,-34.8866844,150.586166,3,1,1,House,House,False,684,m2,False
2018086898,listing,/6a-federation-place-north-nowra-nsw-2541-2018086898,562500,is-sold,Sold by private treaty 11 Nov 2022,20221111,6A Federation Place,NORTH NOWRA,NSW,2541,-34.8568764,150.584015,3,1,1,House,House,False,608,m2,False
2018114418,listing,/8-penrose-drive-bomaderry-nsw-2541-2018114418,635000,is-sold,Sold by private treaty 28 Nov 2022,20221128,8 Penrose Drive,BOMADERRY,NSW,2541,-34.83857,150.6092,3,1,1,House,House,False,761,m2,False
2018118402,listing,/13-magnolia-grove-bomaderry-nsw-2541-2018118402,780000,is-sold,Sold by private treaty 29 Nov 2022,20221129,13 Magnolia Grove,BOMADERRY,NSW,2541,-34.83339,150.602264,3,2,2,House,House,False,723,m2,False
2018122444,listing,/42-warrigal-street-nowra-nsw-2541-2018122444,795000,is-sold,Sold by private treaty 25 Nov 2022,20221125,42 Warrigal Street,NOWRA,NSW,2541,-34.8978348,150.618378,4,2,2,House,House,False,722,m2,False
2018138156,listing,/6-katela-avenue-bomaderry-nsw-2541-2018138156,890000,is-sold,Sold by private treaty 11 Nov 2022,20221111,6 Katela Avenue,BOMADERRY,NSW,2541,-34.8374977,150.612228,4,2,2,House,House,False,795,m2,False
2018146786,listing,/1-2a-jamieson-road-north-nowra-nsw-2541-2018146786,638000,is-sold,Sold by private treaty 16 Nov 2022,20221116,1/2A Jamieson Road,NORTH NOWRA,NSW,2541,-34.8579369,150.585526,3,2,2,Townhouse,Townhouse,False,170,m2,False
2018148123,listing,/59-plunkett-street-nowra-nsw-2541-2018148123,580000,is-sold,Sold by private treaty 01 Dec 2022,20221201,59 Plunkett Street,NOWRA,NSW,2541,-34.8779,150.598831,2,1,1,House,House,False,451,m2,False
2018151005,listing,/6-lynburn-avenue-bomaderry-nsw-2541-2018151005,545000,is-sold,Sold by private treaty 18 Nov 2022,20221118,6 Lynburn Avenue,BOMADERRY,NSW,2541,-34.85494,150.596741,3,1,2,House,House,False,653,m2,False
2018166644,listing,/9a-elian-crescent-south-nowra-nsw-2541-2018166644,635000,is-sold,Sold by private treaty 02 Dec 2022,20221202,9A Elian Crescent,SOUTH NOWRA,NSW,2541,-34.9070358,150.610123,3,2,2,House,House,False,362,m2,False
2018176823,listing,/5-narrien-place-north-nowra-nsw-2541-2018176823,1128000,is-sold,Sold by private treaty 25 Nov 2022,20221125,5 Narrien Place,NORTH NOWRA,NSW,2541,-34.853466,150.5832,4,2,4,House,House,False,948,m2,False
2018177202,listing,/15-gunyuma-crescent-north-nowra-nsw-2541-2018177202,640000,is-sold,Sold by private treaty 17 Nov 2022,20221117,15 Gunyuma Crescent,NORTH NOWRA,NSW,2541,-34.86318,150.5844,3,1,1,House,House,False,840,m2,False
2018179864,listing,/20-edwards-avenue-bomaderry-nsw-2541-2018179864,525000,is-sold,Sold by private treaty 25 Nov 2022,20221125,20 Edwards Avenue,BOMADERRY,NSW,2541,-34.83904,150.6125,4,2,,House,House,False,1260,m2,False
2018183495,listing,/9-quickmatch-street-nowra-nsw-2541-2018183495,500000,is-sold,Sold by private treaty 17 Nov 2022,20221117,9 Quickmatch Street,NOWRA,NSW,2541,-34.8911819,150.610474,3,1,5,House,House,False,563,m2,False
2017673263,listing,/4-5-david-place-bomaderry-nsw-2541-2017673263,510000,is-sold,Sold by private treaty 28 Oct 2022,20221028,4/5 David Place,BOMADERRY,NSW,2541,-34.84176,150.604263,2,1,1,House,House,False,0,m2,False
2017786281,listing,/south-nowra-nsw-2541-2017786281,830000,is-sold,Sold by private treaty 28 Oct 2022,20221028,,SOUTH NOWRA,NSW,2541,-34.9087639,150.6028,5,2,2,House,House,False,744,m2,False
2017996377,listing,/34-fantail-street-south-nowra-nsw-2541-2017996377,720000,is-sold,Sold by private treaty 28 Oct 2022,20221028,34 Fantail Street,SOUTH NOWRA,NSW,2541,-34.9105759,150.615921,3,2,1,House,House,False,349,m2,False
2018005148,listing,/63-depot-road-west-nowra-nsw-2541-2018005148,550000,is-sold,Sold by private treaty 02 Nov 2022,20221102,63 Depot Road,WEST NOWRA,NSW,2541,-34.8857727,150.5869,4,2,2,House,House,False,792,m2,False
2018023776,listing,/6-parlour-close-north-nowra-nsw-2541-2018023776,716500,is-sold,Sold by private treaty 08 Nov 2022,20221108,6 Parlour Close,NORTH NOWRA,NSW,2541,-34.85252,150.57225,3,1,2,House,House,False,792,m2,False
2018024912,listing,/49a-chittick-avenue-north-nowra-nsw-2541-2018024912,750000,is-sold,Sold by private treaty 04 Nov 2022,20221104,49A Chittick Avenue,NORTH NOWRA,NSW,2541,-34.84829,150.5759,3,2,2,House,House,False,350,m2,False
2018043646,listing,/6-6a-doreen-court-west-nowra-nsw-2541-2018043646,,is-sold,Sold by private treaty 09 Nov 2022,20221109,6 & 6A Doreen Court,WEST NOWRA,NSW,2541,-34.8885078,150.585922,5,3,2,SemiDetached,Semi-Detached,False,805,m2,False
2018049332,listing,/116-yurunga-drive-north-nowra-nsw-2541-2018049332,900000,is-sold,Sold by private treaty 04 Nov 2022,20221104,116 Yurunga Drive,NORTH NOWRA,NSW,2541,-34.8635,150.580551,5,3,2,House,House,False,749,m2,False
2018060947,listing,/102-salisbury-drive-nowra-nsw-2541-2018060947,560000,is-sold,Sold by private treaty 10 Nov 2022,20221110,102 Salisbury Drive,NOWRA,NSW,2541,-34.88396,150.6152,3,1,5,House,House,False,669,m2,False
2018061249,listing,/6-centennial-court-bomaderry-nsw-2541-2018061249,627500,is-sold,Sold by private treaty 28 Oct 2022,20221028,6 Centennial Court,BOMADERRY,NSW,2541,-34.842308,150.607391,3,1,1,House,House,False,528,m2,False
2018063332,listing,/22-tanang-street-bomaderry-nsw-2541-2018063332,,is-sold,Sold by private treaty 09 Nov 2022,20221109,22 Tanang Street,BOMADERRY,NSW,2541,-34.84981,150.6073,3,1,,House,House,False,425,m2,False
2018067042,listing,/1-30-colyer-avenue-nowra-nsw-2541-2018067042,650000,is-sold,Sold by private treaty 28 Oct 2022,20221028,1/30 Colyer Avenue,NOWRA,NSW,2541,-34.8709259,150.597931,2,2,1,Villa,Villa,False,0,m2,True
2018089841,listing,/73-jasmine-drive-bomaderry-nsw-2541-2018089841,795000,is-sold,Sold by private treaty 01 Nov 2022,20221101,73 Jasmine Drive,BOMADERRY,NSW,2541,-34.83618,150.6009,3,2,2,House,House,False,831,m2,False
2018102386,listing,/8-denbigh-place-south-nowra-nsw-2541-2018102386,645000,is-sold,Sold by private treaty 28 Oct 2022,20221028,8 Denbigh Place,SOUTH NOWRA,NSW,2541,-34.9071159,150.612061,3,1,1,House,House,False,635,m2,False
2018111526,listing,/45-30-cavanagh-lane-west-nowra-nsw-2541-2018111526,650000,is-sold,Sold by private treaty 03 Nov 2022,20221103,45/30 Cavanagh Lane,WEST NOWRA,NSW,2541,-34.8882828,150.5832,3,2,1,Townhouse,Townhouse,False,0,m2,False
2018112293,listing,/50-walsh-crescent-north-nowra-nsw-2541-2018112293,920000,is-sold,Sold by private treaty 11 Nov 2022,20221111,50 Walsh Crescent,NORTH NOWRA,NSW,2541,-34.85896,150.59079,5,3,3,House,House,False,0,m2,False
2018113945,listing,/4-hyam-street-nowra-nsw-2541-2018113945,895000,is-sold,Sold at auction 02 Nov 2022,20221102,4 Hyam Street,NOWRA,NSW,2541,-34.86866,150.597687,4,2,5,House,House,False,1246,m2,False
2018122934,listing,/10-burton-street-nowra-nsw-2541-2018122934,795000,is-sold,Sold by private treaty 09 Nov 2022,20221109,10 Burton Street,NOWRA,NSW,2541,-34.89081,150.604965,4,2,3,House,House,False,1418,m2,False
2018132441,listing,/20-chittick-avenue-north-nowra-nsw-2541-2018132441,665000,is-sold,Sold by private treaty 07 Nov 2022,20221107,20 Chittick Avenue,NORTH NOWRA,NSW,2541,-34.8477821,150.5743,4,2,2,House,House,False,890,m2,False
2018135536,listing,/62-62a-rannoch-drive-west-nowra-nsw-2541-2018135536,850000,is-sold,Sold by private treaty 09 Nov 2022,20221109,62 & 62A Rannoch Drive,WEST NOWRA,NSW,2541,-34.8945732,150.584839,5,3,2,House,House,False,626,m2,False
2017857057,listing,/19-tarawara-street-bomaderry-nsw-2541-2017857057,690000,is-sold,Sold by private treaty 21 Oct 2022,20221021,19 Tarawara Street,BOMADERRY,NSW,2541,-34.8541679,150.6059,3,2,1,House,House,False,811,m2,False
2017880475,listing,/13-regent-st-bomaderry-nsw-2541-2017880475,760000,is-sold,Sold by private treaty 24 Oct 2022,20221024,13 Regent St,BOMADERRY,NSW,2541,-34.8356171,150.604584,4,1,2,House,House,False,873,m2,False
2017922453,listing,/8-numrock-street-bomaderry-nsw-2541-2017922453,700000,is-sold,Sold by private treaty 19 Oct 2022,20221019,8 Numrock Street,BOMADERRY,NSW,2541,-34.8485,150.604126,4,1,,House,House,False,1024,m2,False
2017925606,listing,/10-kahlua-crescent-bomaderry-nsw-2541-2017925606,640000,is-sold,Sold by private treaty 14 Oct 2022,20221014,10 Kahlua Crescent,BOMADERRY,NSW,2541,-34.8491325,150.600861,3,1,4,House,House,False,971,m2,False
2017942430,listing,/8-67-brinawarr-street-bomaderry-nsw-2541-2017942430,479000,is-sold,Sold by private treaty 18 Oct 2022,20221018,8/67 Brinawarr Street,BOMADERRY,NSW,2541,-34.85322,150.60173,3,1,1,Villa,Villa,False,0,m2,False
2017945470,listing,/13-moresby-street-nowra-nsw-2541-2017945470,875000,is-sold,Sold by private treaty 20 Oct 2022,20221020,13 Moresby Street,NOWRA,NSW,2541,-34.89401,150.609039,4,2,1,Duplex,Duplex,False,504,m2,False
2017957187,listing,/7-6-morton-parade-nowra-nsw-2541-2017957187,295000,is-sold,Sold by private treaty 17 Oct 2022,20221017,7/6 Morton Parade,NOWRA,NSW,2541,-34.8783875,150.605057,2,1,1,ApartmentUnitFlat,Apartment / Unit / Flat,False,0,m2,False
2018002172,listing,/27-mahogany-place-north-nowra-nsw-2541-2018002172,680000,is-sold,Sold by private treaty 17 Oct 2022,20221017,27 Mahogany Place,NORTH NOWRA,NSW,2541,-34.8553619,150.579865,4,1,2,House,House,False,491,m2,False
2018020666,listing,/7-42-tarawal-street-bomaderry-nsw-2541-2018020666,640000,is-sold,Sold by private treaty 18 Oct 2022,20221018,7/42 Tarawal Street,BOMADERRY,NSW,2541,-34.8513,150.600723,3,2,1,Villa,Villa,False,566,m2,False
2018023263,listing,/18-killara-road-nowra-nsw-2541-2018023263,1100000,is-sold,Sold by private treaty 20 Oct 2022,20221020,18 Killara Road,NOWRA,NSW,2541,-34.8986778,150.6162,4,2,2,House,House,False,734,m2,False
2018025567,listing,/14-hoskin-street-north-nowra-nsw-2541-2018025567,725000,is-sold,Sold by private treaty 17 Oct 2022,20221017,14 Hoskin Street,NORTH NOWRA,NSW,2541,-34.862278,150.569534,4,2,1,House,House,False,673,m2,False
2018033924,listing,/2-1a-shorland-place-nowra-nsw-2541-2018033924,280000,is-sold,Sold by private treaty 19 Oct 2022,20221019,2/1a Shorland Place,NOWRA,NSW,2541,-34.8847466,150.612656,2,1,1,ApartmentUnitFlat,Apartment / Unit / Flat,False,0,m2,False
2018047861,listing,/31-cornelius-place-nowra-nsw-2541-2018047861,750000,is-sold,Sold by private treaty 19 Oct 2022,20221019,31 Cornelius Place,NOWRA,NSW,2541,-34.8944435,150.6077,4,2,6,House,House,False,854,m2,False
2018068537,listing,/6-hamilton-place-bomaderry-nsw-2541-2018068537,930000,is-sold,Sold by private treaty 18 Oct 2022,20221018,6 Hamilton Place,BOMADERRY,NSW,2541,-34.83721,150.601822,4,2,2,House,House,False,1033,m2,False
2018068812,listing,/4-seccombe-street-nowra-nsw-2541-2018068812,520000,is-sold,Sold by private treaty 12 Oct 2022,20221012,4 Seccombe Street,NOWRA,NSW,2541,-34.8864555,150.611069,2,1,1,House,House,False,948,m2,False
2018077311,listing,/28-plunkett-street-nowra-nsw-2541-2018077311,825000,is-sold,Sold at auction 19 Oct 2022,20221019,28 Plunkett Street,NOWRA,NSW,2541,-34.87766,150.59433,3,1,2,House,House,False,1000,m2,False
2018078920,listing,/88-douglas-street-nowra-nsw-2541-2018078920,636000,is-sold,Sold by private treaty 13 Oct 2022,20221013,88 Douglas Street,NOWRA,NSW,2541,-34.88065,150.600281,2,1,1,House,House,False,734,m2,False
2018079929,listing,/22-coconut-drive-north-nowra-nsw-2541-2018079929,650000,is-sold,Sold by private treaty 20 Oct 2022,20221020,22 Coconut Drive,NORTH NOWRA,NSW,2541,-34.8490334,150.574112,3,1,1,House,House,False,818,m2,False
2018083845,listing,/133-warren-avenue-north-nowra-nsw-2541-2018083845,690000,is-sold,Sold by private treaty 26 Oct 2022,20221026,133 Warren Avenue,NORTH NOWRA,NSW,2541,-34.8556557,150.587,2,1,1,House,House,False,906,m2,False
2018091497,listing,/18-clipper-road-nowra-nsw-2541-2018091497,505000,is-sold,Sold by private treaty 26 Oct 2022,20221026,18 Clipper Road,NOWRA,NSW,2541,-34.8908272,150.616745,3,1,,House,House,False,610,m2,False
2017804418,listing,/310-yalwal-road-west-nowra-nsw-2541-2017804418,1150000,is-sold,Sold by private treaty 28 Sep 2022,20220928,310 Yalwal Road,WEST NOWRA,NSW,2541,-34.8930435,150.5605,4,2,3,House,House,True,15.58,ha,False
2017861174,listing,/2-4-campbell-place-nowra-nsw-2541-2017861174,350000,is-sold,Sold by private treaty 27 Sep 2022,20220927,2/4 Campbell Place,NOWRA,NSW,2541,-34.87141,150.6069,2,1,1,ApartmentUnitFlat,Apartment / Unit / Flat,False,0,m2,False
2017869260,listing,/12-killara-road-nowra-nsw-2541-2017869260,1110000,is-sold,Sold by private treaty 26 Sep 2022,20220926,12 Killara Road,NOWRA,NSW,2541,-34.8988075,150.61676,4,2,3,House,House,False,736,m2,False
2017899358,listing,/1a-hansons-road-north-nowra-nsw-2541-2017899358,330000,is-sold,Sold by private treaty 07 Oct 2022,20221007,1A Hansons Road,NORTH NOWRA,NSW,2541,-34.8591042,150.582687,,,,VacantLand,Vacant land,False,608,m2,False
2017920760,listing,/8-27-bowada-street-bomaderry-nsw-2541-2017920760,392000,is-sold,Sold by private treaty 30 Sep 2022,20220930,8/27 Bowada Street,BOMADERRY,NSW,2541,-34.85669,150.602768,2,1,1,ApartmentUnitFlat,Apartment / Unit / Flat,False,0,m2,False
2017938423,listing,/7-fantail-street-south-nowra-nsw-2541-2017938423,930000,is-sold,Sold by private treaty 29 Sep 2022,20220929,7 Fantail Street,SOUTH NOWRA,NSW,2541,-34.91127,150.613266,4,2,3,House,House,False,686,m2,False
2017939587,listing,/126-262-princes-highway-bomaderry-nsw-2541-2017939587,275000,is-sold,Sold by private treaty 06 Oct 2022,20221006,126/262 Princes Highway,BOMADERRY,NSW,2541,-34.83931,150.595734,2,1,1,House,House,False,0,m2,True
2017982575,listing,/179-berry-street-nowra-nsw-2541-2017982575,767500,is-sold,Sold by private treaty 12 Oct 2022,20221012,179 Berry Street,NOWRA,NSW,2541,-34.8875122,150.59761,4,2,2,House,House,False,1058,m2,False
2017991750,listing,/59-kalandar-st-nowra-nsw-2541-2017991750,350000,is-sold,Sold by private treaty 11 Oct 2022,20221011,59 Kalandar St,NOWRA,NSW,2541,-34.8868675,150.6025,,,3,VacantLand,Vacant land,False,691,m2,False
2018002869,listing,/60-bunberra-street-bomaderry-nsw-2541-2018002869,280000,is-sold,Sold by private treaty 11 Oct 2022,20221011,60 Bunberra Street,BOMADERRY,NSW,2541,-34.85,150.6002,,,,VacantLand,Vacant land,False,540,m2,False
2018005122,listing,/7-formby-close-bomaderry-nsw-2541-2018005122,760000,is-sold,Sold by private treaty 29 Sep 2022,20220929,7 Formby Close,BOMADERRY,NSW,2541,-34.83754,150.60434,4,2,2,House,House,False,939,m2,False
2018007097,listing,/2-2a-bourne-avenue-nowra-nsw-2541-2018007097,630000,is-sold,Sold by private treaty 06 Oct 2022,20221006,2 & 2a Bourne Avenue,NOWRA,NSW,2541,-34.8855,150.604523,4,2,1,House,House,False,620,m2,False
2018014150,listing,/69-rainford-road-nowra-nsw-2541-2018014150,822500,is-sold,Sold by private treaty 30 Sep 2022,20220930,69 Rainford Road,NOWRA,NSW,2541,-34.887867,150.594513,4,2,2,House,House,False,866,m2,False
2018021954,listing,/11-formby-close-bomaderry-nsw-2541-2018021954,725000,is-sold,Sold by private treaty 20 Sep 2022,20220920,11 Formby Close,BOMADERRY,NSW,2541,-34.8368225,150.604675,3,1,5,House,House,False,1005,m2,False
2018036680,listing,/66-illaroo-road-north-nowra-nsw-2541-2018036680,510000,is-sold,Sold by private treaty 23 Sep 2022,20220923,66 Illaroo Road,NORTH NOWRA,NSW,2541,-34.86133,150.592743,2,1,,House,House,False,504,m2,False
2018037327,listing,/9-albatross-road-nowra-nsw-2541-2018037327,550000,is-sold,Sold by private treaty 23 Sep 2022,20220923,9 Albatross Road,NOWRA,NSW,2541,-34.8875275,150.599182,3,1,2,House,House,False,556,m2,False
2018037377,listing,/13-depot-road-west-nowra-nsw-2541-2018037377,680000,is-sold,Sold by private treaty 10 Oct 2022,20221010,13 Depot Road,WEST NOWRA,NSW,2541,-34.89071,150.585831,3,2,1,House,House,False,760,m2,False
2018042211,listing,/14-north-tarawal-street-bomaderry-nsw-2541-2018042211,650000,is-sold,Sold by private treaty 11 Oct 2022,20221011,14 North Tarawal Street,BOMADERRY,NSW,2541,-34.8480949,150.602448,3,2,3,House,House,False,787,m2,False
2018049501,listing,/14-coral-sea-drive-west-nowra-nsw-2541-2018049501,865000,is-sold,Sold by private treaty 30 Sep 2022,20220930,14 Coral Sea Drive,WEST NOWRA,NSW,2541,-34.8945847,150.589523,4,2,2,House,House,False,828,m2,False
2018090218,listing,/489-illaroo-road-bangalee-nsw-2541-2018090218,1335000,is-sold,Sold by private treaty 10 Oct 2022,20221010,489 Illaroo Road,BANGALEE,NSW,2541,-34.84206,150.56041,4,2,4,House,House,False,4000,m2,False
2017674358,listing,/4-turley-avenue-bomaderry-nsw-2541-2017674358,685000,is-sold,Sold by private treaty 12 Sep 2022,20220912,4 Turley Avenue,BOMADERRY,NSW,2541,-34.8557777,150.597229,3,1,2,House,House,False,658,m2,False
2017809942,listing,/68-quinns-lane-south-nowra-nsw-2541-2017809942,635000,is-sold,Sold by private treaty 16 Sep 2022,20220916,68 Quinns Lane,SOUTH NOWRA,NSW,2541,-34.9097939,150.611023,3,1,2,House,House,False,720,m2,False
2017848855,listing,/60-mckay-street-nowra-nsw-2541-2017848855,550000,is-sold,Sold by private treaty 19 Sep 2022,20220919,60 McKay Street,NOWRA,NSW,2541,-34.89309,150.612473,4,1,2,House,House,False,620,m2,False
2017855576,listing,/40-mcmahons-road-north-nowra-nsw-2541-2017855576,750000,is-sold,Sold by private treaty 08 Sep 2022,20220908,40 Mcmahons Road,NORTH NOWRA,NSW,2541,-34.8599129,150.5801,5,2,2,House,House,False,947,m2,False
2017863052,listing,/38-warrigal-street-nowra-nsw-2541-2017863052,810000,is-sold,Sold by private treaty 30 Aug 2022,20220830,38 Warrigal Street,NOWRA,NSW,2541,-34.89755,150.6188,4,2,2,House,House,False,867,m2,False
2017878357,listing,/116b-berry-street-nowra-nsw-2541-2017878357,900000,is-sold,Sold by private treaty 05 Sep 2022,20220905,116b Berry Street,NOWRA,NSW,2541,-34.8820457,150.599533,3,2,2,House,House,False,368,m2,False
2017880281,listing,/c120b-princes-highway-bomaderry-nsw-2541-2017880281,,is-sold,Sold by private treaty 30 Aug 2022,20220830,C120B Princes Highway,BOMADERRY,NSW,2541,-34.832592,150.598114,4,2,3,House,House,False,4002,m2,False
2017885239,listing,/60-gypsy-point-road-bangalee-nsw-2541-2017885239,2015000,is-sold,Sold by private treaty 01 Sep 2022,20220901,60 Gypsy Point Road,BANGALEE,NSW,2541,-34.84451,150.553818,4,2,4,House,House,False,4046,m2,False
2017891556,listing,/61-bunberra-street-bomaderry-nsw-2541-2017891556,620000,is-sold,Sold by private treaty 14 Sep 2022,20220914,61 Bunberra Street,BOMADERRY,NSW,2541,-34.8500977,150.601685,3,1,,House,House,False,917,m2,False
2017892908,listing,/287-old-southern-road-south-nowra-nsw-2541-2017892908,479000,is-sold,Sold by private treaty 01 Sep 2022,20220901,287 Old Southern Road,SOUTH NOWRA,NSW,2541,-34.9104576,150.612045,,,,VacantLand,Vacant land,False,500,m2,False
2017937779,listing,/20-young-avenue-nowra-nsw-2541-2017937779,435000,is-sold,Sold by private treaty 06 Sep 2022,20220906,20 Young Avenue,NOWRA,NSW,2541,-34.88748,150.610336,3,1,1,House,House,False,601,m2,False
2017968617,listing,/23-antares-close-nowra-nsw-2541-2017968617,355000,is-sold,Sold prior to auction 07 Sep 2022,20220907,23 Antares Close,NOWRA,NSW,2541,-34.894577,150.6174,1,1,,House,House,False,565,m2,False
2017970482,listing,/18-hibiscus-place-bomaderry-nsw-2541-2017970482,850000,is-sold,Sold by private treaty 14 Sep 2022,20220914,18 Hibiscus Place,BOMADERRY,NSW,2541,-34.8353043,150.600861,4,2,2,House,House,False,666,m2,False
2017987295,listing,/86-east-street-nowra-nsw-2541-2017987295,625000,is-sold,Sold by private treaty 14 Sep 2022,20220914,86 East Street,NOWRA,NSW,2541,-34.8810921,150.604492,3,2,1,House,House,False,518,m2,False
2017995992,listing,/69-birriley-street-bomaderry-nsw-2541-2017995992,710000,is-sold,Sold by private treaty 07 Sep 2022,20220907,69 Birriley Street,BOMADERRY,NSW,2541,-34.84833,150.602448,3,2,1,House,House,False,607,m2,False
2018006088,listing,/4-cocos-palm-drive-bomaderry-nsw-2541-2018006088,785000,is-sold,Sold by private treaty 16 Sep 2022,20220916,4 Cocos Palm Drive,BOMADERRY,NSW,2541,-34.84015,150.599884,3,2,2,House,House,False,831,m2,False
2018009027,listing,/33-hoskin-street-north-nowra-nsw-2541-2018009027,784000,is-sold,Sold by private treaty 02 Sep 2022,20220902,33 Hoskin Street,NORTH NOWRA,NSW,2541,-34.8619957,150.57077,4,2,2,House,House,False,714,m2,False
2018144190,listing,/14-elder-crescent-nowra-nsw-2541-2018144190,597500,is-sold,Sold by private treaty 07 Sep 2022,20220907,14 Elder Crescent,NOWRA,NSW,2541,-34.8916855,150.60553,3,1,2,House,House,False,582,m2,False
2018146707,listing,/6-jarrett-close-north-nowra-nsw-2541-2018146707,615000,is-sold,Sold by private treaty 19 Sep 2022,20220919,6 Jarrett Close,NORTH NOWRA,NSW,2541,-34.8616524,150.586533,3,2,2,House,House,False,817,m2,False
2018147271,listing,/40-mcmahons-road-north-nowra-nsw-2541-2018147271,750000,is-sold,Sold by private treaty 08 Sep 2022,20220908,40 Mcmahons Road,NORTH NOWRA,NSW,2541,-34.8599129,150.5801,5,2,2,House,House,False,947,m2,False
2017580811,listing,/10-lynburn-avenue-bomaderry-nsw-2541-2017580811,606000,is-sold,Sold by private treaty 12 Aug 2022,20220812,10 Lynburn Avenue,BOMADERRY,NSW,2541,-34.8548927,150.59639,3,1,1,House,House,False,651,m2,False
2017792558,listing,/53-salisbury-drive-nowra-nsw-2541-2017792558,590000,is-sold,Sold by private treaty 15 Aug 2022,20220815,53 Salisbury Drive,NOWRA,NSW,2541,-34.88656,150.616455,3,1,1,House,House,False,664,m2,False
2017833128,listing,/54-douglas-street-nowra-nsw-2541-2017833128,415000,is-sold,Sold by private treaty 22 Aug 2022,20220822,54 Douglas Street,NOWRA,NSW,2541,-34.87994,150.5961,3,1,,House,House,False,487,m2,False
2017840329,listing,/15-rannoch-drive-west-nowra-nsw-2541-2017840329,800000,is-sold,Sold by private treaty 18 Aug 2022,20220818,15 Rannoch Drive,WEST NOWRA,NSW,2541,-34.8945732,150.581451,5,2,4,House,House,False,816,m2,False
2017858733,listing,/1-91-moss-street-nowra-nsw-2541-2017858733,335000,is-sold,Sold by private treaty 25 Aug 2022,20220825,1/91 Moss Street,NOWRA,NSW,2541,-34.87097,150.609573,2,1,1,ApartmentUnitFlat,Apartment / Unit / Flat,False,0,m2,False
2017905888,listing,/12-shanklin-close-bomaderry-nsw-2541-2017905888,790000,is-sold,Sold by private treaty 12 Aug 2022,20220812,12 Shanklin Close,BOMADERRY,NSW,2541,-34.84481,150.604523,4,2,4,House,House,False,1088,m2,False
2017915499,listing,/4-leatham-avenue-nowra-nsw-2541-2017915499,638000,is-sold,Sold by private treaty 22 Aug 2022,20220822,4 Leatham Avenue,NOWRA,NSW,2541,-34.881916,150.605637,3,1,1,House,House,False,1018,m2,False
2017923497,listing,/2-123-wallace-street-nowra-nsw-2541-2017923497,355000,is-sold,Sold by private treaty 30 Aug 2022,20220830,2/123 Wallace Street,NOWRA,NSW,2541,-34.8887558,150.60733,2,1,1,ApartmentUnitFlat,Apartment / Unit / Flat,False,0,m2,False
2017926101,listing,/2-7-harbour-boulevard-bomaderry-nsw-2541-2017926101,530000,is-sold,Sold by private treaty 16 Aug 2022,20220816,2/7 Harbour Boulevard,BOMADERRY,NSW,2541,-34.8372879,150.610611,2,1,1,Villa,Villa,False,155,m2,False
2017929391,listing,/3-33-lynburn-avenue-bomaderry-nsw-2541-2017929391,552000,is-sold,Sold by private treaty 18 Aug 2022,20220818,3/33 Lynburn Avenue,BOMADERRY,NSW,2541,-34.8560333,150.596588,3,1,1,ApartmentUnitFlat,Apartment / Unit / Flat,False,387,m2,False
2017933489,listing,/22-adele-close-nowra-nsw-2541-2017933489,930000,is-sold,Sold by private treaty 17 Aug 2022,20220817,22 Adele Close,NOWRA,NSW,2541,-34.8948975,150.610931,6,3,2,SemiDetached,Semi-Detached,False,504,m2,False
2017936236,listing,/1-2-19-keft-avenue-nowra-nsw-2541-2017936236,645000,is-sold,Sold by private treaty 22 Aug 2022,20220822,1 & 2/19 Keft Avenue,NOWRA,NSW,2541,-34.8703842,150.5996,3,2,2,House,House,False,455,m2,False
2017941097,listing,/30-banool-circuit-bomaderry-nsw-2541-2017941097,1000000,is-sold,Sold by private treaty 25 Aug 2022,20220825,30 Banool Circuit,BOMADERRY,NSW,2541,-34.83622,150.612244,4,2,2,House,House,False,1002,m2,False
2017946868,listing,/278-illaroo-road-north-nowra-nsw-2541-2017946868,850000,is-sold,Sold by private treaty 12 Aug 2022,20220812,278 Illaroo Road,NORTH NOWRA,NSW,2541,-34.84748,150.575836,4,3,2,House,House,False,809,m2,False
2017946869,listing,/278-illaroo-road-north-nowra-nsw-2541-2017946869,850000,is-sold,Sold by private treaty 22 Aug 2022,20220822,278 Illaroo Road,NORTH NOWRA,NSW,2541,-34.84748,150.575836,4,3,2,House,House,False,809,m2,False
2017950250,listing,/169a-old-southern-road-south-nowra-nsw-2541-2017950250,670000,is-sold,Sold by private treaty 26 Aug 2022,20220826,169a Old Southern Road,SOUTH NOWRA,NSW,2541,-34.901062,150.615829,3,2,1,House,House,False,1097,m2,False
2017969316,listing,/38a-adele-close-nowra-nsw-2541-2017969316,,is-sold,Sold by private treaty 19 Aug 2022,20220819,38A Adele Close,NOWRA,NSW,2541,-34.8950539,150.612167,3,2,1,House,House,False,691,m2,False
2017980089,listing,/5-clipper-road-nowra-nsw-2541-2017980089,490000,is-sold,Sold by private treaty 26 Aug 2022,20220826,5 Clipper Road,NOWRA,NSW,2541,-34.89067,150.61615,3,1,,House,House,False,566,m2,False
2017982594,listing,/1-wilari-close-bomaderry-nsw-2541-2017982594,890000,is-sold,Sold by private treaty 22 Aug 2022,20220822,1 Wilari Close,BOMADERRY,NSW,2541,-34.8366737,150.6059,4,3,3,House,House,False,1199,m2,False
2018037326,listing,/18-freesia-crescent-bomaderry-nsw-2541-2018037326,860000,is-sold,Sold by private treaty 26 Aug 2022,20220826,18 Freesia Crescent,BOMADERRY,NSW,2541,-34.8360558,150.598648,3,2,2,House,House,False,737,m2,False
2017326777,listing,/8-west-street-nowra-nsw-2541-2017326777,700000,is-sold,Sold by private treaty 09 Aug 2022,20220809,8 West Street,NOWRA,NSW,2541,-34.8726425,150.593842,3,2,1,House,House,False,607,m2,False
2017706314,listing,/11-huxley-street-nowra-nsw-2541-2017706314,620000,is-sold,Sold by private treaty 03 Aug 2022,20220803,11 Huxley Street,NOWRA,NSW,2541,-34.8804169,150.595581,2,1,,House,House,False,480,m2,False
2017775767,listing,/2-westborne-drive-nowra-nsw-2541-2017775767,730000,is-sold,Sold by private treaty 29 Jul 2022,20220729,2 Westborne Drive,NOWRA,NSW,2541,-34.8863678,150.594055,4,2,2,House,House,False,470,m2,False
2017787267,listing,/10-jarrett-close-north-nowra-nsw-2541-2017787267,670000,is-sold,Sold by private treaty 05 Aug 2022,20220805,10 Jarrett Close,NORTH NOWRA,NSW,2541,-34.862072,150.587219,3,2,1,House,House,False,694,m2,False
2017833303,listing,/9-bisdee-place-nowra-nsw-2541-2017833303,635000,is-sold,Sold by private treaty 28 Jul 2022,20220728,9 Bisdee Place,NOWRA,NSW,2541,-34.887394,150.61441,4,2,1,House,House,False,671,m2,False
2017837196,listing,/3-1a-anderson-avenue-nowra-nsw-2541-2017837196,412500,is-sold,Sold by private treaty 29 Jul 2022,20220729,3/1a Anderson Avenue,NOWRA,NSW,2541,-34.87467,150.5971,2,1,1,ApartmentUnitFlat,Apartment / Unit / Flat,False,0,m2,False
2017871838,listing,/16-allison-avenue-nowra-nsw-2541-2017871838,530000,is-sold,Sold by private treaty 12 Aug 2022,20220812,16 Allison Avenue,NOWRA,NSW,2541,-34.8866158,150.615189,3,2,1,House,House,False,664,m2,False
2017884892,listing,/161-osborne-street-nowra-nsw-2541-2017884892,815000,is-sold,Sold by private treaty 10 Aug 2022,20220810,161 Osborne Street,NOWRA,NSW,2541,-34.8834839,150.595978,5,3,1,House,House,False,847,m2,False
2017888218,listing,/6-42-plunkett-street-nowra-nsw-2541-2017888218,465000,is-sold,Sold by private treaty 09 Aug 2022,20220809,6/42 Plunkett Street,NOWRA,NSW,2541,-34.8782349,150.596313,2,1,1,ApartmentUnitFlat,Apartment / Unit / Flat,False,0,m2,False
2017894113,listing,/73-bunberra-street-bomaderry-nsw-2541-2017894113,495000,is-sold,Sold by private treaty 02 Aug 2022,20220802,73 Bunberra Street,BOMADERRY,NSW,2541,-34.84962,150.60025,3,1,2,House,House,False,689,m2,False
2017898460,listing,/15-49-brinawarr-street-bomaderry-nsw-2541-2017898460,465000,is-sold,Sold by private treaty 01 Aug 2022,20220801,15/49 Brinawarr Street,BOMADERRY,NSW,2541,-34.8525925,150.602249,2,1,1,House,House,False,0,m2,False
2017900191,listing,/24-firetail-street-south-nowra-nsw-2541-2017900191,1030000,is-sold,Sold by private treaty 27 Jul 2022,20220727,24 Firetail Street,SOUTH NOWRA,NSW,2541,-34.91321,150.612854,4,2,2,House,House,False,757,m2,False
2017902415,listing,/108-pitt-street-north-nowra-nsw-2541-2017902415,570000,is-sold,Sold by private treaty 29 Jul 2022,20220729,108 Pitt Street,NORTH NOWRA,NSW,2541,-34.85932,150.569077,3,2,3,House,House,False,720,m2,False
2017905763,listing,/27-dalwah-street-bomaderry-nsw-2541-2017905763,760000,is-sold,Sold by private treaty 04 Aug 2022,20220804,27 Dalwah Street,BOMADERRY,NSW,2541,-34.85389,150.606491,3,1,1,House,House,False,1011,m2,False
2017909993,listing,/7-halcot-avenue-north-nowra-nsw-2541-2017909993,730000,is-sold,Sold by private treaty 10 Aug 2022,20220810,7 Halcot Avenue,NORTH NOWRA,NSW,2541,-34.8541222,150.582642,3,1,2,House,House,False,885,m2,False
2017921308,listing,/445-princes-highway-bomaderry-nsw-2541-2017921308,745000,is-sold,Sold by private treaty 11 Aug 2022,20220811,445 Princes Highway,BOMADERRY,NSW,2541,-34.854538,150.597458,3,2,1,House,House,False,1151,m2,False
2017927920,listing,/74-jasmine-drive-bomaderry-nsw-2541-2017927920,650000,is-sold,Sold by private treaty 01 Aug 2022,20220801,74 Jasmine Drive,BOMADERRY,NSW,2541,-34.83603,150.602173,3,1,1,House,House,False,455,m2,False
2017928445,listing,/49b-chittick-avenue-north-nowra-nsw-2541-2017928445,850000,is-sold,Sold prior to auction 27 Jul 2022,20220727,49B Chittick Avenue,NORTH NOWRA,NSW,2541,-34.84829,150.5759,3,2,2,House,House,False,452,m2,False
2017937330,listing,/6-11-purdie-crescent-nowra-nsw-2541-2017937330,420000,is-sold,Sold by private treaty 04 Aug 2022,20220804,6/11 Purdie Crescent,NOWRA,NSW,2541,-34.890976,150.599869,2,1,1,House,House,False,360,m2,False
2017945562,listing,/8-paruna-place-north-nowra-nsw-2541-2017945562,950000,is-sold,Sold by private treaty 12 Aug 2022,20220812,8 Paruna Place,NORTH NOWRA,NSW,2541,-34.86386,150.5855,4,2,2,House,House,False,1107,m2,False
2017594099,listing,/53-quinns-lane-south-nowra-nsw-2541-2017594099,750000,is-sold,Sold by private treaty 14 Jul 2022,20220714,53 Quinns Lane,SOUTH NOWRA,NSW,2541,-34.90763,150.609848,3,1,1,House,House,True,1.62,ha,False
2017608814,listing,/13-young-avenue-nowra-nsw-2541-2017608814,550000,is-sold,Sold by private treaty 14 Jul 2022,20220714,13 Young Avenue,NOWRA,NSW,2541,-34.8870468,150.6099,3,1,1,House,House,False,531,m2,False
2017735745,listing,/9-halstead-place-bomaderry-nsw-2541-2017735745,1450000,is-sold,Sold by private treaty 15 Jul 2022,20220715,9 Halstead Place,BOMADERRY,NSW,2541,-34.8336945,150.604767,6,5,6,House,House,False,4936,m2,False
2017738360,listing,/137-262-princes-highway-bomaderry-nsw-2541-2017738360,410000,is-sold,Sold by private treaty 08 Jul 2022,20220708,137/262 Princes Highway,BOMADERRY,NSW,2541,-34.83931,150.595734,2,1,2,House,House,False,0,m2,True
2017747820,listing,/28-salisbury-drive-nowra-nsw-2541-2017747820,660000,is-sold,Sold by private treaty 12 Jul 2022,20220712,28 Salisbury Drive,NOWRA,NSW,2541,-34.88825,150.615326,3,1,2,House,House,False,682,m2,False
2017751056,listing,/70a-shoalhaven-street-nowra-nsw-2541-2017751056,675000,is-sold,Sold by private treaty 19 Jul 2022,20220719,70A Shoalhaven Street,NOWRA,NSW,2541,-34.87281,150.596558,3,1,1,House,House,False,412,m2,False
2017775397,listing,/1-6-campbell-place-nowra-nsw-2541-2017775397,360000,is-sold,Sold by private treaty 25 Jul 2022,20220725,1/6 Campbell Place,NOWRA,NSW,2541,-34.8714867,150.606445,2,1,1,ApartmentUnitFlat,Apartment / Unit / Flat,False,0,m2,False
2017781491,listing,/4-49-brinawarr-street-bomaderry-nsw-2541-2017781491,460000,is-sold,Sold by private treaty 08 Jul 2022,20220708,4/49 Brinawarr Street,BOMADERRY,NSW,2541,-34.8525925,150.602249,2,1,1,Villa,Villa,False,174,m2,False
2017806314,listing,/119-berry-street-nowra-nsw-2541-2017806314,715000,is-sold,Sold by private treaty 18 Jul 2022,20220718,119 Berry Street,NOWRA,NSW,2541,-34.88258,150.598648,3,1,1,House,House,False,835,m2,False
2017817347,listing,/8-spain-street-north-nowra-nsw-2541-2017817347,642000,is-sold,Sold by private treaty 18 Jul 2022,20220718,8 Spain Street,NORTH NOWRA,NSW,2541,-34.8578949,150.578278,3,1,3,House,House,False,733,m2,False
2017819398,listing,/53-depot-road-west-nowra-nsw-2541-2017819398,750000,is-sold,Sold by private treaty 21 Jul 2022,20220721,53 Depot Road,WEST NOWRA,NSW,2541,-34.886776,150.58667,3,2,3,House,House,False,792,m2,False
2017827424,listing,/38-mckay-street-nowra-nsw-2541-2017827424,520000,is-sold,Sold by private treaty 08 Jul 2022,20220708,38 McKay Street,NOWRA,NSW,2541,-34.8919,150.613785,2,1,1,House,House,False,569,m2,False
2017858164,listing,/5-elder-crescent-nowra-nsw-2541-2017858164,650000,is-sold,Sold by private treaty 21 Jul 2022,20220721,5 Elder Crescent,NOWRA,NSW,2541,-34.8914337,150.604126,3,2,,House,House,False,677,m2,False
2017860317,listing,/5-caroola-parade-north-nowra-nsw-2541-2017860317,660000,is-sold,Sold by private treaty 08 Jul 2022,20220708,5 Caroola Parade,NORTH NOWRA,NSW,2541,-34.8607635,150.578552,4,2,2,House,House,False,652,m2,False
2017865090,listing,/11-tarraba-crescent-nowra-nsw-2541-2017865090,695000,is-sold,Sold by private treaty 15 Jul 2022,20220715,11 Tarraba Crescent,NOWRA,NSW,2541,-34.8882637,150.618378,4,2,1,House,House,False,715,m2,False
2017867955,listing,/61-shoalhaven-street-nowra-nsw-2541-2017867955,912500,is-sold,Sold by private treaty 14 Jul 2022,20220714,61 Shoalhaven Street,NOWRA,NSW,2541,-34.8721352,150.595779,4,4,6,House,House,False,809,m2,False
2017870913,listing,/1-64-berry-street-nowra-nsw-2541-2017870913,390000,is-sold,Sold by private treaty 20 Jul 2022,20220720,1/64 Berry Street,NOWRA,NSW,2541,-34.8770332,150.600464,2,1,1,ApartmentUnitFlat,Apartment / Unit / Flat,False,0,m2,False
2017901407,listing,/4-halstead-place-bomaderry-nsw-2541-2017901407,1450000,is-sold,Sold by private treaty 25 Jul 2022,20220725,4 Halstead Place,BOMADERRY,NSW,2541,-34.83284,150.604813,5,2,5,House,House,False,5591,m2,False
2017934246,listing,/59-bowerbird-street-south-nowra-nsw-2541-2017934246,865000,is-sold,Sold by private treaty 25 Jul 2022,20220725,59 Bowerbird Street,SOUTH NOWRA,NSW,2541,-34.91476,150.611862,4,2,5,House,House,False,775,m2,False
2017946565,listing,/5-federation-place-north-nowra-nsw-2541-2017946565,745000,is-sold,Sold by private treaty 08 Jul 2022,20220708,5 Federation Place,NORTH NOWRA,NSW,2541,-34.85678,150.584488,3,2,2,House,House,False,519,m2,False
2017608257,listing,/26-barramundi-avenue-north-nowra-nsw-2541-2017608257,635000,is-sold,Sold by private treaty 30 Jun 2022,20220630,26 Barramundi Avenue,NORTH NOWRA,NSW,2541,-34.85894,150.573746,3,1,1,House,House,False,562,m2,False
2017680888,listing,/70-bolong-road-bomaderry-nsw-2541-2017680888,725000,is-sold,Sold by private treaty 30 Jun 2022,20220630,70 Bolong Road,BOMADERRY,NSW,2541,-34.8592873,150.6038,4,1,2,House,House,False,1359,m2,False
2017704912,listing,/195-197-kinghorne-street-nowra-nsw-2541-2017704912,920000,is-sold,Sold by private treaty 07 Jul 2022,20220707,195 & 197 Kinghorne Street,NOWRA,NSW,2541,-34.889267,150.600937,,,,VacantLand,Vacant land,False,1355,m2,False
2017714009,listing,/79-bowerbird-street-south-nowra-nsw-2541-2017714009,770000,is-sold,Sold by private treaty 06 Jul 2022,20220706,79 Bowerbird Street,SOUTH NOWRA,NSW,2541,-34.9164352,150.611572,4,2,2,House,House,False,780,m2,False
2017715235,listing,/10b-albatross-road-nowra-nsw-2541-2017715235,740000,is-sold,Sold by private treaty 28 Jun 2022,20220628,10B Albatross Road,NOWRA,NSW,2541,-34.887928,150.5995,4,2,2,House,House,False,0,m2,False
2017716027,listing,/31-osprey-road-south-nowra-nsw-2541-2017716027,870000,is-sold,Sold by private treaty 01 Jul 2022,20220701,31 Osprey Road,SOUTH NOWRA,NSW,2541,-34.9163475,150.612534,4,2,2,House,House,False,741,m2,False
2017740778,listing,/14-burr-avenue-nowra-nsw-2541-2017740778,700000,is-sold,Sold by private treaty 01 Jul 2022,20220701,14 Burr Avenue,NOWRA,NSW,2541,-34.8776627,150.598953,2,1,4,House,House,False,607,m2,False
2017752096,listing,/7-ringbalin-crescent-bomaderry-nsw-2541-2017752096,670000,is-sold,Sold by private treaty 22 Jun 2022,20220622,7 Ringbalin Crescent,BOMADERRY,NSW,2541,-34.8509369,150.5986,3,1,1,House,House,False,866,m2,False
2017790611,listing,/25-golden-cane-avenue-north-nowra-nsw-2541-2017790611,750000,is-sold,Sold by private treaty 01 Jul 2022,20220701,25 Golden Cane Avenue,NORTH NOWRA,NSW,2541,-34.849453,150.573608,3,1,1,House,House,False,920,m2,False
2017796095,listing,/45-salisbury-drive-nowra-nsw-2541-2017796095,610000,is-sold,Sold by private treaty 23 Jun 2022,20220623,45 Salisbury Drive,NOWRA,NSW,2541,-34.88711,150.616913,3,1,2,House,House,False,651,m2,False
2017801494,listing,/107-st-anns-street-nowra-nsw-2541-2017801494,660000,is-sold,Sold by private treaty 30 Jun 2022,20220630,107 St Anns Street,NOWRA,NSW,2541,-34.8854065,150.608963,3,2,2,House,House,False,568,m2,False
2017810413,listing,/18-elia-avenue-nowra-nsw-2541-2017810413,801000,is-sold,Sold by private treaty 24 Jun 2022,20220624,18 Elia Avenue,NOWRA,NSW,2541,-34.866272,150.605942,4,2,2,House,House,False,845,m2,False
2017824091,listing,/230-illaroo-road-north-nowra-nsw-2541-2017824091,930000,is-sold,Sold by private treaty 30 Jun 2022,20220630,230 Illaroo Road,NORTH NOWRA,NSW,2541,-34.8524246,150.5792,4,2,,House,House,False,1382,m2,False
2017838938,listing,/6-gladioli-vista-bomaderry-nsw-2541-2017838938,1630000,is-sold,Sold at auction 07 Jul 2022,20220707,6 Gladioli Vista,BOMADERRY,NSW,2541,-34.8346825,150.589645,4,2,3,House,House,False,3056,m2,False
2017844055,listing,/125-berry-street-nowra-nsw-2541-2017844055,745000,is-sold,Sold at auction 06 Jul 2022,20220706,125 Berry Street,NOWRA,NSW,2541,-34.88331,150.598282,3,1,1,House,House,False,653,m2,False
2017852117,listing,/433c-princes-highway-bomaderry-nsw-2541-2017852117,849000,is-sold,Sold by private treaty 01 Jul 2022,20220701,433C Princes Highway,BOMADERRY,NSW,2541,-34.8534,150.596069,4,2,2,House,House,False,705,m2,False
2017852817,listing,/1-beyeri-avenue-west-nowra-nsw-2541-2017852817,610000,is-sold,Sold by private treaty 04 Jul 2022,20220704,1 Beyeri Avenue,WEST NOWRA,NSW,2541,-34.88725,150.583481,3,1,1,House,House,False,738,m2,False
2017862229,listing,/1-crosby-place-bomaderry-nsw-2541-2017862229,860000,is-sold,Sold by private treaty 01 Jul 2022,20220701,1 Crosby Place,BOMADERRY,NSW,2541,-34.8378868,150.603638,4,2,2,House,House,False,802,m2,False
2017862583,listing,/22-22a-alpina-place-south-nowra-nsw-2541-2017862583,825000,is-sold,Sold by private treaty 01 Jul 2022,20220701,22 & 22a Alpina Place,SOUTH NOWRA,NSW,2541,-34.904808,150.617569,4,2,2,House,House,False,628,m2,False
2017895526,listing,/15-kardella-avenue-nowra-nsw-2541-2017895526,900000,is-sold,Sold by private treaty 05 Jul 2022,20220705,15 Kardella Avenue,NOWRA,NSW,2541,-34.8930435,150.619385,4,2,2,House,House,False,622,m2,False
2017404434,listing,/2-61-kinghorne-street-nowra-nsw-2541-2017404434,800000,is-sold,Sold by private treaty 22 Jun 2022,20220622,2/61 Kinghorne Street,NOWRA,NSW,2541,-34.89413,150.6029,2,2,1,ApartmentUnitFlat,Apartment / Unit / Flat,False,0,m2,False
2017623954,listing,/30-tartarian-crescent-bomaderry-nsw-2541-2017623954,1775000,is-sold,Sold by private treaty 21 Jun 2022,20220621,30 Tartarian Crescent,BOMADERRY,NSW,2541,-34.8355637,150.5891,4,2,2,House,House,False,4175,m2,False
2017643601,listing,/135-berry-street-nowra-nsw-2541-2017643601,773000,is-sold,Sold by private treaty 07 Jun 2022,20220607,135 Berry Street,NOWRA,NSW,2541,-34.8842545,150.598282,4,3,,House,House,False,657,m2,False
2017653267,listing,/67-kalandar-street-nowra-nsw-2541-2017653267,510000,is-sold,Sold by private treaty 06 Jun 2022,20220606,67 Kalandar Street,NOWRA,NSW,2541,-34.8872871,150.60408,3,1,1,House,House,False,550,m2,False
2017687251,listing,/47-yalwal-road-west-nowra-nsw-2541-2017687251,670000,is-sold,Sold by private treaty 17 Jun 2022,20220617,47 Yalwal Road,WEST NOWRA,NSW,2541,-34.892334,150.58757,3,1,3,House,House,False,734,m2,False
2017706498,listing,/16-maybush-way-west-nowra-nsw-2541-2017706498,625000,is-sold,Sold by private treaty 14 Jun 2022,20220614,16 Maybush Way,WEST NOWRA,NSW,2541,-34.88882,150.5874,3,1,,House,House,False,740,m2,False
2017758300,listing,/35b-tarawal-street-bomaderry-nsw-2541-2017758300,620000,is-sold,Sold by private treaty 10 Jun 2022,20220610,35B Tarawal Street,BOMADERRY,NSW,2541,-34.8505135,150.600677,3,1,2,House,House,False,409,m2,False
2017774420,listing,/11-76-brinawarr-street-bomaderry-nsw-2541-2017774420,520000,is-sold,Sold by private treaty 06 Jun 2022,20220606,11/76 Brinawarr Street,BOMADERRY,NSW,2541,-34.8575821,150.601227,2,1,1,ApartmentUnitFlat,Apartment / Unit / Flat,False,0,m2,False
2017802616,listing,/23-jasmine-drive-bomaderry-nsw-2541-2017802616,900000,is-sold,Sold by private treaty 15 Jun 2022,20220615,23 Jasmine Drive,BOMADERRY,NSW,2541,-34.8413734,150.598251,4,2,4,House,House,False,872,m2,False
2017804741,listing,/182-184-osborne-street-nowra-nsw-2541-2017804741,,is-sold,Sold by private treaty 20 Jun 2022,20220620,182 - 184 Osborne Street,NOWRA,NSW,2541,-34.88784,150.5957,3,2,2,House,House,False,1504,m2,False
2017809540,listing,/2-edwards-avenue-bomaderry-nsw-2541-2017809540,630000,is-sold,Sold by private treaty 07 Jun 2022,20220607,2 Edwards Avenue,BOMADERRY,NSW,2541,-34.83834,150.610565,3,2,2,House,House,False,613,m2,False
2017811695,listing,/66b-kalandar-street-nowra-nsw-2541-2017811695,685000,is-sold,Sold by private treaty 15 Jun 2022,20220615,66B Kalandar Street,NOWRA,NSW,2541,-34.88707,150.599167,3,2,1,House,House,False,438,m2,False
2017816066,listing,/10-429a-princes-highway-bomaderry-nsw-2541-2017816066,512500,is-sold,Sold by private treaty 17 Jun 2022,20220617,10/429A Princes Highway,BOMADERRY,NSW,2541,-34.8530579,150.597046,2,1,1,Townhouse,Townhouse,False,0,m2,False
2017819210,listing,/12-bunderra-drive-nowra-nsw-2541-2017819210,665000,is-sold,Sold by private treaty 22 Jun 2022,20220622,12 Bunderra Drive,NOWRA,NSW,2541,-34.89076,150.602768,3,2,2,House,House,False,740,m2,False
2017822865,listing,/11-alfred-street-bomaderry-nsw-2541-2017822865,610000,is-sold,Sold by private treaty 09 Jun 2022,20220609,11 Alfred Street,BOMADERRY,NSW,2541,-34.84005,150.614655,3,1,1,House,House,False,670,m2,False
2017835199,listing,/15-daley-crescent-north-nowra-nsw-2541-2017835199,950000,is-sold,Sold by private treaty 20 Jun 2022,20220620,15 Daley Crescent,NORTH NOWRA,NSW,2541,-34.86223,150.591385,3,1,1,House,House,False,689,m2,False
2017854746,listing,/43-mulgen-crescent-bomaderry-nsw-2541-2017854746,655000,is-sold,Sold by private treaty 20 Jun 2022,20220620,43 Mulgen Crescent,BOMADERRY,NSW,2541,-34.8483772,150.609482,3,1,1,House,House,False,683,m2,False
2017873966,listing,/6-hobart-street-nowra-nsw-2541-2017873966,500000,is-sold,Sold by private treaty 22 Jun 2022,20220622,6 Hobart Street,NOWRA,NSW,2541,-34.8902245,150.613113,3,1,1,House,House,False,563,m2,False
2017889789,listing,/2-61-kinghorne-street-nowra-nsw-2541-2017889789,,is-sold,Sold by private treaty 22 Jun 2022,20220622,2/61 Kinghorne Street,NOWRA,NSW,2541,-34.89413,150.6029,2,2,1,ApartmentUnitFlat,Apartment / Unit / Flat,False,0,m2,False
2017994495,listing,/12-adele-close-nowra-nsw-2541-2017994495,711000,is-sold,Sold by private treaty 08 Jun 2022,20220608,12 Adele Close,NOWRA,NSW,2541,-34.8948975,150.610931,4,2,2,House,House,False,503,m2,False
2017626728,listing,/1b-caladenia-crescent-south-nowra-nsw-2541-2017626728,765000,is-sold,Sold by private treaty 02 Jun 2022,20220602,1B Caladenia Crescent,SOUTH NOWRA,NSW,2541,-34.90736,150.61734,4,2,2,House,House,False,411,m2,False
2017635625,listing,/158-wallace-street-nowra-nsw-2541-2017635625,515000,is-sold,Sold by private treaty 23 May 2022,20220523,158 Wallace Street,NOWRA,NSW,2541,-34.89138,150.607346,4,1,1,House,House,False,575,m2,False
2017637877,listing,/38b-adele-close-nowra-nsw-2541-2017637877,710000,is-sold,Sold by private treaty 27 May 2022,20220527,38B Adele Close,NOWRA,NSW,2541,-34.8950539,150.612137,3,2,1,House,House,False,691,m2,False
2017673923,listing,/11-mcdonald-avenue-nowra-nsw-2541-2017673923,730000,is-sold,Sold by private treaty 20 May 2022,20220520,11 McDonald Avenue,NOWRA,NSW,2541,-34.8903427,150.597916,4,2,1,House,House,False,613,m2,False
2017695185,listing,/359-princes-highway-bomaderry-nsw-2541-2017695185,650000,is-sold,Sold by private treaty 03 Jun 2022,20220603,359 Princes Highway,BOMADERRY,NSW,2541,-34.8471947,150.595337,4,1,1,House,House,False,1214,m2,False
2017702964,listing,/10-regent-place-bomaderry-nsw-2541-2017702964,625000,is-sold,Sold by private treaty 31 May 2022,20220531,10 Regent Place,BOMADERRY,NSW,2541,-34.83597,150.604065,3,1,1,House,House,False,398,m2,False
2017715217,listing,/11-caroola-parade-north-nowra-nsw-2541-2017715217,690000,is-sold,Sold by private treaty 19 May 2022,20220519,11 Caroola Parade,NORTH NOWRA,NSW,2541,-34.86124,150.578415,3,1,1,House,House,False,652,m2,False
2017731049,listing,/17-worrigee-street-nowra-nsw-2541-2017731049,1050000,is-sold,Sold by private treaty 01 Jun 2022,20220601,17 Worrigee Street,NOWRA,NSW,2541,-34.8751678,150.594147,4,1,5,House,House,False,1119,m2,False
2017743346,listing,/11-regent-place-bomaderry-nsw-2541-2017743346,815000,is-sold,Sold by private treaty 20 May 2022,20220520,11 Regent Place,BOMADERRY,NSW,2541,-34.8358078,150.604263,3,2,2,House,House,False,800,m2,False
2017754580,listing,/24-jasmine-drive-bomaderry-nsw-2541-2017754580,925000,is-sold,Sold by private treaty 31 May 2022,20220531,24 Jasmine Drive,BOMADERRY,NSW,2541,-34.8413048,150.598831,4,3,2,House,House,False,689,m2,False
2017761327,listing,/7-jindalee-crescent-nowra-nsw-2541-2017761327,850000,is-sold,Sold by private treaty 31 May 2022,20220531,7 Jindalee Crescent,NOWRA,NSW,2541,-34.8965225,150.614685,3,2,2,House,House,False,635,m2,False
2017769239,listing,/8-sandstone-place-bangalee-nsw-2541-2017769239,2625000,is-sold,Sold at auction 19 May 2022,20220519,8 Sandstone Place,BANGALEE,NSW,2541,-34.8368568,150.549088,5,4,6,House,House,False,4098,m2,False
2017787634,listing,/11-rannoch-drive-west-nowra-nsw-2541-2017787634,705000,is-sold,Sold by private treaty 24 May 2022,20220524,11 Rannoch Drive,WEST NOWRA,NSW,2541,-34.894104,150.581772,3,1,1,House,House,False,760,m2,False
2017794103,listing,/10-penrose-drive-bomaderry-nsw-2541-2017794103,695000,is-sold,Sold by private treaty 03 Jun 2022,20220603,10 Penrose Drive,BOMADERRY,NSW,2541,-34.83872,150.609161,3,1,1,House,House,False,689,m2,False
2017794181,listing,/2-moresby-street-nowra-nsw-2541-2017794181,555000,is-sold,Sold by private treaty 01 Jun 2022,20220601,2 Moresby Street,NOWRA,NSW,2541,-34.8932533,150.610123,3,1,2,House,House,False,594,m2,False
2017800916,listing,/81-lyndhurst-drive-bomaderry-nsw-2541-2017800916,800000,is-sold,Sold by private treaty 03 Jun 2022,20220603,81 Lyndhurst Drive,BOMADERRY,NSW,2541,-34.8387222,150.605316,4,2,1,House,House,False,678,m2,False
2017801703,listing,/18b-elian-crescent-south-nowra-nsw-2541-2017801703,655000,is-sold,Sold by private treaty 31 May 2022,20220531,18B Elian Crescent,SOUTH NOWRA,NSW,2541,-34.9070168,150.61116,3,2,2,House,House,False,364,m2,False
2017806623,listing,/33-278-280-princes-highway-bomaderry-nsw-2541-2017806623,,is-sold,Sold by private treaty 30 May 2022,20220530,33/278-280 Princes Highway,BOMADERRY,NSW,2541,-34.8408546,150.594879,2,1,1,House,House,False,130,m2,True
2017819408,listing,/8-mandalay-avenue-nowra-nsw-2541-2017819408,870000,is-sold,Sold by private treaty 31 May 2022,20220531,8 Mandalay Avenue,NOWRA,NSW,2541,-34.8671761,150.59819,4,3,4,House,House,False,569,m2,False
2017824219,listing,/1-27-bowada-street-bomaderry-nsw-2541-2017824219,450000,is-sold,Sold by private treaty 23 May 2022,20220523,1/27 Bowada Street,BOMADERRY,NSW,2541,-34.85669,150.602768,2,1,1,ApartmentUnitFlat,Apartment / Unit / Flat,False,0,m2,False
2017423594,listing,/12-uranna-avenue-north-nowra-nsw-2541-2017423594,840000,is-sold,Sold by private treaty 09 May 2022,20220509,12 Uranna Avenue,NORTH NOWRA,NSW,2541,-34.8555069,150.583542,4,2,2,House,House,False,959,m2,False
2017449552,listing,/2-arilla-street-nowra-nsw-2541-2017449552,720000,is-sold,Sold by private treaty 06 May 2022,20220506,2 Arilla Street,NOWRA,NSW,2541,-34.8980446,150.617371,3,2,2,House,House,False,368,m2,False
2017602071,listing,/19-meroo-street-bomaderry-nsw-2541-2017602071,1100000,is-sold,Sold by private treaty 12 May 2022,20220512,19 Meroo Street,BOMADERRY,NSW,2541,-34.8516655,150.610046,2,1,1,House,House,False,809,m2,False
2017676790,listing,/7-5-david-place-bomaderry-nsw-2541-2017676790,445000,is-sold,Sold by private treaty 18 May 2022,20220518,7/5 David Place,BOMADERRY,NSW,2541,-34.841732,150.604309,2,1,1,House,House,False,182,m2,False
2017679676,listing,/32-banool-circuit-bomaderry-nsw-2541-2017679676,1650000,is-sold,Sold by private treaty 12 May 2022,20220512,32 Banool Circuit,BOMADERRY,NSW,2541,-34.8360138,150.6122,5,3,6,House,House,False,962,m2,False
2017689234,listing,/25-mcdonald-avenue-nowra-nsw-2541-2017689234,660000,is-sold,Sold by private treaty 09 May 2022,20220509,25 McDonald Avenue,NOWRA,NSW,2541,-34.8918381,150.598389,3,1,1,House,House,False,704,m2,False
2017689659,listing,/5-ryan-avenue-nowra-nsw-2541-2017689659,730000,is-sold,Sold by private treaty 09 May 2022,20220509,5 Ryan Avenue,NOWRA,NSW,2541,-34.8854523,150.601822,3,1,3,House,House,False,727,m2,False
2017701106,listing,/118-salisbury-drive-nowra-nsw-2541-2017701106,590000,is-sold,Sold by private treaty 06 May 2022,20220506,118 Salisbury Drive,NOWRA,NSW,2541,-34.8831177,150.614014,3,1,2,House,House,False,714,m2,False
2017714803,listing,/76-illaroo-road-north-nowra-nsw-2541-2017714803,572000,is-sold,Sold by private treaty 13 May 2022,20220513,76 Illaroo Road,NORTH NOWRA,NSW,2541,-34.86106,150.591888,2,1,1,House,House,False,670,m2,False
2017718353,listing,/29-burradoo-crescent-nowra-nsw-2541-2017718353,785000,is-sold,Sold by private treaty 06 May 2022,20220506,29 Burradoo Crescent,NOWRA,NSW,2541,-34.89108,150.6203,4,2,2,House,House,False,720,m2,False
2017718360,listing,/16-nita-place-bomaderry-nsw-2541-2017718360,657000,is-sold,Sold by private treaty 09 May 2022,20220509,16 Nita Place,BOMADERRY,NSW,2541,-34.8533936,150.600586,3,1,1,House,House,False,711,m2,False
2017730699,listing,/16-spain-street-north-nowra-nsw-2541-2017730699,710000,is-sold,Sold by private treaty 11 May 2022,20220511,16 Spain Street,NORTH NOWRA,NSW,2541,-34.85858,150.578186,3,1,2,House,House,False,710,m2,False
2017734729,listing,/24-elder-crescent-nowra-nsw-2541-2017734729,693000,is-sold,Sold by private treaty 05 May 2022,20220505,24 Elder Crescent,NOWRA,NSW,2541,-34.8918152,150.606766,3,1,1,House,House,False,658,m2,False
2017740137,listing,/4-lucas-street-north-nowra-nsw-2541-2017740137,778000,is-sold,Sold by private treaty 10 May 2022,20220510,4 Lucas Street,NORTH NOWRA,NSW,2541,-34.86289,150.567673,3,2,1,House,House,False,675,m2,False
2017749452,listing,/26-barwon-street-bomaderry-nsw-2541-2017749452,730000,is-sold,Sold by private treaty 06 May 2022,20220506,26 Barwon Street,BOMADERRY,NSW,2541,-34.8477478,150.597549,3,2,3,House,House,False,753,m2,False
2017752259,listing,/92-yalwal-road-west-nowra-nsw-2541-2017752259,640000,is-sold,Sold by private treaty 06 May 2022,20220506,92 Yalwal Road,WEST NOWRA,NSW,2541,-34.89241,150.581909,4,1,2,House,House,False,765,m2,False
2017794776,listing,/21-meroo-coomea-street-bomaderry-nsw-2541-2017794776,1650000,is-sold,Sold by private treaty 13 May 2022,20220513,21 Meroo & Coomea Street,BOMADERRY,NSW,2541,-34.85186,150.6101,5,3,2,House,House,False,1618,m2,False
2017819030,listing,/76-illaroo-road-north-nowra-nsw-2541-2017819030,572000,is-sold,Sold by private treaty 13 May 2022,20220513,76 Illaroo Road,NORTH NOWRA,NSW,2541,-34.86106,150.591888,2,1,1,House,House,False,670,m2,False
2017827982,listing,/131-jasmine-drive-bomaderry-nsw-2541-2017827982,925000,is-sold,Sold by private treaty 05 May 2022,20220505,131 Jasmine Drive,BOMADERRY,NSW,2541,-34.8347168,150.607956,4,2,2,House,House,False,839,m2,False
2017898332,listing,/5-huxley-street-nowra-nsw-2541-2017898332,880000,is-sold,Sold by private treaty 06 May 2022,20220506,5 Huxley Street,NOWRA,NSW,2541,-34.8803024,150.595078,4,2,2,House,House,False,619,m2,False
2017480564,listing,/1-31-jervis-street-nowra-nsw-2541-2017480564,795000,is-sold,Sold by private treaty 02 May 2022,20220502,1/31 Jervis Street,NOWRA,NSW,2541,-34.88201,150.5997,3,2,1,Villa,Villa,False,0,m2,False
2017482011,listing,/17-barramundi-avenue-north-nowra-nsw-2541-2017482011,757000,is-sold,Sold by private treaty 29 Apr 2022,20220429,17 Barramundi Avenue,NORTH NOWRA,NSW,2541,-34.858654,150.574158,4,2,1,House,House,False,558,m2,False
2017554262,listing,/39-walsh-cresent-north-nowra-nsw-2541-2017554262,700000,is-sold,Sold by private treaty 22 Apr 2022,20220422,39 Walsh Cresent,NORTH NOWRA,NSW,2541,-34.858284,150.5927,4,1,2,House,House,False,682,m2,False
2017601942,listing,/11-1a-shorland-place-nowra-nsw-2541-2017601942,307500,is-sold,Sold by private treaty 02 May 2022,20220502,11/1A Shorland Place,NOWRA,NSW,2541,-34.8847237,150.612564,2,1,1,ApartmentUnitFlat,Apartment / Unit / Flat,False,0,m2,False
2017615947,listing,/140-plunkett-street-nowra-nsw-2541-2017615947,560000,is-sold,Sold by private treaty 03 May 2022,20220503,140 Plunkett Street,NOWRA,NSW,2541,-34.8797035,150.608032,3,1,1,House,House,False,645,m2,False
2017622745,listing,/109-warren-avenue-north-nowra-nsw-2541-2017622745,775000,is-sold,Sold by private treaty 25 Apr 2022,20220425,109 Warren Avenue,NORTH NOWRA,NSW,2541,-34.8543663,150.586075,3,2,1,House,House,False,777,m2,False
2017640572,listing,/1-30-cavanagh-lane-west-nowra-nsw-2541-2017640572,660000,is-sold,Sold by private treaty 27 Apr 2022,20220427,1/30 Cavanagh Lane,WEST NOWRA,NSW,2541,-34.88831,150.583267,3,2,1,Villa,Villa,False,290,m2,False
2017643584,listing,/27-birriley-street-bomaderry-nsw-2541-2017643584,430000,is-sold,Sold by private treaty 04 May 2022,20220504,27 Birriley Street,BOMADERRY,NSW,2541,-34.8500824,150.606949,3,1,2,House,House,False,282,m2,False
2017668931,listing,/61-hillcrest-avenue-south-nowra-nsw-2541-2017668931,1330000,is-sold,Sold by private treaty 22 Apr 2022,20220422,61 Hillcrest Avenue,SOUTH NOWRA,NSW,2541,-34.89929,150.609711,4,2,2,House,House,False,3162,m2,False
2017678337,listing,/5-hockey-street-nowra-nsw-2541-2017678337,665000,is-sold,Sold by private treaty 29 Apr 2022,20220429,5 Hockey Street,NOWRA,NSW,2541,-34.8931,150.604156,3,1,1,House,House,False,664,m2,False
2017682436,listing,/2-alpina-place-south-nowra-nsw-2541-2017682436,705000,is-sold,Sold by private treaty 26 Apr 2022,20220426,2 Alpina Place,SOUTH NOWRA,NSW,2541,-34.90498,150.619263,3,2,2,House,House,False,629,m2,False
2017689238,listing,/6-leonard-street-bomaderry-nsw-2541-2017689238,510000,is-sold,Sold at auction 04 May 2022,20220504,6 Leonard Street,BOMADERRY,NSW,2541,-34.8448067,150.609848,3,1,1,House,House,False,657,m2,False
2017691110,listing,/5-huxley-street-nowra-nsw-2541-2017691110,880000,is-sold,Sold by private treaty 03 May 2022,20220503,5 Huxley Street,NOWRA,NSW,2541,-34.8803024,150.595078,4,2,2,House,House,False,619,m2,False
2017694281,listing,/55-coconut-drive-north-nowra-nsw-2541-2017694281,900000,is-sold,Sold by private treaty 02 May 2022,20220502,55 Coconut Drive,NORTH NOWRA,NSW,2541,-34.84993,150.571838,5,3,1,House,House,False,727,m2,False
2017696497,listing,/55-burradoo-crescent-nowra-nsw-2541-2017696497,841500,is-sold,Sold by private treaty 22 Apr 2022,20220422,55 Burradoo Crescent,NOWRA,NSW,2541,-34.890522,150.621552,4,2,2,House,House,False,700,m2,False
2017709311,listing,/227-kinghorne-street-nowra-nsw-2541-2017709311,655000,is-sold,Sold by private treaty 02 May 2022,20220502,227 Kinghorne Street,NOWRA,NSW,2541,-34.89226,150.601624,3,2,2,House,House,False,639,m2,False
2017725424,listing,/8-115-hillcrest-ave-south-nowra-nsw-2541-2017725424,629000,is-sold,Sold by private treaty 04 May 2022,20220504,8/115 Hillcrest Ave,SOUTH NOWRA,NSW,2541,-34.89966,150.615616,3,2,2,Villa,Villa,False,2702,m2,False
2017728698,listing,/west-nowra-nsw-2541-2017728698,675000,is-sold,Sold by private treaty 29 Apr 2022,20220429,,WEST NOWRA,NSW,2541,-34.8891449,150.585526,3,2,2,House,House,False,717,m2,False
2017736575,listing,/47-moss-street-nowra-nsw-2541-2017736575,1425000,is-sold,Sold by private treaty 03 May 2022,20220503,47 Moss Street,NOWRA,NSW,2541,-34.87198,150.606216,3,1,1,House,House,False,1301,m2,False
2017744006,listing,/20-seccombe-street-nowra-nsw-2541-2017744006,460000,is-sold,Sold by private treaty 22 Apr 2022,20220422,20 Seccombe Street,NOWRA,NSW,2541,-34.8877068,150.6122,3,1,1,House,House,False,607,m2,False
2017436770,listing,/2-64-brinawarr-street-bomaderry-nsw-2541-2017436770,585000,is-sold,Sold by private treaty 13 Apr 2022,20220413,2/64 Brinawarr Street,BOMADERRY,NSW,2541,-34.8564529,150.601822,3,2,2,Townhouse,Townhouse,False,0,m2,False
2017501168,listing,/183-kinghorne-street-nowra-nsw-2541-2017501168,520000,is-sold,Sold by private treaty 19 Apr 2022,20220419,183 Kinghorne Street,NOWRA,NSW,2541,-34.8883667,150.600586,2,1,,House,House,False,815,m2,False
2017520068,listing,/1-21-sutherland-drive-north-nowra-nsw-2541-2017520068,580000,is-sold,Sold by private treaty 07 Apr 2022,20220407,1/21 Sutherland Drive,NORTH NOWRA,NSW,2541,-34.8539734,150.588623,3,1,1,House,House,False,0,m2,False
2017539809,listing,/114-mcmahons-road-north-nowra-nsw-2541-2017539809,559000,is-sold,Sold by private treaty 19 Apr 2022,20220419,114 McMahons Road,NORTH NOWRA,NSW,2541,-34.8605766,150.572479,3,1,1,House,House,False,567,m2,False
2017549191,listing,/155-osborne-street-nowra-nsw-2541-2017549191,750000,is-sold,Sold by private treaty 11 Apr 2022,20220411,155 Osborne Street,NOWRA,NSW,2541,-34.8830376,150.596069,3,2,3,House,House,False,639,m2,False
2017555422,listing,/9-turnstone-vista-south-nowra-nsw-2541-2017555422,900000,is-sold,Sold by private treaty 21 Apr 2022,20220421,9 Turnstone Vista,SOUTH NOWRA,NSW,2541,-34.9135666,150.614059,4,2,2,House,House,False,569,m2,False
2017589536,listing,/7-evergreen-place-south-nowra-nsw-2541-2017589536,525000,is-sold,Sold by private treaty 19 Apr 2022,20220419,7 Evergreen Place,SOUTH NOWRA,NSW,2541,-34.9080353,150.611511,,,,VacantLand,Vacant land,False,719,m2,False
2017622102,listing,/2-ramsey-grove-bomaderry-nsw-2541-2017622102,720000,is-sold,Sold by private treaty 19 Apr 2022,20220419,2 Ramsey Grove,BOMADERRY,NSW,2541,-34.8419952,150.60994,4,1,1,House,House,False,645,m2,False
2017633455,listing,/18-burradoo-crescent-nowra-nsw-2541-2017633455,752500,is-sold,Sold by private treaty 11 Apr 2022,20220411,18 Burradoo Crescent,NOWRA,NSW,2541,-34.892025,150.620819,5,2,2,House,House,False,547,m2,False
2017637785,listing,/18-caroola-parade-north-nowra-nsw-2541-2017637785,710000,is-sold,Sold by private treaty 12 Apr 2022,20220412,18 Caroola Parade,NORTH NOWRA,NSW,2541,-34.8617439,150.578827,4,2,2,House,House,False,560,m2,False
2017660670,listing,/2-mcdonald-avenue-nowra-nsw-2541-2017660670,690000,is-sold,Sold by private treaty 21 Apr 2022,20220421,2 Mcdonald Avenue,NOWRA,NSW,2541,-34.8891678,150.5981,3,1,2,House,House,False,581,m2,False
2017674051,listing,/22-birriley-street-bomaderry-nsw-2541-2017674051,770000,is-sold,Sold by private treaty 14 Apr 2022,20220414,22 Birriley Street,BOMADERRY,NSW,2541,-34.8507271,150.607346,4,2,1,House,House,False,809,m2,False
2017674628,listing,/13-carrington-park-drive-nowra-nsw-2541-2017674628,820000,is-sold,Sold by private treaty 13 Apr 2022,20220413,13 Carrington Park Drive,NOWRA,NSW,2541,-34.8944931,150.620316,4,2,3,House,House,False,705,m2,False
2017680421,listing,/6-8a-rendal-avenue-north-nowra-nsw-2541-2017680421,485000,is-sold,Sold by private treaty 14 Apr 2022,20220414,6/8a Rendal Avenue,NORTH NOWRA,NSW,2541,-34.86185,150.585541,2,1,1,Villa,Villa,False,0,m2,False
2017684013,listing,/13-27-bowada-street-bomaderry-nsw-2541-2017684013,520000,is-sold,Sold by private treaty 14 Apr 2022,20220414,13/27 Bowada Street,BOMADERRY,NSW,2541,-34.8566742,150.602783,2,1,1,House,House,False,0,m2,False
2017686463,listing,/5-ernest-street-nowra-nsw-2541-2017686463,625000,is-sold,Sold by private treaty 19 Apr 2022,20220419,5 Ernest Street,NOWRA,NSW,2541,-34.88941,150.598557,4,2,1,House,House,False,626,m2,False
2017696803,listing,/2-19-sutherland-drive-north-nowra-nsw-2541-2017696803,570000,is-sold,Sold by private treaty 08 Apr 2022,20220408,2/19 Sutherland Drive,NORTH NOWRA,NSW,2541,-34.85394,150.58815,3,1,1,House,House,False,168,m2,False
2017716085,listing,/9-9a-candlebark-close-west-nowra-nsw-2541-2017716085,850000,is-sold,Sold by private treaty 19 Apr 2022,20220419,9 & 9A Candlebark Close,WEST NOWRA,NSW,2541,-34.8950653,150.583832,5,3,2,House,House,False,535,m2,False
2017726146,listing,/17-cavanagh-lane-west-nowra-nsw-2541-2017726146,680000,is-sold,Sold by private treaty 14 Apr 2022,20220414,17 Cavanagh Lane,WEST NOWRA,NSW,2541,-34.88931,150.585083,3,1,2,House,House,False,792,m2,False
2017768409,listing,/1-gunbar-way-nowra-nsw-2541-2017768409,902000,is-sold,Sold by private treaty 19 Apr 2022,20220419,1 Gunbar Way,NOWRA,NSW,2541,-34.8945236,150.610138,4,2,1,House,House,False,0,m2,False
2015480981,listing,/70-walsh-crescent-north-nowra-nsw-2541-2015480981,900000,is-sold,Sold by private treaty 24 Mar 2022,20220324,70 Walsh Crescent,NORTH NOWRA,NSW,2541,-34.8575859,150.592163,4,2,3,House,House,False,900,m2,False
2017248005,listing,/5a-creston-grove-bomaderry-nsw-2541-2017248005,1480000,is-sold,Sold by private treaty 25 Mar 2022,20220325,5a Creston Grove,BOMADERRY,NSW,2541,-34.8370972,150.596466,5,2,2,House,House,False,4000,m2,False
2017565199,listing,/29-worrigee-street-nowra-nsw-2541-2017565199,910000,is-sold,Sold by private treaty 31 Mar 2022,20220331,29 Worrigee Street,NOWRA,NSW,2541,-34.87545,150.5961,4,2,2,House,House,False,474,m2,False
2017589527,listing,/3-evergreen-place-south-nowra-nsw-2541-2017589527,550000,is-sold,Sold by private treaty 01 Apr 2022,20220401,3 Evergreen Place,SOUTH NOWRA,NSW,2541,-34.9080353,150.611511,,,,VacantLand,Vacant land,False,773,m2,False
2017604602,listing,/1-172-mckay-street-nowra-nsw-2541-2017604602,315000,is-sold,Sold by private treaty 04 Apr 2022,20220404,1/172 Mckay Street,NOWRA,NSW,2541,-34.8925667,150.604385,2,1,1,House,House,False,0,m2,False
2017610111,listing,/15-philip-drive-north-nowra-nsw-2541-2017610111,718000,is-sold,Sold by private treaty 25 Mar 2022,20220325,15 Philip Drive,NORTH NOWRA,NSW,2541,-34.85788,150.588943,3,1,1,House,House,False,683,m2,False
2017619598,listing,/20-edwards-avenue-bomaderry-nsw-2541-2017619598,,is-sold,Sold by private treaty 04 Apr 2022,20220404,20 Edwards Avenue,BOMADERRY,NSW,2541,-34.83904,150.6125,4,2,,House,House,False,1260,m2,False
2017620261,listing,/8-tarawara-street-bomaderry-nsw-2541-2017620261,1100000,is-sold,Sold by private treaty 30 Mar 2022,20220330,8 Tarawara Street,BOMADERRY,NSW,2541,-34.8553619,150.607468,3,2,2,House,House,False,600,m2,False
2017625898,listing,/4-76-hillcrest-avenue-south-nowra-nsw-2541-2017625898,565000,is-sold,Sold at auction 06 Apr 2022,20220406,4/76 Hillcrest Avenue,SOUTH NOWRA,NSW,2541,-34.9004326,150.611313,3,1,1,House,House,False,192,m2,False
2017628922,listing,/4-daley-crescent-north-nowra-nsw-2541-2017628922,1610200,is-sold,Sold by private treaty 25 Mar 2022,20220325,4 Daley Crescent,NORTH NOWRA,NSW,2541,-34.8621941,150.5932,4,3,2,House,House,False,3430,m2,False
2017629690,listing,/74-coconut-drive-north-nowra-nsw-2541-2017629690,770500,is-sold,Sold by private treaty 25 Mar 2022,20220325,74 Coconut Drive,NORTH NOWRA,NSW,2541,-34.8533363,150.571426,3,2,2,House,House,False,865,m2,False
2017635897,listing,/7-warrigal-street-nowra-nsw-2541-2017635897,815000,is-sold,Sold by private treaty 05 Apr 2022,20220405,7 Warrigal Street,NOWRA,NSW,2541,-34.8949051,150.62114,4,2,2,House,House,False,760,m2,False
2017636791,listing,/19-146-plunkett-street-nowra-nsw-2541-2017636791,640000,is-sold,Sold by private treaty 25 Mar 2022,20220325,19/146 Plunkett Street,NOWRA,NSW,2541,-34.8803024,150.608475,3,2,2,Villa,Villa,False,272,m2,False
2017643569,listing,/165-mckay-street-nowra-nsw-2541-2017643569,518000,is-sold,Sold at auction 06 Apr 2022,20220406,165 Mckay Street,NOWRA,NSW,2541,-34.89207,150.60527,3,1,1,House,House,False,733,m2,False
2017654043,listing,/73-jasmine-drive-bomaderry-nsw-2541-2017654043,820000,is-sold,Sold by private treaty 25 Mar 2022,20220325,73 Jasmine Drive,BOMADERRY,NSW,2541,-34.83621,150.600861,3,2,2,House,House,False,831,m2,False
2017667076,listing,/2-dudley-avenue-nowra-nsw-2541-2017667076,795000,is-sold,Sold by private treaty 28 Mar 2022,20220328,2 Dudley Avenue,NOWRA,NSW,2541,-34.8834229,150.599,4,2,2,House,House,False,688,m2,False
2017670081,listing,/11-byron-avenue-north-nowra-nsw-2541-2017670081,731000,is-sold,Sold by private treaty 07 Apr 2022,20220407,11 Byron Avenue,NORTH NOWRA,NSW,2541,-34.85046,150.579529,3,2,1,House,House,False,683,m2,False
2017677595,listing,/8-57-hillcrest-avenue-south-nowra-nsw-2541-2017677595,629000,is-sold,Sold by private treaty 05 Apr 2022,20220405,8/57 Hillcrest Avenue,SOUTH NOWRA,NSW,2541,-34.89906,150.60936,3,2,1,ApartmentUnitFlat,Apartment / Unit / Flat,False,222,m2,False
2017685147,listing,/15-moresby-street-nowra-nsw-2541-2017685147,905000,is-sold,Sold by private treaty 31 Mar 2022,20220331,15 Moresby Street,NOWRA,NSW,2541,-34.8942375,150.609283,6,3,2,House,House,False,0,m2,False
2017685822,listing,/62-meroo-road-bomaderry-nsw-2541-2017685822,695000,is-sold,Sold by private treaty 29 Mar 2022,20220329,62 Meroo Road,BOMADERRY,NSW,2541,-34.8408623,150.611053,3,2,2,House,House,False,571,m2,False
2017312906,listing,/10a-albatross-road-nowra-nsw-2541-2017312906,760000,is-sold,Sold by private treaty 21 Mar 2022,20220321,10A Albatross Road,NOWRA,NSW,2541,-34.8880424,150.599625,4,2,2,House,House,False,0,m2,False
2017426426,listing,/253-old-southern-road-south-nowra-nsw-2541-2017426426,,is-sold,Sold by private treaty 24 Mar 2022,20220324,253 Old Southern Road,SOUTH NOWRA,NSW,2541,-34.9088669,150.611954,4,2,6,AcreageSemiRural,Acreage / Semi-Rural,True,4000,m2,False
2017465626,listing,/65-bowerbird-street-south-nowra-nsw-2541-2017465626,835000,is-sold,Sold by private treaty 11 Mar 2022,20220311,65 Bowerbird Street,SOUTH NOWRA,NSW,2541,-34.9152336,150.6118,4,2,2,House,House,False,775,m2,False
2017510928,listing,/15-penrose-drive-bomaderry-nsw-2541-2017510928,705000,is-sold,Sold by private treaty 14 Mar 2022,20220314,15 Penrose Drive,BOMADERRY,NSW,2541,-34.8391533,150.608047,3,1,1,House,House,False,651,m2,False
2017546910,listing,/113-st-anns-street-nowra-nsw-2541-2017546910,770000,is-sold,Sold by private treaty 14 Mar 2022,20220314,113 St Anns Street,NOWRA,NSW,2541,-34.88525,150.609589,3,1,1,House,House,False,1331,m2,False
2017546995,listing,/65-9-browns-road-south-nowra-nsw-2541-2017546995,,is-sold,Sold by private treaty 18 Mar 2022,20220318,65/9 Browns Road,SOUTH NOWRA,NSW,2541,-34.9045219,150.603729,3,1,2,House,House,False,0,m2,True
2017553429,listing,/38-riverview-road-nowra-nsw-2541-2017553429,1290000,is-sold,Sold at auction 16 Mar 2022,20220316,38 Riverview Road,NOWRA,NSW,2541,-34.8652878,150.607574,4,2,2,House,House,False,993,m2,False
2017554625,listing,/2-gungaroo-place-nowra-nsw-2541-2017554625,,is-sold,Sold by private treaty 18 Mar 2022,20220318,2 Gungaroo Place,NOWRA,NSW,2541,-34.8963623,150.61673,,,,VacantLand,Vacant land,False,820,m2,False
2017559221,listing,/40-caladenia-crescent-south-nowra-nsw-2541-2017559221,880000,is-sold,Sold by private treaty 21 Mar 2022,20220321,40 Caladenia Crescent,SOUTH NOWRA,NSW,2541,-34.90682,150.61409,4,2,2,House,House,False,680,m2,False
2017564469,listing,/1-hale-avenue-nowra-nsw-2541-2017564469,985000,is-sold,Sold by private treaty 16 Mar 2022,20220316,1 Hale Avenue,NOWRA,NSW,2541,-34.8848763,150.599274,4,2,1,House,House,False,692,m2,False
2017588860,listing,/30-sampson-crescent-bomaderry-nsw-2541-2017588860,610000,is-sold,Sold by private treaty 17 Mar 2022,20220317,30 Sampson Crescent,BOMADERRY,NSW,2541,-34.8472824,150.607422,3,1,1,House,House,False,873,m2,False
2017607913,listing,/22-alata-crescent-south-nowra-nsw-2541-2017607913,942000,is-sold,Sold by private treaty 15 Mar 2022,20220315,22 Alata Crescent,SOUTH NOWRA,NSW,2541,-34.9094124,150.618454,4,2,3,House,House,False,683,m2,False
2017613053,listing,/4-warramunga-street-nowra-nsw-2541-2017613053,530000,is-sold,Sold by private treaty 22 Mar 2022,20220322,4 Warramunga Street,NOWRA,NSW,2541,-34.88762,150.611755,4,3,2,House,House,False,651,m2,False
2017614494,listing,/3-49-brinawarr-street-bomaderry-nsw-2541-2017614494,475000,is-sold,Sold by private treaty 18 Mar 2022,20220318,3/49 Brinawarr Street,BOMADERRY,NSW,2541,-34.852684,150.602173,2,1,1,House,House,False,166,m2,False
2017619436,listing,/15-meyer-place-bomaderry-nsw-2541-2017619436,1000000,is-sold,Sold by private treaty 21 Mar 2022,20220321,15 Meyer Place,BOMADERRY,NSW,2541,-34.8379364,150.613968,4,2,2,House,House,False,830,m2,False
2017627328,listing,/141-meroo-road-bomaderry-nsw-2541-2017627328,730000,is-sold,Sold at auction 22 Mar 2022,20220322,141 Meroo Road,BOMADERRY,NSW,2541,-34.8477631,150.610489,3,2,1,House,House,False,929,m2,False
2017633067,listing,/31-vendetta-street-nowra-nsw-2541-2017633067,645000,is-sold,Sold by private treaty 16 Mar 2022,20220316,31 Vendetta Street,NOWRA,NSW,2541,-34.8944359,150.6152,3,1,4,House,House,False,666,m2,False
2017650002,listing,/23-146-plunkett-street-nowra-nsw-2541-2017650002,510000,is-sold,Sold by private treaty 24 Mar 2022,20220324,23/146 Plunkett Street,NOWRA,NSW,2541,-34.8802834,150.607529,2,1,1,ApartmentUnitFlat,Apartment / Unit / Flat,False,218,m2,False
2017653117,listing,/83-salisbury-drive-nowra-nsw-2541-2017653117,620000,is-sold,Sold by private treaty 16 Mar 2022,20220316,83 Salisbury Drive,NOWRA,NSW,2541,-34.88398,150.614487,3,1,1,House,House,False,642,m2,False
2017656211,listing,/20-soper-drive-north-nowra-nsw-2541-2017656211,752500,is-sold,Sold by private treaty 10 Mar 2022,20220310,20 Soper Drive,NORTH NOWRA,NSW,2541,-34.8477058,150.5752,4,3,2,House,House,False,1047,m2,False
2017379828,listing,/2-4-mcmahons-road-north-nowra-nsw-2541-2017379828,,is-sold,Sold by private treaty 02 Mar 2022,20220302,2-4 McMahons Road,NORTH NOWRA,NSW,2541,-34.8584061,150.583588,2,1,1,House,House,False,0,m2,False
2017394793,listing,/43-burradoo-crescent-nowra-nsw-2541-2017394793,805000,is-sold,Sold by private treaty 04 Mar 2022,20220304,43 Burradoo Crescent,NOWRA,NSW,2541,-34.889946,150.620483,5,2,2,House,House,False,1101,m2,False
2017398895,listing,/134-plunkett-street-nowra-nsw-2541-2017398895,,is-sold,Sold by private treaty 04 Mar 2022,20220304,134 Plunkett Street,NOWRA,NSW,2541,-34.8796539,150.606567,6,1,6,House,House,False,3914,m2,False
2017475772,listing,/11-denbigh-place-south-nowra-nsw-2541-2017475772,768000,is-sold,Sold by private treaty 07 Mar 2022,20220307,11 Denbigh Place,SOUTH NOWRA,NSW,2541,-34.9075279,150.611649,4,2,2,House,House,False,632,m2,False
2017487804,listing,/28-elder-crescent-nowra-nsw-2541-2017487804,550000,is-sold,Sold by private treaty 04 Mar 2022,20220304,28 Elder Crescent,NOWRA,NSW,2541,-34.8920822,150.607727,3,1,1,House,House,False,618,m2,False
2017501149,listing,/35-carrington-park-drive-nowra-nsw-2541-2017501149,680000,is-sold,Sold at auction 07 Mar 2022,20220307,35 Carrington Park Drive,NOWRA,NSW,2541,-34.8962135,150.618637,3,2,2,House,House,False,500,m2,False
2017501161,listing,/225-old-southern-road-south-nowra-nsw-2541-2017501161,752000,is-sold,Sold by private treaty 07 Mar 2022,20220307,225 Old Southern Road,SOUTH NOWRA,NSW,2541,-34.907093,150.612946,4,2,2,House,House,False,721,m2,False
2017531596,listing,/2-mcguire-avenue-nowra-nsw-2541-2017531596,565000,is-sold,Sold by private treaty 04 Mar 2022,20220304,2 McGuire Avenue,NOWRA,NSW,2541,-34.886982,150.6073,3,1,,House,House,False,601,m2,False
2017550201,listing,/17-castle-glen-north-nowra-nsw-2541-2017550201,760000,is-sold,Sold by private treaty 07 Mar 2022,20220307,17 Castle Glen,NORTH NOWRA,NSW,2541,-34.8578835,150.5871,5,3,2,House,House,False,626,m2,False
2017558870,listing,/154-yurunga-drive-north-nowra-nsw-2541-2017558870,795000,is-sold,Sold by private treaty 01 Mar 2022,20220301,154 Yurunga Drive,NORTH NOWRA,NSW,2541,-34.86171,150.575882,3,1,1,House,House,False,886,m2,False
2017563868,listing,/18-evergreen-place-south-nowra-nsw-2541-2017563868,880000,is-sold,Sold by private treaty 03 Mar 2022,20220303,18 Evergreen Place,SOUTH NOWRA,NSW,2541,-34.9080353,150.611511,4,2,2,House,House,False,649,m2,False
2017566013,listing,/151-shoalhaven-street-nowra-nsw-2541-2017566013,820000,is-sold,Sold by private treaty 08 Mar 2022,20220308,151 Shoalhaven Street,NOWRA,NSW,2541,-34.8811073,150.593979,4,2,2,House,House,False,664,m2,False
2017572506,listing,/30-yeovil-drive-bomaderry-nsw-2541-2017572506,690000,is-sold,Sold by private treaty 04 Mar 2022,20220304,30 Yeovil Drive,BOMADERRY,NSW,2541,-34.84126,150.60939,3,1,2,House,House,False,583,m2,False
2017573161,listing,/7-7a-flannelflower-avenue-west-nowra-nsw-2541-2017573161,,is-sold,Sold by private treaty 09 Mar 2022,20220309,7 & 7A Flannelflower Avenue,WEST NOWRA,NSW,2541,-34.8944969,150.5844,5,3,2,House,House,False,0,m2,False
2017579484,listing,/141-cambewarra-road-bomaderry-nsw-2541-2017579484,708000,is-sold,Sold by private treaty 02 Mar 2022,20220302,141 Cambewarra Road,BOMADERRY,NSW,2541,-34.84433,150.5983,4,1,1,House,House,False,644,m2,False
2017581823,listing,/1-15-tallayang-street-bomaderry-nsw-2541-2017581823,350000,is-sold,Sold by private treaty 01 Mar 2022,20220301,1/15 Tallayang Street,BOMADERRY,NSW,2541,-34.8523636,150.604446,2,1,1,ApartmentUnitFlat,Apartment / Unit / Flat,False,0,m2,False
2017586845,listing,/3-maybern-close-north-nowra-nsw-2541-2017586845,805000,is-sold,Sold by private treaty 04 Mar 2022,20220304,3 Maybern Close,NORTH NOWRA,NSW,2541,-34.8542557,150.58,5,2,1,House,House,False,705,m2,False
2017589662,listing,/3-yeovil-drive-bomaderry-nsw-2541-2017589662,730000,is-sold,Sold by private treaty 04 Mar 2022,20220304,3 Yeovil Drive,BOMADERRY,NSW,2541,-34.8405876,150.606323,3,2,3,House,House,False,771,m2,False
2017592105,listing,/14-balmaringa-avenue-north-nowra-nsw-2541-2017592105,653000,is-sold,Sold by private treaty 08 Mar 2022,20220308,14 Balmaringa Avenue,NORTH NOWRA,NSW,2541,-34.85947,150.575867,3,1,2,House,House,False,613,m2,False
2017641076,listing,/2-19-wilari-close-bomaderry-nsw-2541-2017641076,580000,is-sold,Sold by private treaty 09 Mar 2022,20220309,2/19 Wilari Close,BOMADERRY,NSW,2541,-34.83594,150.606262,2,1,2,House,House,False,0,m2,False
2017359760,listing,/29-75-yalwal-road-west-nowra-nsw-2541-2017359760,640000,is-sold,Sold by private treaty 17 Feb 2022,20220217,29/75 Yalwal Road,WEST NOWRA,NSW,2541,-34.8928,150.584152,3,2,2,Townhouse,Townhouse,False,252,m2,False
2017423013,listing,/11-lightwood-drive-west-nowra-nsw-2541-2017423013,850000,is-sold,Sold by private treaty 18 Feb 2022,20220218,11 Lightwood Drive,WEST NOWRA,NSW,2541,-34.8932228,150.5893,5,2,,House,House,False,3011,m2,False
2017449658,listing,/284-princes-highway-bomaderry-nsw-2541-2017449658,788000,is-sold,Sold by private treaty 25 Feb 2022,20220225,284 Princes Highway,BOMADERRY,NSW,2541,-34.8413239,150.594849,4,1,2,House,House,False,1127,m2,False
2017452870,listing,/40-douglas-street-nowra-nsw-2541-2017452870,745000,is-sold,Sold by private treaty 21 Feb 2022,20220221,40 Douglas Street,NOWRA,NSW,2541,-34.879818,150.5952,3,1,4,House,House,False,487,m2,False
2017452953,listing,/28-daley-crescent-north-nowra-nsw-2541-2017452953,1075000,is-sold,Sold by private treaty 23 Feb 2022,20220223,28 Daley Crescent,NORTH NOWRA,NSW,2541,-34.8622971,150.590668,3,2,2,House,House,False,1941,m2,False
2017459234,listing,/13-kardella-avenue-nowra-nsw-2541-2017459234,695000,is-sold,Sold by private treaty 22 Feb 2022,20220222,13 Kardella Avenue,NOWRA,NSW,2541,-34.8927765,150.619568,4,2,2,House,House,False,676,m2,False
2017464357,listing,/232-kinghorne-street-nowra-nsw-2541-2017464357,775000,is-sold,Sold by private treaty 22 Feb 2022,20220222,232 Kinghorne Street,NOWRA,NSW,2541,-34.8910446,150.601913,4,1,1,House,House,False,561,m2,False
2017477824,listing,/north-nowra-nsw-2541-2017477824,730000,is-sold,Sold by private treaty 17 Feb 2022,20220217,,NORTH NOWRA,NSW,2541,-34.85221,150.5714,4,2,2,House,House,False,707,m2,False
