id,listingType,url,price,tagClassName,tagText,date,street,suburb,state,postcode,lat,lng,beds,baths,parking,propertyType,propertyTypeFormatted,isRural,landSize,landUnit,isRetirement
2018320974,listing,/126a-village-circuit-gregory-hills-nsw-2557-2018320974,825000,is-sold,Sold by private treaty 27 Feb 2023,20230227,126a Village Circuit,GREGORY HILLS,NSW,2557,-34.0323067,150.777344,4,4,4,House,House,False,298.0,m2,False
2017517003,listing,/16-hewitson-court-gledswood-hills-nsw-2557-2017517003,Price Withheld,is-sold,Sold by private treaty 24 Feb 2023,20230224,16 Hewitson Court,GLEDSWOOD HILLS,NSW,2557,-34.00514,150.780746,4,4,4,NewHouseLand,New House & Land,False,600.0,m2,False
2017517618,listing,/lot-63-mckinnon-circuit-gledswood-hills-nsw-2557-2017517618,Price Withheld,is-sold,Sold by private treaty 24 Feb 2023,20230224,Lot 63 McKinnon Circuit,GLEDSWOOD HILLS,NSW,2557,-34.01665,150.7704,4,4,4,NewHouseLand,New House & Land,False,438.0,m2,False
2017719846,listing,/lot-77-celito-walk-gledswood-hills-nsw-2557-2017719846,Price Withheld,is-sold,Sold by private treaty 24 Feb 2023,20230224,Lot 77 Celito Walk,GLEDSWOOD HILLS,NSW,2557,-34.0067673,150.780731,5,5,5,NewHouseLand,New House & Land,False,573.0,m2,False
2017866420,listing,/17-hewitson-court-gledswood-hills-nsw-2557-2017866420,Price Withheld,is-sold,Sold by private treaty 24 Feb 2023,20230224,17 Hewitson Court,GLEDSWOOD HILLS,NSW,2557,-34.00514,150.780746,4,4,4,NewHouseLand,New House & Land,False,744.0,m2,False
2018173918,listing,/93-ingall-loop-catherine-field-nsw-2557-2018173918,Price Withheld,is-sold,Sold at auction 13 Feb 2023,20230213,93 Ingall Loop,CATHERINE FIELD,NSW,2557,-34.00215,150.754974,5,5,5,House,House,False,0.0,m2,False
2018201112,listing,/55-the-hermitage-way-gledswood-hills-nsw-2557-2018201112,Price Withheld,is-sold,Sold by private treaty 09 Feb 2023,20230209,55 The Hermitage Way,GLEDSWOOD HILLS,NSW,2557,-34.01488,150.776749,4,4,4,House,House,False,401.0,m2,False
2018281238,listing,/125-audley-circuit-gregory-hills-nsw-2557-2018281238,710000,is-sold,Sold by private treaty 14 Feb 2023,20230214,125 Audley Circuit,GREGORY HILLS,NSW,2557,-34.0286,150.78067,2,2,2,House,House,False,0.0,m2,False
2018286497,listing,/20-correa-circuit-gregory-hills-nsw-2557-2018286497,970000,is-sold,Sold by private treaty 09 Feb 2023,20230209,20 Correa Circuit,GREGORY HILLS,NSW,2557,-34.0238838,150.781128,4,4,4,House,House,False,0.0,m2,False
2018302857,listing,/57-the-hermitage-way-gledswood-hills-nsw-2557-2018302857,1110000,is-sold,Sold by private treaty 10 Feb 2023,20230210,57 The Hermitage Way,GLEDSWOOD HILLS,NSW,2557,-34.0147247,150.776688,4,4,4,House,House,False,484.0,m2,False
2018309816,listing,/24-walseley-crescent-gledswood-hills-nsw-2557-2018309816,1080000,is-sold,Sold by private treaty 15 Feb 2023,20230215,24 Walseley Crescent,GLEDSWOOD HILLS,NSW,2557,-34.0184555,150.770126,3,3,3,House,House,False,541.0,m2,False
2018342318,listing,/179-village-circuit-gregory-hills-nsw-2557-2018342318,900000,is-sold,Sold by private treaty 17 Feb 2023,20230217,179 Village Circuit,GREGORY HILLS,NSW,2557,-34.0340729,150.781448,4,4,4,House,House,False,367.0,m2,False
2018349001,listing,/raby-road-gledswood-hills-nsw-2557-2018349001,Price Withheld,is-sold,Sold 13 Feb 2023,20230213,Raby Road,GLEDSWOOD HILLS,NSW,2557,-34.00131,150.793777,NaN,NaN,NaN,NewHouseLand,New House & Land,False,0.0,m2,False
2018349006,listing,/raby-road-gledswood-hills-nsw-2557-2018349006,Price Withheld,is-sold,Sold 13 Feb 2023,20230213,Raby Road,GLEDSWOOD HILLS,NSW,2557,-34.00131,150.793777,NaN,NaN,NaN,NewHouseLand,New House & Land,False,0.0,m2,False
2018349008,listing,/raby-road-gledswood-hills-nsw-2557-2018349008,Price Withheld,is-sold,Sold 13 Feb 2023,20230213,Raby Road,GLEDSWOOD HILLS,NSW,2557,-34.00131,150.793777,NaN,NaN,NaN,NewLand,New land,False,0.0,m2,False
2018351544,listing,/raby-road-gledswood-hills-nsw-2557-2018351544,Price Withheld,is-sold,Sold 14 Feb 2023,20230214,Raby Road,GLEDSWOOD HILLS,NSW,2557,-34.00131,150.793777,NaN,NaN,NaN,NewHouseLand,New House & Land,False,0.0,m2,False
2018351559,listing,/raby-road-gledswood-hills-nsw-2557-2018351559,Price Withheld,is-sold,Sold 14 Feb 2023,20230214,Raby Road,GLEDSWOOD HILLS,NSW,2557,-34.00131,150.793777,NaN,NaN,NaN,NewHouseLand,New House & Land,False,0.0,m2,False
2018351560,listing,/raby-road-gledswood-hills-nsw-2557-2018351560,Price Withheld,is-sold,Sold 14 Feb 2023,20230214,Raby Road,GLEDSWOOD HILLS,NSW,2557,-34.00131,150.793777,NaN,NaN,NaN,NewLand,New land,False,0.0,m2,False
2018367349,listing,/raby-road-gledswood-hills-nsw-2557-2018367349,Price Withheld,is-sold,Sold 21 Feb 2023,20230221,Raby Road,GLEDSWOOD HILLS,NSW,2557,-34.00131,150.793777,NaN,NaN,NaN,NewHouseLand,New House & Land,False,0.0,m2,False
2018367352,listing,/raby-road-gledswood-hills-nsw-2557-2018367352,Price Withheld,is-sold,Sold 21 Feb 2023,20230221,Raby Road,GLEDSWOOD HILLS,NSW,2557,-34.00131,150.793777,NaN,NaN,NaN,NewLand,New land,False,0.0,m2,False
2017984746,listing,/24-booth-street-gregory-hills-nsw-2557-2017984746,Price Withheld,is-sold,Sold by private treaty 20 Jan 2023,20230120,24 Booth street,GREGORY HILLS,NSW,2557,-34.02915,150.765381,5,5,5,House,House,False,361.0,m2,False
2018004968,listing,/785-bringelly-road-rossmore-nsw-2557-2018004968,3580000,is-sold,Sold by private treaty 17 Jan 2023,20230117,785 Bringelly Road,ROSSMORE,NSW,2557,-33.9439125,150.756729,5,5,5,House,House,False,0.0,m2,False
2018067971,listing,/19-rochester-street-gregory-hills-nsw-2557-2018067971,688000,is-sold,Sold by private treaty 20 Jan 2023,20230120,19 Rochester Street,GREGORY HILLS,NSW,2557,-34.0333328,150.7838,NaN,NaN,NaN,VacantLand,Vacant land,False,450.0,m2,False
2018164260,listing,/14-spitzer-street-gregory-hills-nsw-2557-2018164260,950000,is-sold,Sold by private treaty 03 Feb 2023,20230203,14 Spitzer Street,GREGORY HILLS,NSW,2557,-34.03254,150.77594,4,4,4,House,House,False,374.0,m2,False
2018194031,listing,/18b-frederick-street-gregory-hills-nsw-2557-2018194031,850000,is-sold,Sold by private treaty 08 Feb 2023,20230208,18B Frederick Street,GREGORY HILLS,NSW,2557,-34.0360565,150.782837,3,3,3,House,House,False,0.0,m2,False
2018212124,listing,/18b-kew-street-gregory-hills-nsw-2557-2018212124,961000,is-sold,Sold by private treaty 01 Feb 2023,20230201,18B Kew Street,GREGORY HILLS,NSW,2557,-34.0335121,150.776123,4,4,4,House,House,False,301.0,m2,False
2018212334,listing,/9-leeuwin-road-gledswood-hills-nsw-2557-2018212334,Price Withheld,is-sold,Sold by private treaty 08 Feb 2023,20230208,9 Leeuwin Road,GLEDSWOOD HILLS,NSW,2557,-34.01887,150.77803,4,4,4,House,House,False,381.0,m2,False
2018213950,listing,/34-silverton-street-gregory-hills-nsw-2557-2018213950,1010000,is-sold,Sold by private treaty 30 Jan 2023,20230130,34 Silverton Street,GREGORY HILLS,NSW,2557,-34.0316124,150.78157,4,4,4,House,House,False,375.0,m2,False
2018221040,listing,/gledswood-hills-nsw-2557-2018221040,806000,is-sold,Sold by private treaty 31 Jan 2023,20230131,NaN,GLEDSWOOD HILLS,NSW,2557,-34.0095024,150.778519,NaN,NaN,NaN,VacantLand,Vacant land,False,464.0,m2,False
2018223873,listing,/6-gemini-street-gregory-hills-nsw-2557-2018223873,930000,is-sold,Sold by private treaty 17 Jan 2023,20230117,6 Gemini Street,GREGORY HILLS,NSW,2557,-34.02951,150.770523,4,4,4,House,House,False,0.0,m2,False
2018224654,listing,/lot-9072-23-killen-parade-catherine-field-nsw-2557-2018224654,630000,is-sold,Sold by private treaty 23 Jan 2023,20230123,Lot 9072/23 Killen Parade,CATHERINE FIELD,NSW,2557,-33.9875031,150.769257,NaN,NaN,NaN,VacantLand,Vacant land,False,400.0,m2,False
2018235224,listing,/31-seville-circuit-gledswood-hills-nsw-2557-2018235224,Price Withheld,is-sold,Sold by private treaty 02 Feb 2023,20230202,31 Seville Circuit,GLEDSWOOD HILLS,NSW,2557,-34.00995,150.780121,4,4,4,House,House,False,0.0,m2,False
2018248520,listing,/4-mcclymont-drive-catherine-field-nsw-2557-2018248520,1010000,is-sold,Sold by private treaty 10 Jan 2023,20230110,4 McClymont Drive,CATHERINE FIELD,NSW,2557,-34.013176,150.758347,4,4,4,House,House,False,330.0,m2,False
2018265607,listing,/3c-rosemount-drive-catherine-field-nsw-2557-2018265607,815000,is-sold,Sold by private treaty 18 Jan 2023,20230118,3c Rosemount Drive,CATHERINE FIELD,NSW,2557,-34.01362,150.764862,3,3,3,House,House,False,0.0,m2,False
2018277841,listing,/10-botany-street-gregory-hills-nsw-2557-2018277841,890000,is-sold,Sold by private treaty 30 Jan 2023,20230130,10 Botany Street,GREGORY HILLS,NSW,2557,-34.03524,150.782288,4,4,4,House,House,False,300.0,m2,False
2018279007,listing,/18-curlewis-street-gledswood-hills-nsw-2557-2018279007,837000,is-sold,Sold by private treaty 16 Jan 2023,20230116,18 Curlewis Street,GLEDSWOOD HILLS,NSW,2557,-34.01553,150.768234,3,3,3,SemiDetached,Semi-Detached,False,0.0,m2,False
2018280041,listing,/24-discovery-circuit-gregory-hills-nsw-2557-2018280041,1245000,is-sold,Sold by private treaty 13 Jan 2023,20230113,24 Discovery Circuit,GREGORY HILLS,NSW,2557,-34.027607,150.7669,4,4,4,House,House,False,613.0,m2,False
2018288395,listing,/25-akuna-street-gregory-hills-nsw-2557-2018288395,Price Withheld,is-sold,Sold by private treaty 06 Feb 2023,20230206,25 Akuna Street,GREGORY HILLS,NSW,2557,-34.0297661,150.777359,4,4,4,House,House,False,425.0,m2,False
2018290891,listing,/3-cain-ave-gregory-hills-nsw-2557-2018290891,950000,is-sold,Sold by private treaty 30 Jan 2023,20230130,3 Cain Ave,GREGORY HILLS,NSW,2557,-34.0297775,150.766678,4,4,4,House,House,False,0.0,m2,False
2018338931,listing,/raby-road-gledswood-hills-nsw-2557-2018338931,Price Withheld,is-sold,Sold 08 Feb 2023,20230208,Raby Road,GLEDSWOOD HILLS,NSW,2557,-34.00131,150.793777,NaN,NaN,NaN,NewHouseLand,New House & Land,False,0.0,m2,False
2017660923,listing,/25-mcmillan-street-gregory-hills-nsw-2557-2017660923,Price Withheld,is-sold,Sold by private treaty 19 Dec 2022,20221219,25 McMillan Street,GREGORY HILLS,NSW,2557,-34.03466,150.782822,4,4,4,House,House,False,0.0,m2,False
2018067950,listing,/13b-watervale-avenue-catherine-field-nsw-2557-2018067950,650000,is-sold,Sold by private treaty 16 Dec 2022,20221216,13b Watervale Avenue,CATHERINE FIELD,NSW,2557,-34.0124664,150.764954,2,2,2,House,House,False,320.0,m2,False
2018075731,listing,/20-minya-crescent-gledswood-hills-nsw-2557-2018075731,1330000,is-sold,Sold by private treaty 21 Dec 2022,20221221,20 Minya Crescent,GLEDSWOOD HILLS,NSW,2557,-34.0182381,150.7719,4,4,4,House,House,False,536.0,m2,False
2018109188,listing,/40-cumberland-street-gregory-hills-nsw-2557-2018109188,1150000,is-sold,Sold by private treaty 23 Dec 2022,20221223,40 Cumberland Street,GREGORY HILLS,NSW,2557,-34.03484,150.778412,4,4,4,House,House,False,510.0,m2,False
2018119382,listing,/2-fairbank-drive-gledswood-hills-nsw-2557-2018119382,1320000,is-sold,Sold at auction 03 Dec 2022,20221203,2 Fairbank Drive,GLEDSWOOD HILLS,NSW,2557,-34.0173,150.7758,5,5,5,House,House,False,630.0,m2,False
2018151210,listing,/61-pioneer-street-gregory-hills-nsw-2557-2018151210,880000,is-sold,Sold by private treaty 08 Dec 2022,20221208,61 Pioneer Street,GREGORY HILLS,NSW,2557,-34.02993,150.763885,4,4,4,House,House,False,264.0,m2,False
2018166187,listing,/5-channon-street-gledswood-hills-nsw-2557-2018166187,970000,is-sold,Sold by private treaty 08 Dec 2022,20221208,5 Channon Street,GLEDSWOOD HILLS,NSW,2557,-34.0079651,150.783691,3,3,3,House,House,False,430.0,m2,False
2018174944,listing,/14-lorikeet-street-gregory-hills-nsw-2557-2018174944,790000,is-sold,Sold by private treaty 07 Dec 2022,20221207,14 Lorikeet Street,GREGORY HILLS,NSW,2557,-34.023735,150.77742,4,4,4,House,House,False,348.0,m2,False
2018180755,listing,/14-kew-street-gregory-hills-nsw-2557-2018180755,1450000,is-sold,Sold by private treaty 12 Dec 2022,20221212,14 Kew Street,GREGORY HILLS,NSW,2557,-34.0333138,150.776245,6,6,6,House,House,False,884.0,m2,False
2018183989,listing,/9-lambert-street-gledswood-hills-nsw-2557-2018183989,1500000,is-sold,Sold by private treaty 20 Dec 2022,20221220,9 Lambert Street,GLEDSWOOD HILLS,NSW,2557,-34.010006,150.772888,5,5,5,House,House,False,629.0,m2,False
2018186077,listing,/lot-8-mayfield-place-gledswood-hills-nsw-2557-2018186077,2165000,is-sold,Sold by private treaty 19 Dec 2022,20221219,Lot 8 Mayfield Place,GLEDSWOOD HILLS,NSW,2557,-34.0138321,150.79039,NaN,NaN,NaN,VacantLand,Vacant land,False,4461.0,m2,False
2018196594,listing,/8-beckhaus-street-gregory-hills-nsw-2557-2018196594,825000,is-sold,Sold by private treaty 12 Dec 2022,20221212,8 Beckhaus Street,GREGORY HILLS,NSW,2557,-34.02993,150.765289,4,4,4,House,House,False,314.0,m2,False
2018208247,listing,/20-barrier-street-gregory-hills-nsw-2557-2018208247,949000,is-sold,Sold by private treaty 13 Dec 2022,20221213,20 Barrier Street,GREGORY HILLS,NSW,2557,-34.0355,150.78389,4,4,4,House,House,False,0.0,m2,False
2018209559,listing,/54-lillydale-avenue-gledswood-hills-nsw-2557-2018209559,1315000,is-sold,Sold by private treaty 05 Dec 2022,20221205,54 Lillydale Avenue,GLEDSWOOD HILLS,NSW,2557,-34.0125237,150.770966,4,4,4,House,House,False,556.0,m2,False
2018223182,listing,/14-donovan-boulvard-gregory-hills-nsw-2557-2018223182,1890000,is-sold,Sold at auction 20 Dec 2022,20221220,14 Donovan Boulvard,GREGORY HILLS,NSW,2557,-34.0306358,150.771667,4,4,4,House,House,False,822.0,m2,False
2018223270,listing,/21-glendiver-street-gledswood-hills-nsw-2557-2018223270,985000,is-sold,Sold by private treaty 28 Dec 2022,20221228,21 Glendiver Street,GLEDSWOOD HILLS,NSW,2557,-34.0144,150.781662,4,4,4,House,House,False,400.0,m2,False
2018224496,listing,/25-voyager-street-gregory-hills-nsw-2557-2018224496,995000,is-sold,Sold by private treaty 07 Dec 2022,20221207,25 Voyager Street,GREGORY HILLS,NSW,2557,-34.0264549,150.76889,5,5,5,House,House,False,421.0,m2,False
2018227901,listing,/50-curlewis-street-gledswood-hills-nsw-2557-2018227901,800000,is-sold,Sold by private treaty 21 Dec 2022,20221221,50 Curlewis Street,GLEDSWOOD HILLS,NSW,2557,-34.01599,150.769211,3,3,3,House,House,False,181.0,m2,False
2018241353,listing,/21-huntington-street-gledswood-hills-nsw-2557-2018241353,935000,is-sold,Sold by private treaty 23 Dec 2022,20221223,21 Huntington Street,GLEDSWOOD HILLS,NSW,2557,-34.0109673,150.773331,3,3,3,House,House,False,0.0,m2,False
2018245021,listing,/4-wagtail-street-gregory-hills-nsw-2557-2018245021,520000,is-sold,Sold by private treaty 22 Dec 2022,20221222,4 Wagtail Street,GREGORY HILLS,NSW,2557,-34.0214653,150.775955,NaN,NaN,NaN,VacantLand,Vacant land,False,301.0,m2,False
2017926696,listing,/45-lillydale-avenue-gledswood-hills-nsw-2557-2017926696,1060000,is-sold,Sold by private treaty 12 Nov 2022,20221112,45 Lillydale Avenue,GLEDSWOOD HILLS,NSW,2557,-34.0129242,150.769669,4,4,4,House,House,False,503.0,m2,False
2017990900,listing,/7-duncombe-avenue-gledswood-hills-nsw-2557-2017990900,950000,is-sold,Sold by private treaty 04 Nov 2022,20221104,7 Duncombe Avenue,GLEDSWOOD HILLS,NSW,2557,-34.02251,150.773941,4,4,4,House,House,False,377.0,m2,False
2018052996,listing,/11-spice-street-gledswood-hills-nsw-2557-2018052996,1350000,is-sold,Sold by private treaty 01 Nov 2022,20221101,11 Spice Street,GLEDSWOOD HILLS,NSW,2557,-34.01242,150.785065,5,5,5,House,House,False,477.0,m2,False
2018065038,listing,/68-bowen-circuit-gledswood-hills-nsw-2557-2018065038,1025000,is-sold,Sold by private treaty 24 Oct 2022,20221024,68 Bowen Circuit,GLEDSWOOD HILLS,NSW,2557,-34.0125351,150.768555,4,4,4,House,House,False,350.0,m2,False
2018099432,listing,/39-houghton-road-gledswood-hills-nsw-2557-2018099432,780000,is-sold,Sold by private treaty 01 Nov 2022,20221101,39 Houghton Road,GLEDSWOOD HILLS,NSW,2557,-34.009243,150.786987,NaN,NaN,NaN,VacantLand,Vacant land,False,406.0,m2,False
2018118358,listing,/7-pearwood-street-catherine-field-nsw-2557-2018118358,930000,is-sold,Sold at auction 30 Oct 2022,20221030,7 Pearwood Street,CATHERINE FIELD,NSW,2557,-34.01237,150.763092,4,4,4,House,House,False,0.0,m2,False
2018118974,listing,/11-centenary-place-catherine-field-nsw-2557-2018118974,3050000,is-sold,Sold by private treaty 06 Nov 2022,20221106,11 Centenary Place,CATHERINE FIELD,NSW,2557,-33.995903,150.764709,5,5,5,AcreageSemiRural,Acreage / Semi-Rural,True,5771.0,m2,False
2018122458,listing,/63-barrett-street-gregory-hills-nsw-2557-2018122458,865000,is-sold,Sold by private treaty 07 Nov 2022,20221107,63 Barrett Street,GREGORY HILLS,NSW,2557,-34.0315,150.764526,4,4,4,House,House,False,0.0,m2,False
2018134698,listing,/9b-watervale-avenue-catherine-field-nsw-2557-2018134698,680000,is-sold,Sold by private treaty 01 Nov 2022,20221101,9B Watervale Avenue,CATHERINE FIELD,NSW,2557,-34.0124245,150.764908,2,2,2,House,House,False,0.0,m2,False
2018150425,listing,/24-mornington-grove-gledswood-hills-nsw-2557-2018150425,1222000,is-sold,Sold at auction 19 Nov 2022,20221119,24 Mornington Grove,GLEDSWOOD HILLS,NSW,2557,-34.01396,150.774887,4,4,4,House,House,False,466.0,m2,False
2018152367,listing,/4-kavanagh-street-gregory-hills-nsw-2557-2018152367,1100000,is-sold,Sold by private treaty 30 Oct 2022,20221030,4 Kavanagh Street,GREGORY HILLS,NSW,2557,-34.0285339,150.772232,4,4,4,House,House,False,459.0,m2,False
2018153521,listing,/39-spitzer-street-gregory-hills-nsw-2557-2018153521,1400000,is-sold,Sold by private treaty 14 Nov 2022,20221114,39 Spitzer Street,GREGORY HILLS,NSW,2557,-34.0317726,150.777054,5,5,5,House,House,False,510.0,m2,False
2018155249,listing,/49-pleasant-circuit-gledswood-hills-nsw-2557-2018155249,1200000,is-sold,Sold by private treaty 29 Nov 2022,20221129,49 Pleasant Circuit,GLEDSWOOD HILLS,NSW,2557,-34.0175171,150.781265,5,5,5,House,House,False,450.0,m2,False
2018165745,listing,/7-bagnall-street-gregory-hills-nsw-2557-2018165745,872000,is-sold,Sold by private treaty 30 Nov 2022,20221130,7 Bagnall Street,GREGORY HILLS,NSW,2557,-34.03144,150.769257,4,4,4,House,House,False,450.0,m2,False
2018178205,listing,/311-catherine-fields-road-catherine-field-nsw-2557-2018178205,3000000,is-sold,Sold by private treaty 29 Nov 2022,20221129,311 Catherine Fields Road,CATHERINE FIELD,NSW,2557,-33.982338,150.75795,5,5,5,House,House,True,2.1,ha,False
2018180260,listing,/21-mannes-road-gledswood-hills-nsw-2557-2018180260,940000,is-sold,Sold at auction 28 Nov 2022,20221128,21 Mannes Road,GLEDSWOOD HILLS,NSW,2557,-34.0221863,150.774841,4,4,4,House,House,False,375.0,m2,False
2018180589,listing,/74-audley-circuit-gregory-hills-nsw-2557-2018180589,835000,is-sold,Sold by private treaty 21 Nov 2022,20221121,74 Audley Circuit,GREGORY HILLS,NSW,2557,-34.03115,150.78038,3,3,3,House,House,False,300.0,m2,False
2018195385,listing,/34-astley-road-catherine-field-nsw-2557-2018195385,1475000,is-sold,Sold by private treaty 02 Dec 2022,20221202,34 Astley Road,CATHERINE FIELD,NSW,2557,-34.01119,150.753952,4,4,4,House,House,False,462.0,m2,False
2018228605,listing,/raby-road-gledswood-hills-nsw-2557-2018228605,Price Withheld,is-sold,Sold 29 Nov 2022,20221129,Raby Road,GLEDSWOOD HILLS,NSW,2557,-34.00131,150.793777,NaN,NaN,NaN,NewHouseLand,New House & Land,False,0.0,m2,False
2018244525,listing,/147-donovan-boulevard-gregory-hills-nsw-2557-2018244525,870000,is-sold,Sold by private treaty 11 Nov 2022,20221111,147 Donovan Boulevard,GREGORY HILLS,NSW,2557,-34.0325165,150.783524,3,3,3,House,House,False,300.0,m2,False
2017807417,listing,/4a-rosemount-drive-catherine-field-nsw-2557-2017807417,Price Withheld,is-sold,Sold by private treaty 30 Sep 2022,20220930,4a Rosemount Drive,CATHERINE FIELD,NSW,2557,-34.01355,150.765167,3,3,3,Townhouse,Townhouse,False,180.0,m2,False
2017858127,listing,/39-rochford-rd-gledswood-hills-nsw-2557-2017858127,1053000,is-sold,Sold by private treaty 03 Oct 2022,20221003,39 Rochford Rd,GLEDSWOOD HILLS,NSW,2557,-34.0129623,150.770584,4,4,4,House,House,False,465.0,m2,False
2017886978,listing,/5b-verdant-drive-gledswood-hills-nsw-2557-2017886978,Price Withheld,is-sold,Sold by private treaty 07 Oct 2022,20221007,5B Verdant drive,GLEDSWOOD HILLS,NSW,2557,-34.015873,150.786362,5,5,5,House,House,False,400.0,m2,False
2017887715,listing,/5b-golden-wattle-avenue-gregory-hills-nsw-2557-2017887715,990000,is-sold,Sold by private treaty 22 Sep 2022,20220922,5b Golden Wattle Avenue,GREGORY HILLS,NSW,2557,-34.0230637,150.780685,5,5,5,House,House,False,0.0,m2,False
2017920527,listing,/15-hewitson-court-gledswood-hills-nsw-2557-2017920527,1793000,is-sold,Sold by private treaty 23 Sep 2022,20220923,15 Hewitson Court,GLEDSWOOD HILLS,NSW,2557,-34.00514,150.780746,4,4,4,NewHouseLand,New House & Land,False,642.0,m2,False
2017956506,listing,/13-galileo-street-gregory-hills-nsw-2557-2017956506,1140000,is-sold,Sold by private treaty 18 Oct 2022,20221018,13 Galileo Street,GREGORY HILLS,NSW,2557,-34.02729,150.768448,4,4,4,House,House,False,640.0,m2,False
2017962838,listing,/49-orbit-street-gregory-hills-nsw-2557-2017962838,905000,is-sold,Sold by private treaty 30 Sep 2022,20220930,49 Orbit Street,GREGORY HILLS,NSW,2557,-34.03371,150.777023,4,4,4,House,House,False,438.0,m2,False
2017979478,listing,/6-narooma-street-gregory-hills-nsw-2557-2017979478,1168000,is-sold,Sold by private treaty 21 Oct 2022,20221021,6 Narooma Street,GREGORY HILLS,NSW,2557,-34.030117,150.782425,4,4,4,House,House,False,450.0,m2,False
2017983699,listing,/14-vines-way-catherine-field-nsw-2557-2017983699,950000,is-sold,Sold by private treaty 27 Sep 2022,20220927,14 Vines Way,CATHERINE FIELD,NSW,2557,-34.0105934,150.754868,4,4,4,House,House,False,0.0,m2,False
2018020024,listing,/21-verdant-drive-gledswood-hills-nsw-2557-2018020024,1280000,is-sold,Sold prior to auction 30 Sep 2022,20220930,21 Verdant Drive,GLEDSWOOD HILLS,NSW,2557,-34.015873,150.786362,NaN,NaN,NaN,VacantLand,Vacant land,False,838.0,m2,False
2018026918,listing,/9-mannes-road-gledswood-hills-nsw-2557-2018026918,902700,is-sold,Sold by private treaty 30 Sep 2022,20220930,9 Mannes Road,GLEDSWOOD HILLS,NSW,2557,-34.02177,150.7742,4,4,4,House,House,False,375.0,m2,False
2018039775,listing,/7-fenwick-street-gledswood-hills-nsw-2557-2018039775,960000,is-sold,Sold by private treaty 18 Oct 2022,20221018,7 Fenwick Street,GLEDSWOOD HILLS,NSW,2557,-34.0159,150.777618,4,4,4,House,House,False,0.0,m2,False
2018042830,listing,/116-audley-circuit-gregory-hills-nsw-2557-2018042830,750000,is-sold,Sold by private treaty 12 Oct 2022,20221012,116 Audley Circuit,GREGORY HILLS,NSW,2557,-34.0287628,150.78064,3,3,3,House,House,False,0.0,m2,False
2018056042,listing,/27-crest-road-gledswood-hills-nsw-2557-2018056042,750000,is-sold,Sold by private treaty 27 Sep 2022,20220927,27 Crest Road,GLEDSWOOD HILLS,NSW,2557,-34.0179672,150.783752,NaN,NaN,NaN,VacantLand,Vacant land,False,449.0,m2,False
2018085363,listing,/11-kavanagh-street-gregory-hills-nsw-2557-2018085363,1100000,is-sold,Sold by private treaty 29 Sep 2022,20220929,11 Kavanagh Street,GREGORY HILLS,NSW,2557,-34.0280151,150.77269,4,4,4,House,House,False,468.0,m2,False
2018091834,listing,/rossmore-nsw-2557-2018091834,2560000,is-sold,Sold by private treaty 27 Sep 2022,20220927,NaN,ROSSMORE,NSW,2557,-33.93919,150.7741,NaN,NaN,NaN,VacantLand,Vacant land,True,2.2,ha,False
2018095948,listing,/95-ingall-loop-catherine-field-nsw-2557-2018095948,1410000,is-sold,Sold by private treaty 18 Oct 2022,20221018,95 Ingall Loop,CATHERINE FIELD,NSW,2557,-34.00265,150.754959,5,5,5,House,House,False,516.0,m2,False
2018102645,listing,/11-eaglerange-avenue-gledswood-hills-nsw-2557-2018102645,1485000,is-sold,Sold by private treaty 22 Oct 2022,20221022,11 Eaglerange Avenue,GLEDSWOOD HILLS,NSW,2557,-34.01777,150.774078,4,4,4,House,House,False,534.0,m2,False
2018116136,listing,/11-correa-circuit-gregory-hills-nsw-2557-2018116136,1350000,is-sold,Sold by private treaty 05 Oct 2022,20221005,11 Correa Circuit,GREGORY HILLS,NSW,2557,-34.02363,150.781586,5,5,5,House,House,False,450.0,m2,False
2018154518,listing,/72-explorer-street-gregory-hills-nsw-2557-2018154518,990000,is-sold,Sold by private treaty 18 Oct 2022,20221018,72 Explorer Street,GREGORY HILLS,NSW,2557,-34.0282631,150.766678,4,4,4,House,House,False,0.0,m2,False
2017796542,listing,/5a-verdant-drive-gledswood-hills-nsw-2557-2017796542,Price Withheld,is-sold,Sold by private treaty 16 Sep 2022,20220916,5A Verdant Drive,GLEDSWOOD HILLS,NSW,2557,-34.015873,150.786362,5,5,5,House,House,False,400.0,m2,False
2017809050,listing,/4-viking-street-gregory-hills-nsw-2557-2017809050,1140000,is-sold,Sold by private treaty 11 Sep 2022,20220911,4 Viking Street,GREGORY HILLS,NSW,2557,-34.031208,150.772415,4,4,4,House,House,False,503.0,m2,False
2017848574,listing,/7-beresford-avenue-gledswood-hills-nsw-2557-2017848574,790000,is-sold,Sold by private treaty 06 Sep 2022,20220906,7 Beresford Avenue,GLEDSWOOD HILLS,NSW,2557,-34.0105972,150.779373,NaN,NaN,NaN,VacantLand,Vacant land,False,477.0,m2,False
2017865703,listing,/14-barwick-link-gledswood-hills-nsw-2557-2017865703,995000,is-sold,Sold by private treaty 08 Sep 2022,20220908,14 Barwick Link,GLEDSWOOD HILLS,NSW,2557,-34.0149879,150.77832,4,4,4,House,House,False,420.0,m2,False
2017873223,listing,/15-caballo-street-gledswood-hills-nsw-2557-2017873223,1015000,is-sold,Sold by private treaty 05 Sep 2022,20220905,15 Caballo Street,GLEDSWOOD HILLS,NSW,2557,-34.0128555,150.783524,4,4,4,House,House,False,400.0,m2,False
2017896063,listing,/14-oaklands-circuit-gregory-hills-nsw-2557-2017896063,1250000,is-sold,Sold by private treaty 13 Sep 2022,20220913,14 Oaklands Circuit,GREGORY HILLS,NSW,2557,-34.027153,150.784088,5,5,5,House,House,False,375.0,m2,False
2017907153,listing,/14-rochford-road-gledswood-hills-nsw-2557-2017907153,1195000,is-sold,Sold by private treaty 16 Sep 2022,20220916,14 Rochford Road,GLEDSWOOD HILLS,NSW,2557,-34.01134,150.770691,4,4,4,House,House,False,399.0,m2,False
2017942709,listing,/15-narooma-street-gregory-hills-nsw-2557-2017942709,950000,is-sold,Sold by private treaty 01 Sep 2022,20220901,15 Narooma Street,GREGORY HILLS,NSW,2557,-34.031086,150.782608,4,4,4,House,House,False,400.0,m2,False
2017944145,listing,/38-bluestone-avenue-gledswood-hills-nsw-2557-2017944145,1025000,is-sold,Sold by private treaty 09 Sep 2022,20220909,38 Bluestone Avenue,GLEDSWOOD HILLS,NSW,2557,-34.00656,150.783661,4,4,4,House,House,False,403.0,m2,False
2017962851,listing,/26-lancaster-street-gregory-hills-nsw-2557-2017962851,1190000,is-sold,Sold by private treaty 02 Sep 2022,20220902,26 Lancaster Street,GREGORY HILLS,NSW,2557,-34.02684,150.773682,4,4,4,House,House,False,540.0,m2,False
2017971771,listing,/14-willunga-street-gledswood-hills-nsw-2557-2017971771,888000,is-sold,Sold by private treaty 01 Sep 2022,20220901,14 Willunga Street,GLEDSWOOD HILLS,NSW,2557,-34.0209351,150.775223,4,4,4,House,House,False,375.0,m2,False
2017985319,listing,/43-o-donnell-street-gregory-hills-nsw-2557-2017985319,1050000,is-sold,Sold by private treaty 15 Sep 2022,20220915,43 O'Donnell Street,GREGORY HILLS,NSW,2557,-34.03097,150.773956,4,4,4,House,House,False,553.0,m2,False
2018003034,listing,/89-kavanagh-street-gregory-hills-nsw-2557-2018003034,870560,is-sold,Sold by private treaty 19 Sep 2022,20220919,89 Kavanagh Street,GREGORY HILLS,NSW,2557,-34.0277,150.780045,4,4,4,House,House,False,0.0,m2,False
2018003625,listing,/6-tarrawarra-avenue-gledswood-hills-nsw-2557-2018003625,1050000,is-sold,Sold by private treaty 09 Sep 2022,20220909,6 Tarrawarra Avenue,GLEDSWOOD HILLS,NSW,2557,-34.01483,150.769424,4,4,4,House,House,False,500.0,m2,False
2018005789,listing,/16-channon-street-gledswood-hills-nsw-2557-2018005789,1190000,is-sold,Sold by private treaty 16 Sep 2022,20220916,16 Channon Street,GLEDSWOOD HILLS,NSW,2557,-34.0075226,150.784286,4,4,4,House,House,False,502.0,m2,False
2018011681,listing,/12-vines-way-catherine-field-nsw-2557-2018011681,930000,is-sold,Sold by private treaty 05 Sep 2022,20220905,12 Vines Way,CATHERINE FIELD,NSW,2557,-34.01062,150.754761,4,4,4,House,House,False,0.0,m2,False
2018016957,listing,/14-wollemi-circuit-gregory-hills-nsw-2557-2018016957,815000,is-sold,Sold by private treaty 15 Sep 2022,20220915,14 Wollemi Circuit,GREGORY HILLS,NSW,2557,-34.0291672,150.78038,3,3,3,House,House,False,283.0,m2,False
2018019869,listing,/19a-silverton-street-gregory-hills-nsw-2557-2018019869,835000,is-sold,Sold by private treaty 13 Sep 2022,20220913,19a Silverton Street,GREGORY HILLS,NSW,2557,-34.0290031,150.782318,3,3,3,House,House,False,0.0,m2,False
2018022906,listing,/14-gracedale-view-gledswood-hills-nsw-2557-2018022906,1217000,is-sold,Sold by private treaty 01 Sep 2022,20220901,14 Gracedale View,GLEDSWOOD HILLS,NSW,2557,-34.01803,150.777145,6,6,6,House,House,False,516.0,m2,False
2018038701,listing,/285-catherine-fields-road-catherine-field-nsw-2557-2018038701,3050000,is-sold,Sold by private treaty 13 Sep 2022,20220913,285 Catherine Fields Road,CATHERINE FIELD,NSW,2557,-33.9843254,150.758133,4,4,4,AcreageSemiRural,Acreage / Semi-Rural,True,0.0,m2,False
2017660327,listing,/1-whistler-street-gregory-hills-nsw-2557-2017660327,Price Withheld,is-sold,Sold by private treaty 11 Aug 2022,20220811,1 Whistler Street,GREGORY HILLS,NSW,2557,-34.02265,150.77565,4,4,4,House,House,False,0.0,m2,False
2017866384,listing,/51-the-hermitage-way-gledswood-hills-nsw-2557-2017866384,960000,is-sold,Sold by private treaty 18 Aug 2022,20220818,51 The Hermitage Way,GLEDSWOOD HILLS,NSW,2557,-34.01515,150.7767,4,4,4,House,House,False,401.0,m2,False
2017895431,listing,/55-long-reef-circuit-gregory-hills-nsw-2557-2017895431,970000,is-sold,Sold by private treaty 14 Aug 2022,20220814,55 Long Reef Circuit,GREGORY HILLS,NSW,2557,-34.0256233,150.78157,4,4,4,House,House,False,379.0,m2,False
2017898025,listing,/26-tasman-street-gregory-hills-nsw-2557-2017898025,1130000,is-sold,Sold by private treaty 18 Aug 2022,20220818,26 Tasman Street,GREGORY HILLS,NSW,2557,-34.0318222,150.784775,4,4,4,House,House,False,332.0,m2,False
2017901683,listing,/5-duncombe-ave-avenue-gledswood-hills-nsw-2557-2017901683,975000,is-sold,Sold by private treaty 17 Aug 2022,20220817,5 Duncombe Ave Avenue,GLEDSWOOD HILLS,NSW,2557,-34.02242,150.773849,4,4,4,House,House,False,377.0,m2,False
2017916733,listing,/25-rochester-street-gregory-hills-nsw-2557-2017916733,900000,is-sold,Sold by private treaty 26 Aug 2022,20220826,25 Rochester Street,GREGORY HILLS,NSW,2557,-34.03333,150.783752,NaN,NaN,NaN,VacantLand,Vacant land,False,628.0,m2,False
2017923811,listing,/118-gledswood-hills-drive-gledswood-hills-nsw-2557-2017923811,1600000,is-sold,Sold by private treaty 17 Aug 2022,20220817,118 Gledswood Hills Drive,GLEDSWOOD HILLS,NSW,2557,-34.0129776,150.789551,4,4,4,House,House,False,803.0,m2,False
2017927753,listing,/91-ingall-loop-catherine-field-nsw-2557-2017927753,1570000,is-sold,Sold by private treaty 09 Aug 2022,20220809,91 Ingall Loop,CATHERINE FIELD,NSW,2557,-34.0028229,150.754929,5,5,5,House,House,False,537.0,m2,False
2017939991,listing,/118-village-circuit-gregory-hills-nsw-2557-2017939991,1020000,is-sold,Sold at auction 18 Aug 2022,20220818,118 Village Circuit,GREGORY HILLS,NSW,2557,-34.0315742,150.777435,4,4,4,House,House,False,375.0,m2,False
2017940225,listing,/4-sylvester-lane-gregory-hills-nsw-2557-2017940225,538500,is-sold,Sold at auction 13 Aug 2022,20220813,4 Sylvester Lane,GREGORY HILLS,NSW,2557,-34.0258331,150.770462,1,1,1,Terrace,Terrace,False,442.0,m2,False
2017944600,listing,/9a-watervale-avenue-catherine-field-nsw-2557-2017944600,787000,is-sold,Sold by private treaty 24 Aug 2022,20220824,9a Watervale Avenue,CATHERINE FIELD,NSW,2557,-34.0124245,150.764908,3,3,3,House,House,False,0.0,m2,False
2017949105,listing,/12-willunga-street-gledswood-hills-nsw-2557-2017949105,880000,is-sold,Sold by private treaty 22 Aug 2022,20220822,12 Willunga Street,GLEDSWOOD HILLS,NSW,2557,-34.0210037,150.77533,4,4,4,House,House,False,375.0,m2,False
2017954665,listing,/6-beryl-street-catherine-field-nsw-2557-2017954665,930000,is-sold,Sold by private treaty 15 Aug 2022,20220815,6 Beryl Street,CATHERINE FIELD,NSW,2557,-34.00523,150.75621,3,3,3,House,House,False,381.0,m2,False
2017956243,listing,/16-vines-way-catherine-field-nsw-2557-2017956243,1005000,is-sold,Sold prior to auction 19 Aug 2022,20220819,16 Vines Way,CATHERINE FIELD,NSW,2557,-34.01054,150.754959,3,3,3,House,House,False,375.0,m2,False
2017966793,listing,/27-discovery-circuit-gregory-hills-nsw-2557-2017966793,1010000,is-sold,Sold by private treaty 18 Aug 2022,20220818,27 Discovery Circuit,GREGORY HILLS,NSW,2557,-34.0280838,150.7669,4,4,4,House,House,False,375.0,m2,False
2017970604,listing,/189-catherine-fields-road-catherine-field-nsw-2557-2017970604,1710000,is-sold,Sold by private treaty 23 Aug 2022,20220823,189 Catherine Fields Road,CATHERINE FIELD,NSW,2557,-33.991848,150.76268,4,4,4,Rural,Rural,True,4046.0,m2,False
2017987376,listing,/18-kinloch-street-gledswood-hills-nsw-2557-2017987376,1125000,is-sold,Sold by private treaty 30 Aug 2022,20220830,18 Kinloch Street,GLEDSWOOD HILLS,NSW,2557,-34.0159,150.776077,4,4,4,House,House,False,493.0,m2,False
2017988618,listing,/3-cape-york-street-gregory-hills-nsw-2557-2017988618,1150000,is-sold,Sold by private treaty 01 Sep 2022,20220901,3 Cape York Street,GREGORY HILLS,NSW,2557,-34.03185,150.783569,4,4,4,House,House,False,450.0,m2,False
2018018325,listing,/23-challenger-street-gregory-hills-nsw-2557-2018018325,1100000,is-sold,Sold by private treaty 31 Aug 2022,20220831,23 Challenger Street,GREGORY HILLS,NSW,2557,-34.033,150.7748,4,4,4,House,House,False,463.0,m2,False
2018033313,listing,/lot-9270-cade-way-catherine-field-nsw-2557-2018033313,1084900,is-sold,Sold by private treaty 23 Aug 2022,20220823,Lot 9270 Cade Way,CATHERINE FIELD,NSW,2557,-33.9898,150.768051,4,4,4,House,House,False,300.0,m2,False
2017251408,listing,/41-bellfield-avenue-rossmore-nsw-2557-2017251408,4870000,is-sold,Sold by private treaty 13 Jul 2022,20220713,41 Bellfield Avenue,ROSSMORE,NSW,2557,-33.9362679,150.76123,6,6,6,House,House,False,0.0,m2,False
2017752131,listing,/8-north-avenue-rossmore-nsw-2557-2017752131,3650000,is-sold,Sold by private treaty 15 Jul 2022,20220715,8 North Avenue,ROSSMORE,NSW,2557,-33.93808,150.774689,4,4,4,House,House,True,2.02,ha,False
2017753210,listing,/220-springfield-road-catherine-field-nsw-2557-2017753210,2350000,is-sold,Sold by private treaty 11 Jul 2022,20220711,220 Springfield Road,CATHERINE FIELD,NSW,2557,-33.9933357,150.759048,8,8,8,House,House,False,4001.0,m2,False
2017784440,listing,/30-copper-drive-catherine-field-nsw-2557-2017784440,910000,is-sold,Sold by private treaty 08 Jul 2022,20220708,30 Copper Drive,CATHERINE FIELD,NSW,2557,-34.0042038,150.757126,4,4,4,House,House,False,300.0,m2,False
2017826096,listing,/35-king-street-rossmore-nsw-2557-2017826096,6200000,is-sold,Sold by private treaty 13 Jul 2022,20220713,35 King Street,ROSSMORE,NSW,2557,-33.9449921,150.7853,3,3,3,House,House,False,0.0,m2,False
2017852054,listing,/77b-water-gum-road-gregory-hills-nsw-2557-2017852054,1150000,is-sold,Sold at auction 15 Jul 2022,20220715,77b Water Gum Road,GREGORY HILLS,NSW,2557,-34.0232925,150.7859,4,4,4,House,House,False,364.0,m2,False
2017853212,listing,/8-donovan-blvd-gregory-hills-nsw-2557-2017853212,1350000,is-sold,Sold by private treaty 29 Jul 2022,20220729,8 Donovan Blvd,GREGORY HILLS,NSW,2557,-34.0299149,150.771255,4,4,4,House,House,False,607.0,m2,False
2017854938,listing,/4-herriot-close-gledswood-hills-nsw-2557-2017854938,1245000,is-sold,Sold by private treaty 26 Jul 2022,20220726,4 Herriot Close,GLEDSWOOD HILLS,NSW,2557,-34.0177269,150.7766,4,4,4,House,House,False,533.0,m2,False
2017858630,listing,/17-may-avenue-rossmore-nsw-2557-2017858630,3405000,is-sold,Sold at auction 09 Jul 2022,20220709,17 May Avenue,ROSSMORE,NSW,2557,-33.93708,150.75705,4,4,4,House,House,True,2.04,ha,False
2017859713,listing,/11-mannes-road-gledswood-hills-nsw-2557-2017859713,990000,is-sold,Sold by private treaty 14 Jul 2022,20220714,11 Mannes Road,GLEDSWOOD HILLS,NSW,2557,-34.0218658,150.774292,4,4,4,House,House,False,450.0,m2,False
2017874868,listing,/39-minnamurra-drive-gregory-hills-nsw-2557-2017874868,836000,is-sold,Sold by private treaty 11 Jul 2022,20220711,39 Minnamurra Drive,GREGORY HILLS,NSW,2557,-34.02878,150.778671,3,3,3,House,House,False,244.0,m2,False
2017881817,listing,/52-curlewis-street-gledswood-hills-nsw-2557-2017881817,815000,is-sold,Sold by private treaty 01 Aug 2022,20220801,52 Curlewis Street,GLEDSWOOD HILLS,NSW,2557,-34.01605,150.769318,3,3,3,Townhouse,Townhouse,False,181.0,m2,False
2017886878,listing,/40-rosella-circuit-gregory-hills-nsw-2557-2017886878,1050000,is-sold,Sold by private treaty 02 Aug 2022,20220802,40 Rosella Circuit,GREGORY HILLS,NSW,2557,-34.0249825,150.774124,5,5,5,House,House,False,459.0,m2,False
2017895753,listing,/5-beresford-avenue-gledswood-hills-nsw-2557-2017895753,1470000,is-sold,Sold by private treaty 08 Aug 2022,20220808,5 Beresford Avenue,GLEDSWOOD HILLS,NSW,2557,-34.0108147,150.778732,4,4,4,House,House,False,401.0,m2,False
2017898201,listing,/30-oaklands-circuit-gregory-hills-nsw-2557-2017898201,1040000,is-sold,Sold by private treaty 09 Aug 2022,20220809,30 Oaklands Circuit,GREGORY HILLS,NSW,2557,-34.0265274,150.783218,4,4,4,House,House,False,375.0,m2,False
2017898995,listing,/7-channon-street-gledswood-hills-nsw-2557-2017898995,1160000,is-sold,Sold by private treaty 09 Aug 2022,20220809,7 Channon Street,GLEDSWOOD HILLS,NSW,2557,-34.0079651,150.783691,4,4,4,House,House,False,491.0,m2,False
2017904181,listing,/46-mornington-grove-gledswood-hills-nsw-2557-2017904181,1800000,is-sold,Sold at auction 25 Jul 2022,20220725,46 Mornington Grove,GLEDSWOOD HILLS,NSW,2557,-34.0151176,150.77359,4,4,4,House,House,False,503.0,m2,False
2017923481,listing,/67-hillston-circuit-gregory-hills-nsw-2557-2017923481,715000,is-sold,Sold by private treaty 25 Jul 2022,20220725,67 Hillston Circuit,GREGORY HILLS,NSW,2557,-34.03613,150.779984,NaN,NaN,NaN,VacantLand,Vacant land,False,382.0,m2,False
2017984804,listing,/76-firewheel-circ-gregory-hills-nsw-2557-2017984804,840000,is-sold,Sold by private treaty 31 Jul 2022,20220731,76 Firewheel Circ,GREGORY HILLS,NSW,2557,-34.0225067,150.786453,NaN,NaN,NaN,VacantLand,Vacant land,False,539.0,m2,False
2017991508,listing,/62-ingall-loop-catherine-field-nsw-2557-2017991508,1105000,is-sold,Sold by private treaty 16 Jul 2022,20220716,62 Ingall Loop,CATHERINE FIELD,NSW,2557,-34.0031357,150.75383,4,4,4,House,House,False,442.0,m2,False
2017283974,listing,/475-twelfth-avenue-rossmore-nsw-2557-2017283974,7300000,is-sold,Sold by private treaty 06 Jun 2022,20220606,475 Twelfth Avenue,ROSSMORE,NSW,2557,-33.92224,150.7884,8,8,8,Rural,Rural,True,2.02,ha,False
2017642793,listing,/51-glendiver-street-gledswood-hills-nsw-2557-2017642793,1065000,is-sold,Sold by private treaty 28 Jun 2022,20220628,51 Glendiver Street,GLEDSWOOD HILLS,NSW,2557,-34.014698,150.784668,4,4,4,House,House,False,416.0,m2,False
2017683708,listing,/27-cloverhill-crescent-gledswood-hills-nsw-2557-2017683708,1075000,is-sold,Sold by private treaty 14 Jun 2022,20220614,27 Cloverhill Crescent,GLEDSWOOD HILLS,NSW,2557,-34.0166168,150.764267,4,4,4,House,House,False,431.0,m2,False
2017730583,listing,/30a-barrier-street-gregory-hills-nsw-2557-2017730583,840000,is-sold,Sold by private treaty 30 Jun 2022,20220630,30A Barrier Street,GREGORY HILLS,NSW,2557,-34.03568,150.783737,4,4,4,House,House,False,286.0,m2,False
2017738085,listing,/17-healy-avenue-gregory-hills-nsw-2557-2017738085,1437000,is-sold,Sold by private treaty 06 Jun 2022,20220606,17 Healy Avenue,GREGORY HILLS,NSW,2557,-34.02715,150.773956,4,4,4,House,House,False,540.0,m2,False
2017743438,listing,/155a-village-circuit-gregory-hills-nsw-2557-2017743438,950000,is-sold,Sold by private treaty 01 Jul 2022,20220701,155A Village Circuit,GREGORY HILLS,NSW,2557,-34.0333366,150.778946,5,5,5,House,House,False,250.0,m2,False
2017745736,listing,/80-rossmore-avenue-rossmore-nsw-2557-2017745736,5250000,is-sold,Sold by private treaty 16 Jun 2022,20220616,80 Rossmore Avenue,ROSSMORE,NSW,2557,-33.944,150.772125,1,1,1,AcreageSemiRural,Acreage / Semi-Rural,True,0.0,m2,False
2017765971,listing,/13b-tasman-street-gregory-hills-nsw-2557-2017765971,940000,is-sold,Sold by private treaty 22 Jun 2022,20220622,13b Tasman Street,GREGORY HILLS,NSW,2557,-34.0313263,150.784332,4,4,4,House,House,False,0.0,m2,False
2017783780,listing,/13a-watervale-avenue-catherine-field-nsw-2557-2017783780,780000,is-sold,Sold by private treaty 24 Jun 2022,20220624,13A Watervale Avenue,CATHERINE FIELD,NSW,2557,-34.0124664,150.764954,3,3,3,House,House,False,0.0,m2,False
2017795643,listing,/9-barwick-link-gledswood-hills-nsw-2557-2017795643,1110000,is-sold,Sold by private treaty 28 Jun 2022,20220628,9 Barwick Link,GLEDSWOOD HILLS,NSW,2557,-34.0152855,150.777847,4,4,4,House,House,False,441.0,m2,False
2017808406,listing,/78-gledswood-hills-drive-gledswood-hills-nsw-2557-2017808406,935000,is-sold,Sold by private treaty 14 Jun 2022,20220614,78 Gledswood Hills Drive,GLEDSWOOD HILLS,NSW,2557,-34.014286,150.784744,3,3,3,House,House,False,416.0,m2,False
2017818901,listing,/1b-silverton-street-gregory-hills-nsw-2557-2017818901,740000,is-sold,Sold by private treaty 15 Jun 2022,20220615,1B Silverton Street,GREGORY HILLS,NSW,2557,-34.0294151,150.783417,2,2,2,House,House,False,0.0,m2,False
2017821449,listing,/37-spitzer-street-gregory-hills-nsw-2557-2017821449,1025000,is-sold,Sold by private treaty 07 Jun 2022,20220607,37 Spitzer Street,GREGORY HILLS,NSW,2557,-34.03179,150.776886,4,4,4,House,House,False,375.0,m2,False
2017828207,listing,/902x-somervaille-drive-catherine-field-nsw-2557-2017828207,642000,is-sold,Sold by private treaty 10 Jun 2022,20220610,902x Somervaille Drive,CATHERINE FIELD,NSW,2557,-34.0114326,150.776733,NaN,NaN,NaN,VacantLand,Vacant land,False,312.0,m2,False
2017841422,listing,/77-masterfield-street-rossmore-nsw-2557-2017841422,Price Withheld,is-sold,Sold by private treaty 21 Jun 2022,20220621,77 Masterfield Street,ROSSMORE,NSW,2557,-33.9475937,150.762634,7,7,7,House,House,True,2.0,ha,False
2017848111,listing,/2-gemini-street-gregory-hills-nsw-2557-2017848111,580000,is-sold,Sold by private treaty 08 Jul 2022,20220708,2 Gemini Street,GREGORY HILLS,NSW,2557,-34.0292969,150.770721,2,2,2,House,House,False,0.0,m2,False
2017852083,listing,/35-amberley-street-gledswood-hills-nsw-2557-2017852083,1268000,is-sold,Sold at auction 02 Jul 2022,20220702,35 Amberley Street,GLEDSWOOD HILLS,NSW,2557,-34.0162048,150.778931,4,4,4,House,House,False,516.0,m2,False
2017872767,listing,/16-golden-wattle-avenue-gregory-hills-nsw-2557-2017872767,1080000,is-sold,Sold by private treaty 08 Jul 2022,20220708,16 Golden Wattle Avenue,GREGORY HILLS,NSW,2557,-34.0233078,150.780319,4,4,4,House,House,False,450.0,m2,False
2017886375,listing,/11-rymill-crescent-gledswood-hills-nsw-2557-2017886375,1230000,is-sold,Sold by private treaty 27 Jun 2022,20220627,11 Rymill Crescent,GLEDSWOOD HILLS,NSW,2557,-34.01535,150.773972,4,4,4,House,House,False,421.0,m2,False
2018159303,listing,/lot-9038-somervaille-dr-catherine-field-nsw-2557-2018159303,1036900,is-sold,Sold by private treaty 06 Jul 2022,20220706,Lot 9038 Somervaille Dr,CATHERINE FIELD,NSW,2557,-33.9878159,150.769272,4,4,4,NewHouseLand,New House & Land,False,300.0,m2,False
2017567733,listing,/lot-15-hewitson-court-gledswood-hills-nsw-2557-2017567733,Price Withheld,is-sold,Sold by private treaty 19 May 2022,20220519,Lot 15 Hewitson Court,GLEDSWOOD HILLS,NSW,2557,-34.01523,150.766586,5,5,5,NewHouseLand,New House & Land,False,728.0,m2,False
2017567757,listing,/lot-34-florian-boulevard-gledswood-hills-nsw-2557-2017567757,Price Withheld,is-sold,Sold by private treaty 19 May 2022,20220519,Lot 34 Florian Boulevard,GLEDSWOOD HILLS,NSW,2557,-33.99954,150.789032,5,5,5,NewHouseLand,New House & Land,False,512.0,m2,False
2017567796,listing,/lot-35-florian-boulevard-gledswood-hills-nsw-2557-2017567796,Price Withheld,is-sold,Sold by private treaty 03 Jun 2022,20220603,Lot 35 Florian Boulevard,GLEDSWOOD HILLS,NSW,2557,-34.01665,150.7704,5,5,5,NewHouseLand,New House & Land,False,505.0,m2,False
2017646014,listing,/6-myall-street-gregory-hills-nsw-2557-2017646014,939000,is-sold,Sold by private treaty 18 May 2022,20220518,6 Myall Street,GREGORY HILLS,NSW,2557,-34.0230675,150.778641,4,4,4,House,House,False,300.0,m2,False
2017658319,listing,/13-pearwood-street-catherine-field-nsw-2557-2017658319,900000,is-sold,Sold by private treaty 17 May 2022,20220517,13 Pearwood Street,CATHERINE FIELD,NSW,2557,-34.0125961,150.762589,4,4,4,House,House,False,250.0,m2,False
2017688526,listing,/18-percy-street-gregory-hills-nsw-2557-2017688526,980000,is-sold,Sold by private treaty 03 Jun 2022,20220603,18 Percy Street,GREGORY HILLS,NSW,2557,-34.0302162,150.766724,4,4,4,House,House,False,375.0,m2,False
2017712424,listing,/66a-firewheel-circuit-gregory-hills-nsw-2557-2017712424,991000,is-sold,Sold by private treaty 23 May 2022,20220523,66a Firewheel Circuit,GREGORY HILLS,NSW,2557,-34.0225067,150.786453,4,4,4,House,House,False,250.0,m2,False
2017714836,listing,/38-bowen-circuit-gledswood-hills-nsw-2557-2017714836,1050000,is-sold,Sold by private treaty 20 May 2022,20220520,38 Bowen Circuit,GLEDSWOOD HILLS,NSW,2557,-34.0140762,150.766647,4,4,4,House,House,False,0.0,m2,False
2017721718,listing,/62-discovery-circuit-gregory-hills-nsw-2557-2017721718,900000,is-sold,Sold by private treaty 31 May 2022,20220531,62 Discovery Circuit,GREGORY HILLS,NSW,2557,-34.02676,150.7693,4,4,4,House,House,False,422.0,m2,False
2017736141,listing,/20-junee-street-gregory-hills-nsw-2557-2017736141,1045000,is-sold,Sold by private treaty 27 May 2022,20220527,20 Junee Street,GREGORY HILLS,NSW,2557,-34.0278473,150.7827,4,4,4,House,House,False,427.0,m2,False
2017748765,listing,/11-spice-street-gledswood-hills-nsw-2557-2017748765,1400000,is-sold,Sold by private treaty 25 May 2022,20220525,11 Spice Street,GLEDSWOOD HILLS,NSW,2557,-34.0125542,150.785019,5,5,5,House,House,False,477.0,m2,False
2017759649,listing,/24-kookaburra-drive-gregory-hills-nsw-2557-2017759649,1180000,is-sold,Sold by private treaty 18 May 2022,20220518,24 Kookaburra Drive,GREGORY HILLS,NSW,2557,-34.0226135,150.77803,4,4,4,House,House,False,487.0,m2,False
2017773045,listing,/23-correa-circuit-gregory-hills-nsw-2557-2017773045,1150000,is-sold,Sold by private treaty 02 Jun 2022,20220602,23 Correa Circuit,GREGORY HILLS,NSW,2557,-34.02435,150.7818,4,4,4,House,House,False,527.0,m2,False
2017774284,listing,/41-coral-flame-circuit-gregory-hills-nsw-2557-2017774284,929000,is-sold,Sold by private treaty 16 May 2022,20220516,41 Coral Flame Circuit,GREGORY HILLS,NSW,2557,-34.02305,150.7796,3,3,3,House,House,False,300.0,m2,False
2017776020,listing,/18-silverwood-street-gledswood-hills-nsw-2557-2017776020,1305000,is-sold,Sold by private treaty 20 May 2022,20220520,18 Silverwood Street,GLEDSWOOD HILLS,NSW,2557,-34.01773,150.768723,4,4,4,House,House,False,512.0,m2,False
2017792999,listing,/21-healy-avenue-gregory-hills-nsw-2557-2017792999,1455000,is-sold,Sold by private treaty 16 May 2022,20220516,21 Healy Avenue,GREGORY HILLS,NSW,2557,-34.0271378,150.77359,5,5,5,House,House,False,540.0,m2,False
2017795914,listing,/34-rosella-circuit-gregory-hills-nsw-2557-2017795914,1040000,is-sold,Sold by private treaty 19 May 2022,20220519,34 Rosella Circuit,GREGORY HILLS,NSW,2557,-34.0250626,150.774567,4,4,4,House,House,False,383.0,m2,False
2017800637,listing,/24-bowen-circuit-gledswood-hills-nsw-2557-2017800637,1090000,is-sold,Sold by private treaty 16 May 2022,20220516,24 Bowen Circuit,GLEDSWOOD HILLS,NSW,2557,-34.0139732,150.767258,4,4,4,House,House,False,312.0,m2,False
2017805880,listing,/6-bywaters-drive-catherine-field-nsw-2557-2017805880,785000,is-sold,Sold by private treaty 03 Jun 2022,20220603,6 Bywaters Drive,CATHERINE FIELD,NSW,2557,-34.0143661,150.764,3,3,3,House,House,False,190.0,m2,False
2017827065,listing,/15a-silverton-street-gregory-hills-nsw-2557-2017827065,1025000,is-sold,Sold by private treaty 30 May 2022,20220530,15A Silverton Street,GREGORY HILLS,NSW,2557,-34.029213,150.782455,4,4,4,House,House,False,0.0,m2,False
2017452832,listing,/lot-210-houghton-road-gledswood-hills-nsw-2557-2017452832,1132000,is-sold,Sold by private treaty 12 May 2022,20220512,Lot 210 Houghton Road,GLEDSWOOD HILLS,NSW,2557,-34.01665,150.7704,3,3,3,Terrace,Terrace,False,577.0,m2,False
2017517438,listing,/lot-17-hewitson-court-gledswood-hills-nsw-2557-2017517438,1728000,is-sold,Sold by private treaty 04 May 2022,20220504,Lot 17 Hewitson Court,GLEDSWOOD HILLS,NSW,2557,-34.0162239,150.771835,4,4,4,NewHouseLand,New House & Land,False,651.0,m2,False
2017593887,listing,/11a-watervale-avenue-catherine-field-nsw-2557-2017593887,820000,is-sold,Sold by private treaty 06 May 2022,20220506,11A Watervale Avenue,CATHERINE FIELD,NSW,2557,-34.0124435,150.764923,3,3,3,House,House,False,0.0,m2,False
2017624016,listing,/15-coral-flame-circuit-gregory-hills-nsw-2557-2017624016,950000,is-sold,Sold by private treaty 11 May 2022,20220511,15 Coral Flame Circuit,GREGORY HILLS,NSW,2557,-34.02415,150.778885,4,4,4,House,House,False,399.0,m2,False
2017645440,listing,/26b-oaklands-circuit-gregory-hills-nsw-2557-2017645440,819000,is-sold,Sold by private treaty 13 May 2022,20220513,26B Oaklands Circuit,GREGORY HILLS,NSW,2557,-34.0268631,150.78299,3,3,3,Townhouse,Townhouse,False,0.0,m2,False
2017659897,listing,/16-fogarty-street-gregory-hills-nsw-2557-2017659897,925000,is-sold,Sold by private treaty 01 May 2022,20220501,16 Fogarty Street,GREGORY HILLS,NSW,2557,-34.02984,150.772888,4,4,4,House,House,False,445.0,m2,False
2017674523,listing,/lot-17-springfield-road-catherine-field-nsw-2557-2017674523,Price Withheld,is-sold,Sold by private treaty 12 May 2022,20220512,Lot 17 Springfield Road,CATHERINE FIELD,NSW,2557,-34.00122,150.7622,3,3,3,House,House,False,0.0,m2,False
2017710582,listing,/30-discovery-circuit-gregory-hills-nsw-2557-2017710582,1500000,is-sold,Sold by private treaty 03 May 2022,20220503,30 Discovery Circuit,GREGORY HILLS,NSW,2557,-34.0269432,150.767258,5,5,5,House,House,False,702.0,m2,False
2017719050,listing,/6-beresford-avenue-gledswood-hills-nsw-2557-2017719050,1200000,is-sold,Sold by private treaty 02 May 2022,20220502,6 Beresford Avenue,GLEDSWOOD HILLS,NSW,2557,-34.0108147,150.778732,4,4,4,House,House,False,423.0,m2,False
2017729047,listing,/20-murrumbidgee-street-gregory-hills-nsw-2557-2017729047,950000,is-sold,Sold by private treaty 02 May 2022,20220502,20 Murrumbidgee Street,GREGORY HILLS,NSW,2557,-34.03072,150.785,4,4,4,House,House,False,0.0,m2,False
2017730820,listing,/22-karen-road-rossmore-nsw-2557-2017730820,4080000,is-sold,Sold by private treaty 09 May 2022,20220509,22 Karen Road,ROSSMORE,NSW,2557,-33.9549179,150.763428,4,4,4,AcreageSemiRural,Acreage / Semi-Rural,True,2.02,ha,False
2017734113,listing,/74-mornington-grove-gledswood-hills-nsw-2557-2017734113,850000,is-sold,Sold by private treaty 11 May 2022,20220511,74 Mornington Grove,GLEDSWOOD HILLS,NSW,2557,-34.01628,150.772186,4,4,4,House,House,False,250.0,m2,False
2017736793,listing,/20-booth-street-gregory-hills-nsw-2557-2017736793,840000,is-sold,Sold by private treaty 10 May 2022,20220510,20 Booth Street,GREGORY HILLS,NSW,2557,-34.02929,150.7652,3,3,3,House,House,False,270.0,m2,False
2017742179,listing,/41-butler-street-gregory-hills-nsw-2557-2017742179,950000,is-sold,Sold by private treaty 02 May 2022,20220502,41 Butler Street,GREGORY HILLS,NSW,2557,-34.0283432,150.776031,4,4,4,House,House,False,313.0,m2,False
2017742303,listing,/44-kingsdale-avenue-catherine-field-nsw-2557-2017742303,800000,is-sold,Sold by private treaty 02 May 2022,20220502,44 Kingsdale Avenue,CATHERINE FIELD,NSW,2557,-34.0140343,150.7644,3,3,3,House,House,False,196.0,m2,False
2017758082,listing,/52-bowen-circuit-gledswood-hills-nsw-2557-2017758082,1228500,is-sold,Sold by private treaty 08 May 2022,20220508,52 Bowen Circuit,GLEDSWOOD HILLS,NSW,2557,-34.0134468,150.767532,4,4,4,House,House,False,0.0,m2,False
2017759877,listing,/1-tarrawarra-av-gledswood-hills-nsw-2557-2017759877,1355000,is-sold,Sold by private treaty 04 May 2022,20220504,1 Tarrawarra Av,GLEDSWOOD HILLS,NSW,2557,-34.0146637,150.768784,4,4,4,House,House,False,584.0,m2,False
2017770406,listing,/8150-5-timbs-way-catherine-field-nsw-2557-2017770406,650000,is-sold,Sold by private treaty 09 May 2022,20220509,8150/5 Timbs Way,CATHERINE FIELD,NSW,2557,-33.9878159,150.769272,NaN,NaN,NaN,VacantLand,Vacant land,False,311.0,m2,False
2017774318,listing,/20-kookaburra-drive-gregory-hills-nsw-2557-2017774318,1260000,is-sold,Sold by private treaty 16 May 2022,20220516,20 Kookaburra Drive,GREGORY HILLS,NSW,2557,-34.02313,150.776871,4,4,4,House,House,False,518.0,m2,False
2017803522,listing,/18-yaldara-street-gledswood-hills-nsw-2557-2017803522,1000000,is-sold,Sold by private treaty 09 May 2022,20220509,18 Yaldara street,GLEDSWOOD HILLS,NSW,2557,-34.02038,150.775314,4,4,4,House,House,False,0.0,m2,False
2017528179,listing,/3-hennings-way-gledswood-hills-nsw-2557-2017528179,1870000,is-sold,Sold by private treaty 20 Apr 2022,20220420,3 Hennings Way,GLEDSWOOD HILLS,NSW,2557,-34.0160751,150.774933,4,4,4,House,House,False,484.0,m2,False
2017550653,listing,/47-robens-crescent-catherine-field-nsw-2557-2017550653,2520000,is-sold,Sold by private treaty 29 Apr 2022,20220429,47 Robens Crescent,CATHERINE FIELD,NSW,2557,-33.96176,150.754059,5,5,5,House,House,True,2.02,ha,False
2017585395,listing,/191a-village-circuit-gregory-hills-nsw-2557-2017585395,1000000,is-sold,Sold by private treaty 22 Apr 2022,20220422,191A Village Circuit,GREGORY HILLS,NSW,2557,-34.0329361,150.782669,5,5,5,House,House,False,0.0,m2,False
2017588767,listing,/191b-village-circuit-gregory-hills-nsw-2557-2017588767,1018000,is-sold,Sold by private treaty 22 Apr 2022,20220422,191B Village Circuit,GREGORY HILLS,NSW,2557,-34.0329361,150.782669,5,5,5,House,House,False,0.0,m2,False
2017593229,listing,/26a-firewheel-circuit-gregory-hills-nsw-2557-2017593229,1245000,is-sold,Sold by private treaty 08 Apr 2022,20220408,26A Firewheel Circuit,GREGORY HILLS,NSW,2557,-34.0227,150.78656,2,2,2,House,House,False,0.0,m2,False
2017627339,listing,/26-helsham-street-catherine-field-nsw-2557-2017627339,820000,is-sold,Sold by private treaty 08 Apr 2022,20220408,26 Helsham street,CATHERINE FIELD,NSW,2557,-34.0127754,150.75499,3,3,3,House,House,False,201.0,m2,False
2017676922,listing,/66-village-circuit-gregory-hills-nsw-2557-2017676922,990000,is-sold,Sold by private treaty 10 Apr 2022,20220410,66 Village Circuit,GREGORY HILLS,NSW,2557,-34.0265732,150.776443,3,3,3,House,House,False,385.0,m2,False
2017679592,listing,/lot-8219-5-mcclymont-drive-catherine-field-nsw-2557-2017679592,815000,is-sold,Sold by private treaty 15 Apr 2022,20220415,Lot 8219/5 McClymont Drive,CATHERINE FIELD,NSW,2557,-33.98825,150.76915,NaN,NaN,NaN,VacantLand,Vacant land,False,442.0,m2,False
2017689017,listing,/53-hamer-street-catherine-field-nsw-2557-2017689017,630000,is-sold,Sold by private treaty 20 Apr 2022,20220420,53 Hamer Street,CATHERINE FIELD,NSW,2557,-33.9878159,150.769272,NaN,NaN,NaN,VacantLand,Vacant land,False,312.0,m2,False
2017697553,listing,/14-crest-road-gledswood-hills-nsw-2557-2017697553,1050000,is-sold,Sold by private treaty 21 Apr 2022,20220421,14 Crest Road,GLEDSWOOD HILLS,NSW,2557,-34.0170021,150.783386,4,4,4,House,House,False,452.0,m2,False
2017702302,listing,/12-downing-way-gledswood-hills-nsw-2557-2017702302,1160000,is-sold,Sold by private treaty 27 Apr 2022,20220427,12 Downing Way,GLEDSWOOD HILLS,NSW,2557,-34.0174675,150.766739,4,4,4,House,House,False,417.0,m2,False
2017703542,listing,/29-farm-cove-street-gregory-hills-nsw-2557-2017703542,1050000,is-sold,Sold by private treaty 19 Apr 2022,20220419,29 Farm Cove Street,GREGORY HILLS,NSW,2557,-34.0343361,150.778091,3,3,3,House,House,False,480.0,m2,False
2017710349,listing,/7-gemini-street-gregory-hills-nsw-2557-2017710349,1255666,is-sold,Sold by private treaty 11 Apr 2022,20220411,7 Gemini Street,GREGORY HILLS,NSW,2557,-34.02996,150.770752,4,4,4,House,House,False,521.0,m2,False
2017710553,listing,/70-silvester-way-gledswood-hills-nsw-2557-2017710553,1217000,is-sold,Sold by private treaty 11 Apr 2022,20220411,70 Silvester Way,GLEDSWOOD HILLS,NSW,2557,-34.01195,150.785767,4,4,4,House,House,False,0.0,m2,False
2017711643,listing,/93-93a-village-circuit-gregory-hills-nsw-2557-2017711643,1200000,is-sold,Sold by private treaty 26 Apr 2022,20220426,93 + 93a Village Circuit,GREGORY HILLS,NSW,2557,-34.0292435,150.777313,5,5,5,House,House,False,450.0,m2,False
2017712291,listing,/66b-firewheel-circuit-gregory-hills-nsw-2557-2017712291,1130000,is-sold,Sold by private treaty 22 Apr 2022,20220422,66b Firewheel Circuit,GREGORY HILLS,NSW,2557,-34.0225067,150.786453,4,4,4,House,House,False,0.0,m2,False
2017719307,listing,/103-audley-circuit-gregory-hills-nsw-2557-2017719307,880000,is-sold,Sold by private treaty 10 Apr 2022,20220410,103 Audley Circuit,GREGORY HILLS,NSW,2557,-34.0285149,150.780289,3,3,3,House,House,False,252.0,m2,False
2017724052,listing,/9-percy-street-gregory-hills-nsw-2557-2017724052,910000,is-sold,Sold by private treaty 13 Apr 2022,20220413,9 Percy Street,GREGORY HILLS,NSW,2557,-34.0305519,150.7669,4,4,4,House,House,False,0.0,m2,False
2017735298,listing,/3-botany-street-gregory-hills-nsw-2557-2017735298,1100000,is-sold,Sold by private treaty 26 Apr 2022,20220426,3 Botany Street,GREGORY HILLS,NSW,2557,-34.03524,150.782288,4,4,4,House,House,False,375.0,m2,False
2018158310,listing,/lot-9043-derham-rise-catherine-field-nsw-2557-2018158310,Price Withheld,is-sold,Sold by private treaty 20 Apr 2022,20220420,Lot 9043 Derham Rise,CATHERINE FIELD,NSW,2557,-33.9898,150.768051,4,4,4,NewHouseLand,New House & Land,False,300.0,m2,False
2017378106,listing,/34-tarrawarra-avenue-gledswood-hills-nsw-2557-2017378106,1230000,is-sold,Sold by private treaty 07 Apr 2022,20220407,34 Tarrawarra Avenue,GLEDSWOOD HILLS,NSW,2557,-34.01304,150.771545,5,5,5,House,House,False,529.0,m2,False
2017442094,listing,/55-ramsay-road-rossmore-nsw-2557-2017442094,6010000,is-sold,Sold by private treaty 04 Apr 2022,20220404,55 Ramsay Road,ROSSMORE,NSW,2557,-33.9279976,150.763779,5,5,5,House,House,True,2.0,ha,False
2017503607,listing,/3-rochester-street-gregory-hills-nsw-2557-2017503607,820000,is-sold,Sold by private treaty 28 Mar 2022,20220328,3 Rochester Street,GREGORY HILLS,NSW,2557,-34.03325,150.783371,4,4,4,Duplex,Duplex,False,225.0,m2,False
2017520663,listing,/20-kavanagh-street-gregory-hills-nsw-2557-2017520663,1290000,is-sold,Sold by private treaty 28 Mar 2022,20220328,20 Kavanagh Street,GREGORY HILLS,NSW,2557,-34.0282631,150.773956,4,4,4,House,House,False,545.0,m2,False
2017531601,listing,/1-hungerford-street-catherine-field-nsw-2557-2017531601,2125000,is-sold,Sold by private treaty 05 Apr 2022,20220405,1 Hungerford Street,CATHERINE FIELD,NSW,2557,-34.011982,150.764725,5,5,5,House,House,False,2062.0,m2,False
2017566646,listing,/17-downing-way-gledswood-hills-nsw-2557-2017566646,1270000,is-sold,Sold by private treaty 01 Apr 2022,20220401,17 Downing Way,GLEDSWOOD HILLS,NSW,2557,-34.0175133,150.766357,4,4,4,House,House,False,505.0,m2,False
2017577634,listing,/lot-78-celito-walk-gledswood-hills-nsw-2557-2017577634,1653000,is-sold,Sold by private treaty 04 Apr 2022,20220404,Lot 78 Celito Walk,GLEDSWOOD HILLS,NSW,2557,-34.0205956,150.7693,5,5,5,NewHouseLand,New House & Land,False,480.0,m2,False
2017600677,listing,/65-hamer-street-catherine-field-nsw-2557-2017600677,Price Withheld,is-sold,Sold by private treaty 29 Mar 2022,20220329,65 Hamer Street,CATHERINE FIELD,NSW,2557,-33.9878159,150.769272,NaN,NaN,NaN,VacantLand,Vacant land,False,312.0,m2,False
2017626655,listing,/12-goodsir-close-rossmore-nsw-2557-2017626655,6380000,is-sold,Sold at auction 26 Mar 2022,20220326,12 Goodsir Close,ROSSMORE,NSW,2557,-33.92352,150.7726,3,3,3,House,House,True,2.0,ha,False
2017643473,listing,/13-yaldara-street-gledswood-hills-nsw-2557-2017643473,1070000,is-sold,Sold by private treaty 30 Mar 2022,20220330,13 Yaldara Street,GLEDSWOOD HILLS,NSW,2557,-34.0205345,150.775574,4,4,4,House,House,False,339.0,m2,False
2017650986,listing,/43-minnamurra-drive-gregory-hills-nsw-2557-2017650986,1035000,is-sold,Sold by private treaty 29 Mar 2022,20220329,43 Minnamurra Drive,GREGORY HILLS,NSW,2557,-34.02835,150.778564,4,4,4,House,House,False,0.0,m2,False
2017652982,listing,/199-springfield-road-catherine-field-nsw-2557-2017652982,3800000,is-sold,Sold prior to auction 05 Apr 2022,20220405,199 Springfield Road,CATHERINE FIELD,NSW,2557,-33.9957962,150.757568,NaN,NaN,NaN,Rural,Rural,True,2.31,ha,False
2017655953,listing,/28-barrier-street-gregory-hills-nsw-2557-2017655953,1002500,is-sold,Sold at auction 01 Apr 2022,20220401,28 Barrier Street,GREGORY HILLS,NSW,2557,-34.0356979,150.783783,4,4,4,House,House,False,250.0,m2,False
2017670516,listing,/34-bega-street-gregory-hills-nsw-2557-2017670516,910000,is-sold,Sold by private treaty 05 Apr 2022,20220405,34 Bega Street,GREGORY HILLS,NSW,2557,-34.031208,150.785889,4,4,4,House,House,False,302.0,m2,False
2017679201,listing,/12-cherry-circuit-gregory-hills-nsw-2557-2017679201,1050000,is-sold,Sold by private treaty 28 Mar 2022,20220328,12 Cherry Circuit,GREGORY HILLS,NSW,2557,-34.0211372,150.780228,4,4,4,House,House,False,376.0,m2,False
2017683777,listing,/17-orbit-street-gregory-hills-nsw-2557-2017683777,1040000,is-sold,Sold by private treaty 04 Apr 2022,20220404,17 Orbit Street,GREGORY HILLS,NSW,2557,-34.03548,150.778687,4,4,4,House,House,False,465.0,m2,False
2017706164,listing,/84-rossmore-crescent-rossmore-nsw-2557-2017706164,6100000,is-sold,Sold by private treaty 04 Apr 2022,20220404,84 Rossmore Crescent,ROSSMORE,NSW,2557,-33.95831,150.764511,9,9,9,House,House,True,2.02,ha,False
2017710882,listing,/17-masterfield-street-rossmore-nsw-2557-2017710882,4500000,is-sold,Sold by private treaty 01 Apr 2022,20220401,17 Masterfield Street,ROSSMORE,NSW,2557,-33.9454727,150.758347,6,6,6,House,House,True,1.78,ha,False
2017753570,listing,/112-ingall-loop-catherine-field-nsw-2557-2017753570,1225000,is-sold,Sold by private treaty 02 Apr 2022,20220402,112 Ingall Loop,CATHERINE FIELD,NSW,2557,-34.00209,150.75473,6,6,6,House,House,False,491.0,m2,False
2017870897,listing,/28-barrier-street-gregory-hills-nsw-2557-2017870897,1002500,is-sold,Sold by private treaty 01 Apr 2022,20220401,28 Barrier Street,GREGORY HILLS,NSW,2557,-34.03553,150.783783,4,4,4,House,House,False,250.0,m2,False
2017319346,listing,/10-victor-street-gregory-hills-nsw-2557-2017319346,1480000,is-sold,Sold by private treaty 12 Mar 2022,20220312,10 Victor street,GREGORY HILLS,NSW,2557,-34.0307655,150.775635,6,6,6,House,House,False,400.0,m2,False
2017361428,listing,/381-deepfields-road-catherine-field-nsw-2557-2017361428,3575000,is-sold,Sold by private treaty 24 Mar 2022,20220324,381 Deepfields Road,CATHERINE FIELD,NSW,2557,-33.9703331,150.760178,6,6,6,Rural,Rural,True,1.62,ha,False
2017452830,listing,/lot-209-houghton-road-gledswood-hills-nsw-2557-2017452830,928000,is-sold,Sold by private treaty 08 Mar 2022,20220308,Lot 209 Houghton Road,GLEDSWOOD HILLS,NSW,2557,-34.01665,150.7704,3,3,3,Terrace,Terrace,False,314.0,m2,False
2017527188,listing,/15-kinloch-street-gledswood-hills-nsw-2557-2017527188,1000000,is-sold,Sold by private treaty 21 Mar 2022,20220321,15 Kinloch Street,GLEDSWOOD HILLS,NSW,2557,-34.015564,150.775787,4,4,4,House,House,False,401.0,m2,False
2017527548,listing,/lot-206-houghton-road-gledswood-hills-nsw-2557-2017527548,918000,is-sold,Sold by private treaty 14 Mar 2022,20220314,Lot 206 Houghton Road,GLEDSWOOD HILLS,NSW,2557,-34.01665,150.7704,3,3,3,Terrace,Terrace,False,321.0,m2,False
2017548679,listing,/26-gledswood-hills-drive-gledswood-hills-nsw-2557-2017548679,1100000,is-sold,Sold at auction 19 Mar 2022,20220319,26 Gledswood Hills Drive,GLEDSWOOD HILLS,NSW,2557,-34.0139542,150.780472,4,4,4,House,House,False,420.0,m2,False
2017553796,listing,/18-hillston-circuit-gregory-hills-nsw-2557-2017553796,830000,is-sold,Sold by private treaty 10 Mar 2022,20220310,18 Hillston Circuit,GREGORY HILLS,NSW,2557,-34.032795,150.781433,4,4,4,House,House,False,255.0,m2,False
2017574226,listing,/24-bluestone-avenue-gledswood-hills-nsw-2557-2017574226,1555000,is-sold,Sold by private treaty 09 Mar 2022,20220309,24 Bluestone Avenue,GLEDSWOOD HILLS,NSW,2557,-34.00736,150.783279,4,4,4,House,House,False,465.0,m2,False
2017574661,listing,/50-clementson-drive-rossmore-nsw-2557-2017574661,6100000,is-sold,Sold by private treaty 11 Mar 2022,20220311,50 Clementson Drive,ROSSMORE,NSW,2557,-33.9160957,150.777084,6,6,6,AcreageSemiRural,Acreage / Semi-Rural,True,2.05,ha,False
2017582782,listing,/2a-riberry-street-gregory-hills-nsw-2557-2017582782,980000,is-sold,Sold by private treaty 17 Mar 2022,20220317,2a Riberry street,GREGORY HILLS,NSW,2557,-34.022377,150.784378,4,4,4,House,House,False,0.0,m2,False
2017595505,listing,/47-glendiver-street-gledswood-hills-nsw-2557-2017595505,1007000,is-sold,Sold at auction 05 Mar 2022,20220305,47 Glendiver Street,GLEDSWOOD HILLS,NSW,2557,-34.01467,150.784363,4,4,4,House,House,False,451.0,m2,False
2017604644,listing,/7-hubble-street-gregory-hills-nsw-2557-2017604644,1175000,is-sold,Sold by private treaty 04 Mar 2022,20220304,7 Hubble Street,GREGORY HILLS,NSW,2557,-34.02809,150.768692,4,4,4,House,House,False,450.0,m2,False
2017607043,listing,/178-village-circuit-gregory-hills-nsw-2557-2017607043,850000,is-sold,Sold by private treaty 09 Mar 2022,20220309,178 Village Circuit,GREGORY HILLS,NSW,2557,-34.0340729,150.781448,NaN,NaN,NaN,VacantLand,Vacant land,False,442.0,m2,False
2017607173,listing,/23-golden-wattle-avenue-gregory-hills-nsw-2557-2017607173,1100000,is-sold,Sold by private treaty 16 Mar 2022,20220316,23 Golden Wattle Avenue,GREGORY HILLS,NSW,2557,-34.0241623,150.780609,5,5,5,House,House,False,540.0,m2,False
2017616088,listing,/6-fenwick-street-gledswood-hills-nsw-2557-2017616088,1420000,is-sold,Sold at auction 19 Mar 2022,20220319,6 Fenwick Street,GLEDSWOOD HILLS,NSW,2557,-34.0162163,150.777344,4,4,4,House,House,False,563.0,m2,False
2017624993,listing,/2-viking-street-gregory-hills-nsw-2557-2017624993,1180000,is-sold,Sold by private treaty 21 Mar 2022,20220321,2 Viking Street,GREGORY HILLS,NSW,2557,-34.0310478,150.772415,4,4,4,House,House,False,570.0,m2,False
2017631945,listing,/26-felix-street-gregory-hills-nsw-2557-2017631945,1341000,is-sold,Sold by private treaty 18 Mar 2022,20220318,26 Felix Street,GREGORY HILLS,NSW,2557,-34.02618,150.77359,4,4,4,House,House,False,540.0,m2,False
2017644398,listing,/gledswood-hills-nsw-2557-2017644398,1080000,is-sold,Sold by private treaty 18 Mar 2022,20220318,NaN,GLEDSWOOD HILLS,NSW,2557,-34.01665,150.7704,4,4,4,House,House,False,500.0,m2,False
2017644697,listing,/30-felix-street-gregory-hills-nsw-2557-2017644697,1187500,is-sold,Sold by private treaty 16 Mar 2022,20220316,30 Felix Street,GREGORY HILLS,NSW,2557,-34.0261421,150.7739,4,4,4,House,House,False,450.0,m2,False
2017894668,listing,/lot-9042-derham-rise-catherine-field-nsw-2557-2017894668,1014900,is-sold,Sold by private treaty 21 Mar 2022,20220321,Lot 9042 Derham Rise,CATHERINE FIELD,NSW,2557,-33.9898,150.768051,4,4,4,House,House,False,339.0,m2,False
2017428625,listing,/13-bethany-cove-gledswood-hills-nsw-2557-2017428625,1210000,is-sold,Sold by private treaty 26 Feb 2022,20220226,13 Bethany Cove,GLEDSWOOD HILLS,NSW,2557,-34.0152359,150.774811,4,4,4,House,House,False,412.0,m2,False
2017459036,listing,/1-30-barrier-street-gregory-hills-nsw-2557-2017459036,840000,is-sold,Sold by private treaty 28 Feb 2022,20220228,1/30 Barrier Street,GREGORY HILLS,NSW,2557,-34.0356178,150.783829,3,3,3,House,House,False,216.0,m2,False
2017482237,listing,/6a-6b-oaklands-circuit-gregory-hills-nsw-2557-2017482237,1240000,is-sold,Sold by private treaty 25 Feb 2022,20220225,6a & 6b Oaklands Circuit,GREGORY HILLS,NSW,2557,-34.0280571,150.78418,6,6,6,House,House,False,529.0,m2,False
2017488855,listing,/31-lillydale-ave-gledswood-hills-nsw-2557-2017488855,1200000,is-sold,Sold by private treaty 28 Feb 2022,20220228,31 Lillydale Ave,GLEDSWOOD HILLS,NSW,2557,-34.01363,150.768784,4,4,4,House,House,False,500.0,m2,False
2017504293,listing,/7-cumberland-street-gregory-hills-nsw-2557-2017504293,1275000,is-sold,Sold by private treaty 26 Feb 2022,20220226,7 Cumberland Street,GREGORY HILLS,NSW,2557,-34.0335922,150.780228,5,5,5,House,House,False,408.0,m2,False
2017514647,listing,/1b-oaklands-circuit-gregory-hills-nsw-2557-2017514647,705000,is-sold,Sold by private treaty 25 Feb 2022,20220225,1B Oaklands Circuit,GREGORY HILLS,NSW,2557,-34.0282249,150.783951,2,2,2,Terrace,Terrace,False,0.0,m2,False
2017549296,listing,/6-minya-crescent-gledswood-hills-nsw-2557-2017549296,1210000,is-sold,Sold at auction 01 Mar 2022,20220301,6 Minya Crescent,GLEDSWOOD HILLS,NSW,2557,-34.01728,150.7718,4,4,4,House,House,False,478.0,m2,False
2017549776,listing,/12b-silverton-street-gregory-hills-nsw-2557-2017549776,870000,is-sold,Sold by private treaty 28 Feb 2022,20220228,12B Silverton Street,GREGORY HILLS,NSW,2557,-34.02894,150.782745,4,4,4,Duplex,Duplex,False,255.0,m2,False
2017550102,listing,/48a-water-gum-road-gregory-hills-nsw-2557-2017550102,995000,is-sold,Sold by private treaty 24 Feb 2022,20220224,48a Water Gum Road,GREGORY HILLS,NSW,2557,-34.0230522,150.7848,4,4,4,House,House,False,0.0,m2,False
2017550187,listing,/14-leeuwin-road-gregory-hills-nsw-2557-2017550187,1040000,is-sold,Sold by private treaty 04 Mar 2022,20220304,14 Leeuwin Road,GREGORY HILLS,NSW,2557,-34.01894,150.778442,4,4,4,House,House,False,450.0,m2,False
2017571215,listing,/70-water-gum-road-gregory-hills-nsw-2557-2017571215,900000,is-sold,Sold at auction 26 Feb 2022,20220226,70 Water Gum Road,GREGORY HILLS,NSW,2557,-34.0230522,150.7848,NaN,NaN,NaN,VacantLand,Vacant land,False,623.0,m2,False
2017576422,listing,/20-ashwell-way-gledswood-hills-nsw-2557-2017576422,815000,is-sold,Sold at auction 26 Feb 2022,20220226,20 Ashwell Way,GLEDSWOOD HILLS,NSW,2557,-34.0179062,150.782822,NaN,NaN,NaN,VacantLand,Vacant land,False,400.0,m2,False
2017577976,listing,/32-bagnall-street-gregory-hills-nsw-2557-2017577976,907000,is-sold,Sold by private treaty 28 Feb 2022,20220228,32 Bagnall Street,GREGORY HILLS,NSW,2557,-34.03119,150.766113,4,4,4,House,House,False,315.0,m2,False
2017590201,listing,/17-sainsbury-road-catherine-field-nsw-2557-2017590201,908000,is-sold,Sold at auction 23 Feb 2022,20220223,17 Sainsbury Road,CATHERINE FIELD,NSW,2557,-34.0061378,150.755783,NaN,NaN,NaN,VacantLand,Vacant land,False,502.0,m2,False
2017592141,listing,/30-silverwood-street-gledswood-hills-nsw-2557-2017592141,1340000,is-sold,Sold by private treaty 25 Feb 2022,20220225,30 Silverwood Street,GLEDSWOOD HILLS,NSW,2557,-34.01846,150.768814,4,4,4,House,House,False,512.0,m2,False
2017592455,listing,/3-caledonia-crescent-gledswood-hills-nsw-2557-2017592455,1200000,is-sold,Sold by private treaty 28 Feb 2022,20220228,3 Caledonia Crescent,GLEDSWOOD HILLS,NSW,2557,-34.01872,150.777145,4,4,4,House,House,False,477.0,m2,False
2017598391,listing,/118b-donovan-boulevard-gregory-hills-nsw-2557-2017598391,880000,is-sold,Sold by private treaty 02 Mar 2022,20220302,118B Donovan Boulevard,GREGORY HILLS,NSW,2557,-34.0328369,150.783051,3,3,3,House,House,False,284.0,m2,False
2017599207,listing,/75-village-circuit-gregory-hills-nsw-2557-2017599207,1157500,is-sold,Sold by private treaty 22 Feb 2022,20220222,75 Village Circuit,GREGORY HILLS,NSW,2557,-34.02826,150.777069,4,4,4,House,House,False,431.0,m2,False
2017603983,listing,/7-curlewis-street-gledswood-hills-nsw-2557-2017603983,857000,is-sold,Sold by private treaty 21 Feb 2022,20220221,7 Curlewis Street,GLEDSWOOD HILLS,NSW,2557,-34.01526,150.7687,3,3,3,House,House,False,0.0,m2,False
2017628863,listing,/20-hillston-circuit-gregory-hills-nsw-2557-2017628863,845000,is-sold,Sold by private treaty 22 Feb 2022,20220222,20 Hillston Circuit,GREGORY HILLS,NSW,2557,-34.0327568,150.7813,4,4,4,House,House,False,255.0,m2,False
2017313156,listing,/20-firewheel-circuit-gregory-hills-nsw-2557-2017313156,910000,is-sold,Sold by private treaty 08 Feb 2022,20220208,20 Firewheel Circuit,GREGORY HILLS,NSW,2557,-34.0225067,150.786453,4,4,4,House,House,False,375.0,m2,False
2017337817,listing,/54b-discovery-circuit-gregory-hills-nsw-2557-2017337817,610000,is-sold,Sold by private treaty 04 Feb 2022,20220204,54b Discovery Circuit,GREGORY HILLS,NSW,2557,-34.0261879,150.769058,2,2,2,House,House,False,0.0,m2,False
2017440398,listing,/48-masterfield-street-rossmore-nsw-2557-2017440398,4750000,is-sold,Sold by private treaty 15 Feb 2022,20220215,48 Masterfield Street,ROSSMORE,NSW,2557,-33.94823,150.75853,5,5,5,House,House,True,2.0,ha,False
2017446556,listing,/24b-bega-street-gregory-hills-nsw-2557-2017446556,1070000,is-sold,Sold by private treaty 09 Feb 2022,20220209,24b Bega Street,GREGORY HILLS,NSW,2557,-34.0301743,150.786423,4,4,4,House,House,False,0.0,m2,False
2017487873,listing,/51-minnamurra-drive-gregory-hills-nsw-2557-2017487873,910000,is-sold,Sold by private treaty 16 Feb 2022,20220216,51 Minnamurra Drive,GREGORY HILLS,NSW,2557,-34.02835,150.778564,4,4,4,House,House,False,0.0,m2,False
2017520923,listing,/16-spice-street-gledswood-hills-nsw-2557-2017520923,1124000,is-sold,Sold by private treaty 03 Feb 2022,20220203,16 Spice Street,GLEDSWOOD HILLS,NSW,2557,-34.01269,150.784882,4,4,4,House,House,False,400.0,m2,False
2017522105,listing,/3b-correa-circuit-gregory-hills-nsw-2557-2017522105,950000,is-sold,Sold by private treaty 01 Feb 2022,20220201,3b Correa Circuit,GREGORY HILLS,NSW,2557,-34.0232162,150.781677,4,4,4,House,House,False,0.0,m2,False
2017540313,listing,/58-coral-flame-circuit-gregory-hills-nsw-2557-2017540313,1015000,is-sold,Sold by private treaty 08 Feb 2022,20220208,58 Coral Flame Circuit,GREGORY HILLS,NSW,2557,-34.0228844,150.779892,4,4,4,House,House,False,375.0,m2,False
2017543224,listing,/17-hennings-way-gledswood-hills-nsw-2557-2017543224,1065000,is-sold,Sold by private treaty 31 Jan 2022,20220131,17 Hennings Way,GLEDSWOOD HILLS,NSW,2557,-34.0159,150.774124,4,4,4,House,House,False,375.0,m2,False
2017544940,listing,/62-silvester-way-gledswood-hills-nsw-2557-2017544940,1175000,is-sold,Sold by private treaty 31 Jan 2022,20220131,62 Silvester Way,GLEDSWOOD HILLS,NSW,2557,-34.0116,150.785446,4,4,4,House,House,False,411.0,m2,False
2017545838,listing,/50-bowen-circuit-gledswood-hills-nsw-2557-2017545838,1230000,is-sold,Sold by private treaty 03 Feb 2022,20220203,50 Bowen Circuit,GLEDSWOOD HILLS,NSW,2557,-34.01353,150.7674,4,4,4,House,House,False,356.0,m2,False
2017547018,listing,/12-lorikeet-street-gregory-hills-nsw-2557-2017547018,850000,is-sold,Sold by private treaty 14 Feb 2022,20220214,12 Lorikeet Street,GREGORY HILLS,NSW,2557,-34.0237427,150.777222,4,4,4,House,House,False,318.0,m2,False
2017554831,listing,/19-duffy-avenue-gregory-hills-nsw-2557-2017554831,1115000,is-sold,Sold by private treaty 03 Feb 2022,20220203,19 Duffy Avenue,GREGORY HILLS,NSW,2557,-34.0298,150.7743,4,4,4,House,House,False,450.0,m2,False
2017559207,listing,/89-explorer-street-gregory-hills-nsw-2557-2017559207,1260000,is-sold,Sold at auction 18 Feb 2022,20220218,89 Explorer Street,GREGORY HILLS,NSW,2557,-34.0288277,150.766861,4,4,4,House,House,False,540.0,m2,False
2017563864,listing,/5-botany-street-gregory-hills-nsw-2557-2017563864,969500,is-sold,Sold by private treaty 21 Feb 2022,20220221,5 Botany Street,GREGORY HILLS,NSW,2557,-34.03524,150.782288,3,3,3,House,House,False,300.0,m2,False
2017569467,listing,/39-cain-avenue-gregory-hills-nsw-2557-2017569467,925000,is-sold,Sold by private treaty 08 Feb 2022,20220208,39 Cain Avenue,GREGORY HILLS,NSW,2557,-34.0314445,150.765091,4,4,4,House,House,False,300.0,m2,False
2017573715,listing,/27-donovan-boulevard-gregory-hills-nsw-2557-2017573715,905000,is-sold,Sold by private treaty 14 Feb 2022,20220214,27 Donovan Boulevard,GREGORY HILLS,NSW,2557,-34.0278969,150.7714,5,5,5,House,House,False,386.0,m2,False
2017577807,listing,/16-kinloch-street-gledswood-hills-nsw-2557-2017577807,1500000,is-sold,Sold by private treaty 18 Feb 2022,20220218,16 Kinloch Street,GLEDSWOOD HILLS,NSW,2557,-34.01593,150.775909,4,4,4,House,House,False,406.0,m2,False
2017580804,listing,/64-bowen-circuit-gledswood-hills-nsw-2557-2017580804,1165000,is-sold,Sold by private treaty 14 Feb 2022,20220214,64 Bowen Circuit,GLEDSWOOD HILLS,NSW,2557,-34.01267,150.768372,4,4,4,House,House,False,313.0,m2,False
2017591071,listing,/15-lancaster-street-gregory-hills-nsw-2557-2017591071,1050000,is-sold,Sold by private treaty 16 Feb 2022,20220216,15 Lancaster Street,GREGORY HILLS,NSW,2557,-34.02663,150.772339,4,4,4,House,House,False,540.0,m2,False
2017154777,listing,/rossmore-nsw-2557-2017154777,4000000,is-sold,Sold by private treaty 14 Jan 2022,20220114,NaN,ROSSMORE,NSW,2557,-33.9224,150.769638,6,6,6,House,House,True,2.02,ha,False
2017298392,listing,/7-ivanhoe-street-gregory-hills-nsw-2557-2017298392,800000,is-sold,Sold by private treaty 15 Jan 2022,20220115,7 Ivanhoe Street,GREGORY HILLS,NSW,2557,-34.0339661,150.781479,4,4,4,House,House,False,255.0,m2,False
2017306529,listing,/34a-34b-kinloch-street-gledswood-hills-nsw-2557-2017306529,1385000,is-sold,Sold by private treaty 17 Jan 2022,20220117,34a & 34b Kinloch Street,GLEDSWOOD HILLS,NSW,2557,-34.0149269,150.776291,7,7,7,House,House,False,471.0,m2,False
2017343678,listing,/57-spitzer-street-gregory-hills-nsw-2557-2017343678,1060000,is-sold,Sold by private treaty 22 Jan 2022,20220122,57 Spitzer Street,GREGORY HILLS,NSW,2557,-34.03181,150.778992,4,4,4,House,House,False,407.0,m2,False
2017402192,listing,/21-kingsdale-avenue-catherine-field-nsw-2557-2017402192,1000000,is-sold,Sold by private treaty 24 Jan 2022,20220124,21 Kingsdale Avenue,CATHERINE FIELD,NSW,2557,-34.01452,150.7646,4,4,4,House,House,False,375.0,m2,False
2017452831,listing,/lot-208-houghton-road-gledswood-hills-nsw-2557-2017452831,Price Withheld,is-sold,Sold by private treaty 28 Jan 2022,20220128,Lot 208 Houghton Road,GLEDSWOOD HILLS,NSW,2557,-34.01523,150.766586,3,3,3,Terrace,Terrace,False,314.0,m2,False
2017452833,listing,/lot-207-houghton-road-gledswood-hills-nsw-2557-2017452833,Price Withheld,is-sold,Sold by private treaty 27 Jan 2022,20220127,Lot 207 Houghton Road,GLEDSWOOD HILLS,NSW,2557,-34.01523,150.766586,3,3,3,Terrace,Terrace,False,316.0,m2,False
2017453004,listing,/26-mckenzie-boulevard-gregory-hills-nsw-2557-2017453004,1323000,is-sold,Sold by private treaty 18 Jan 2022,20220118,26 Mckenzie Boulevard,GREGORY HILLS,NSW,2557,-34.026886,150.77478,4,4,4,House,House,False,540.0,m2,False
2017459532,listing,/11-beeston-street-gledswood-hills-nsw-2557-2017459532,1150000,is-sold,Sold by private treaty 27 Jan 2022,20220127,11 Beeston Street,GLEDSWOOD HILLS,NSW,2557,-34.01316,150.784409,4,4,4,House,House,False,400.0,m2,False
2017459583,listing,/6-finch-place-gregory-hills-nsw-2557-2017459583,1150000,is-sold,Sold by private treaty 11 Jan 2022,20220111,6 Finch Place,GREGORY HILLS,NSW,2557,-34.0241928,150.777008,4,4,4,House,House,False,686.0,m2,False
2017467833,listing,/430-twelfth-avenue-rossmore-nsw-2557-2017467833,2090000,is-sold,Sold by private treaty 11 Jan 2022,20220111,430 Twelfth Avenue,ROSSMORE,NSW,2557,-33.9250946,150.79245,5,5,5,House,House,True,2.05,ha,False
2017474166,listing,/5-silverwood-street-gledswood-hills-nsw-2557-2017474166,1202000,is-sold,Sold by private treaty 14 Jan 2022,20220114,5 Silverwood Street,GLEDSWOOD HILLS,NSW,2557,-34.0170746,150.769073,4,4,4,House,House,False,508.0,m2,False
2017483956,listing,/150-village-cct-gregory-hills-nsw-2557-2017483956,1060000,is-sold,Sold by private treaty 17 Jan 2022,20220117,150 Village Cct,GREGORY HILLS,NSW,2557,-34.0336952,150.779358,4,4,4,House,House,False,386.0,m2,False
2017486461,listing,/14b-cape-york-street-gregory-hills-nsw-2557-2017486461,920000,is-sold,Sold by private treaty 18 Jan 2022,20220118,14b Cape York Street,GREGORY HILLS,NSW,2557,-34.0323639,150.784149,4,4,4,House,House,False,250.0,m2,False
2017499805,listing,/50b-silverton-street-gregory-hills-nsw-2557-2017499805,815000,is-sold,Sold by private treaty 18 Jan 2022,20220118,50B Silverton Street,GREGORY HILLS,NSW,2557,-34.0318565,150.782547,3,3,3,House,House,False,250.0,m2,False
2017506373,listing,/27-silverwood-street-gledswood-hills-nsw-2557-2017506373,1175000,is-sold,Sold by private treaty 16 Jan 2022,20220116,27 Silverwood Street,GLEDSWOOD HILLS,NSW,2557,-34.01846,150.769089,4,4,4,House,House,False,423.0,m2,False
2017513360,listing,/5-finch-place-gregory-hills-nsw-2557-2017513360,1375000,is-sold,Sold by private treaty 16 Jan 2022,20220116,5 Finch Place,GREGORY HILLS,NSW,2557,-34.024353,150.7771,4,4,4,House,House,False,672.0,m2,False
2017529751,listing,/17-cullen-circuit-gledswood-hills-nsw-2557-2017529751,1265000,is-sold,Sold by private treaty 24 Jan 2022,20220124,17 Cullen Circuit,GLEDSWOOD HILLS,NSW,2557,-34.01098,150.770386,4,4,4,House,House,False,401.0,m2,False
2017532555,listing,/49-kavanagh-street-gregory-hills-nsw-2557-2017532555,833000,is-sold,Sold by private treaty 30 Jan 2022,20220130,49 Kavanagh Street,GREGORY HILLS,NSW,2557,-34.02769,150.7762,3,3,3,House,House,False,278.0,m2,False
2017540072,listing,/9-orbit-street-gregory-hills-nsw-2557-2017540072,1152500,is-sold,Sold by private treaty 25 Jan 2022,20220125,9 Orbit Street,GREGORY HILLS,NSW,2557,-34.0357,150.778992,4,4,4,House,House,False,635.0,m2,False
2016496281,listing,/54-astley-road-catherine-field-nsw-2557-2016496281,Price Withheld,is-sold,Sold by private treaty 24 Dec 2021,20211224,54 Astley Road,CATHERINE FIELD,NSW,2557,-34.0116463,150.754822,3,3,3,House,House,False,0.0,m2,False
2017341364,listing,/8-frederick-street-gregory-hills-nsw-2557-2017341364,975000,is-sold,Sold by private treaty 22 Dec 2021,20211222,8 Frederick Street,GREGORY HILLS,NSW,2557,-34.0360565,150.782837,4,4,4,House,House,False,317.0,m2,False
2017380858,listing,/43-catherine-fields-road-catherine-field-nsw-2557-2017380858,4350000,is-sold,Sold by private treaty 16 Dec 2021,20211216,43 Catherine Fields Road,CATHERINE FIELD,NSW,2557,-34.0015144,150.774,4,4,4,AcreageSemiRural,Acreage / Semi-Rural,True,2.05,ha,False
2017394520,listing,/52-silverton-street-gregory-hills-nsw-2557-2017394520,1030000,is-sold,Sold by private treaty 17 Dec 2021,20211217,52 Silverton Street,GREGORY HILLS,NSW,2557,-34.03193,150.782761,4,4,4,House,House,False,0.0,m2,False
2017401990,listing,/4-ravenwood-street-gledswood-hills-nsw-2557-2017401990,1160000,is-sold,Sold by private treaty 18 Dec 2021,20211218,4 Ravenwood Street,GLEDSWOOD HILLS,NSW,2557,-34.015873,150.765991,4,4,4,House,House,False,575.0,m2,False
2017409988,listing,/28-orbit-street-gregory-hills-nsw-2557-2017409988,921000,is-sold,Sold by private treaty 07 Jan 2022,20220107,28 Orbit Street,GREGORY HILLS,NSW,2557,-34.0345,150.77951,4,4,4,House,House,False,300.0,m2,False
2017413620,listing,/19a-19b-crest-road-gledswood-hills-nsw-2557-2017413620,1270000,is-sold,Sold by private treaty 03 Jan 2022,20220103,19A & 19B Crest Road,GLEDSWOOD HILLS,NSW,2557,-34.0170021,150.783386,6,6,6,House,House,False,502.0,m2,False
2017416072,listing,/55-explorer-street-gregory-hills-nsw-2557-2017416072,1180000,is-sold,Sold by private treaty 13 Dec 2021,20211213,55 Explorer Street,GREGORY HILLS,NSW,2557,-34.0304337,150.769669,4,4,4,House,House,False,600.0,m2,False
2017420297,listing,/3-brewerton-close-gledswood-hills-nsw-2557-2017420297,1536474,is-sold,Sold by private treaty 23 Dec 2021,20211223,3 Brewerton Close,GLEDSWOOD HILLS,NSW,2557,-34.0115623,150.773071,5,5,5,House,House,False,579.0,m2,False
2017428680,listing,/5-bringolf-street-gledswood-hills-nsw-2557-2017428680,1250000,is-sold,Sold by private treaty 24 Dec 2021,20211224,5 Bringolf Street,GLEDSWOOD HILLS,NSW,2557,-34.0116653,150.780273,4,4,4,House,House,False,426.0,m2,False
2017429570,listing,/12-kew-street-gregory-hills-nsw-2557-2017429570,1315000,is-sold,Sold by private treaty 21 Dec 2021,20211221,12 Kew Street,GREGORY HILLS,NSW,2557,-34.03317,150.776352,4,4,4,House,House,False,636.0,m2,False
2017433873,listing,/43-coral-flame-circuit-gregory-hills-nsw-2557-2017433873,875000,is-sold,Sold by private treaty 13 Dec 2021,20211213,43 Coral Flame Circuit,GREGORY HILLS,NSW,2557,-34.02295,150.779663,3,3,3,House,House,False,300.0,m2,False
2017435147,listing,/205-catherine-fields-road-catherine-field-nsw-2557-2017435147,2400000,is-sold,Sold by private treaty 13 Dec 2021,20211213,205 Catherine Fields Road,CATHERINE FIELD,NSW,2557,-33.9907074,150.761536,4,4,4,Rural,Rural,True,4046.0,m2,False
2017435855,listing,/20b-mudgee-st-gregory-hills-nsw-2557-2017435855,860000,is-sold,Sold by private treaty 24 Dec 2021,20211224,20B Mudgee St,GREGORY HILLS,NSW,2557,-34.0292625,150.786591,4,4,4,House,House,False,300.0,m2,False
2017445077,listing,/68-bagnall-street-gregory-hills-nsw-2557-2017445077,836000,is-sold,Sold by private treaty 16 Dec 2021,20211216,68 Bagnall Street,GREGORY HILLS,NSW,2557,-34.0303535,150.764481,4,4,4,House,House,False,368.0,m2,False
2017453057,listing,/22-curlewis-street-gledswood-hills-nsw-2557-2017453057,865000,is-sold,Sold by private treaty 14 Dec 2021,20211214,22 Curlewis Street,GLEDSWOOD HILLS,NSW,2557,-34.0156975,150.76828,3,3,3,House,House,False,262.0,m2,False
2017454559,listing,/9-coral-flame-circuit-gregory-hills-nsw-2557-2017454559,1340000,is-sold,Sold by private treaty 23 Dec 2021,20211223,9 Coral Flame Circuit,GREGORY HILLS,NSW,2557,-34.0240364,150.778763,7,7,7,House,House,False,648.0,m2,False
2017465824,listing,/8-tulloch-grove-gledswood-hills-nsw-2557-2017465824,971000,is-sold,Sold by private treaty 15 Dec 2021,20211215,8 Tulloch Grove,GLEDSWOOD HILLS,NSW,2557,-34.0183067,150.772385,4,4,4,House,House,False,0.0,m2,False
2017489630,listing,/112-audley-circuit-gregory-hills-nsw-2557-2017489630,975000,is-sold,Sold by private treaty 23 Dec 2021,20211223,112 Audley Circuit,GREGORY HILLS,NSW,2557,-34.02856,150.780487,4,4,4,House,House,False,0.0,m2,False
2017506301,listing,/20-bega-street-gregory-hills-nsw-2557-2017506301,1218000,is-sold,Sold by private treaty 08 Jan 2022,20220108,20 Bega Street,GREGORY HILLS,NSW,2557,-34.0300179,150.78598,4,4,4,House,House,False,480.0,m2,False
2017252862,listing,/16-healy-avenue-gregory-hills-nsw-2557-2017252862,1250000,is-sold,Sold by private treaty 03 Dec 2021,20211203,16 Healy Avenue,GREGORY HILLS,NSW,2557,-34.02738,150.775269,4,4,4,House,House,False,587.0,m2,False
2017276458,listing,/lot-229-chambers-way-gledswood-hills-nsw-2557-2017276458,900000,is-sold,Sold by private treaty 26 Nov 2021,20211126,Lot 229 Chambers Way,GLEDSWOOD HILLS,NSW,2557,-34.01239,150.773819,3,3,3,Terrace,Terrace,False,276.0,m2,False
2017306978,listing,/lot-227-chambers-way-gledswood-hills-nsw-2557-2017306978,865000,is-sold,Sold by private treaty 26 Nov 2021,20211126,Lot 227 Chambers Way,GLEDSWOOD HILLS,NSW,2557,-34.01239,150.773819,3,3,3,Terrace,Terrace,False,276.0,m2,False
2017361737,listing,/11-copper-drive-catherine-field-nsw-2557-2017361737,865000,is-sold,Sold by private treaty 07 Dec 2021,20211207,11 Copper Drive,CATHERINE FIELD,NSW,2557,-34.0017052,150.755554,4,4,4,House,House,False,0.0,m2,False
2017368267,listing,/65-king-street-rossmore-nsw-2557-2017368267,2925000,is-sold,Sold at auction 27 Nov 2021,20211127,65 King Street,ROSSMORE,NSW,2557,-33.9435577,150.787247,4,4,4,House,House,True,2.1,ha,False
2017373729,listing,/11-donovan-boulevard-gregory-hills-nsw-2557-2017373729,855000,is-sold,Sold by private treaty 07 Dec 2021,20211207,11 Donovan Boulevard,GREGORY HILLS,NSW,2557,-34.0260735,150.770477,4,4,4,House,House,False,0.0,m2,False
2017374289,listing,/44-gledswood-hills-drive-gledswood-hills-nsw-2557-2017374289,1116000,is-sold,Sold at auction 06 Dec 2021,20211206,44 Gledswood Hills Drive,GLEDSWOOD HILLS,NSW,2557,-34.0140839,150.781662,4,4,4,House,House,False,451.0,m2,False
2017382523,listing,/4-kingsdale-avenue-catherine-field-nsw-2557-2017382523,860000,is-sold,Sold by private treaty 09 Dec 2021,20211209,4 Kingsdale Avenue,CATHERINE FIELD,NSW,2557,-34.0128174,150.763123,4,4,4,House,House,False,314.0,m2,False
2017390678,listing,/52-silvester-way-gledswood-hills-nsw-2557-2017390678,1150000,is-sold,Sold by private treaty 08 Dec 2021,20211208,52 Silvester Way,GLEDSWOOD HILLS,NSW,2557,-34.0114632,150.784882,4,4,4,House,House,False,407.0,m2,False
2017400338,listing,/10-rochester-street-gregory-hills-nsw-2557-2017400338,838000,is-sold,Sold by private treaty 06 Dec 2021,20211206,10 Rochester Street,GREGORY HILLS,NSW,2557,-34.033474,150.783218,3,3,3,House,House,False,300.0,m2,False
2017411579,listing,/6-whitfield-street-gledswood-hills-nsw-2557-2017411579,1035000,is-sold,Sold by private treaty 01 Dec 2021,20211201,6 Whitfield Street,GLEDSWOOD HILLS,NSW,2557,-34.0244522,150.771835,4,4,4,House,House,False,701.0,m2,False
2017431926,listing,/11-north-avenue-rossmore-nsw-2557-2017431926,5970000,is-sold,Sold at auction 11 Dec 2021,20211211,11 North Avenue,ROSSMORE,NSW,2557,-33.9407425,150.772675,4,4,4,House,House,True,2.19,ha,False
2017433782,listing,/8-challenger-street-gregory-hills-nsw-2557-2017433782,1033000,is-sold,Sold by private treaty 09 Dec 2021,20211209,8 Challenger Street,GREGORY HILLS,NSW,2557,-34.03204,150.774872,4,4,4,House,House,False,510.0,m2,False
2017435915,listing,/12-leeuwin-road-gregory-hills-nsw-2557-2017435915,840000,is-sold,Sold by private treaty 13 Dec 2021,20211213,12 Leeuwin Road,GREGORY HILLS,NSW,2557,-34.0190239,150.778366,3,3,3,House,House,False,300.0,m2,False
2017444028,listing,/7-minnamurra-drive-gregory-hills-nsw-2557-2017444028,860000,is-sold,Sold by private treaty 10 Dec 2021,20211210,7 Minnamurra Drive,GREGORY HILLS,NSW,2557,-34.02835,150.778564,4,4,4,House,House,False,271.0,m2,False
2017452470,listing,/100-village-circuit-gregory-hills-nsw-2557-2017452470,960000,is-sold,Sold by private treaty 04 Dec 2021,20211204,100 Village Circuit,GREGORY HILLS,NSW,2557,-34.0295563,150.776978,3,3,3,House,House,False,383.0,m2,False
2017453088,listing,/5-golding-way-gledswood-hills-nsw-2557-2017453088,1100000,is-sold,Sold by private treaty 06 Dec 2021,20211206,5 Golding Way,GLEDSWOOD HILLS,NSW,2557,-34.0121269,150.769058,4,4,4,House,House,False,342.0,m2,False
2017469807,listing,/74-bagnall-street-gregory-hills-nsw-2557-2017469807,805100,is-sold,Sold by private treaty 10 Dec 2021,20211210,74 Bagnall Street,GREGORY HILLS,NSW,2557,-34.03022,150.7643,3,3,3,House,House,False,265.0,m2,False
2017476996,listing,/36-mimosa-street-gregory-hills-nsw-2557-2017476996,800000,is-sold,Sold by private treaty 03 Dec 2021,20211203,36 MIMOSA STREET,GREGORY HILLS,NSW,2557,-34.0284042,150.778015,3,3,3,House,House,False,0.0,m2,False
2017476997,listing,/38-mimosa-street-gregory-hills-nsw-2557-2017476997,790000,is-sold,Sold by private treaty 08 Dec 2021,20211208,38 Mimosa Street,GREGORY HILLS,NSW,2557,-34.0284042,150.778015,3,3,3,House,House,False,255.0,m2,False
2016974339,listing,/4-charlton-street-gregory-hills-nsw-2557-2016974339,950000,is-sold,Sold by private treaty 18 Nov 2021,20211118,4 Charlton Street,GREGORY HILLS,NSW,2557,-34.0341873,150.7814,4,4,4,House,House,False,425.0,m2,False
2017073331,listing,/8-kingsdale-ave-catherine-field-nsw-2557-2017073331,820000,is-sold,Sold by private treaty 25 Nov 2021,20211125,8 Kingsdale Ave,CATHERINE FIELD,NSW,2557,-34.0128174,150.763123,4,4,4,House,House,False,321.0,m2,False
2017248377,listing,/45-copper-drive-catherine-field-nsw-2557-2017248377,837000,is-sold,Sold by private treaty 23 Nov 2021,20211123,45 Copper Drive,CATHERINE FIELD,NSW,2557,-34.00297,150.756042,3,3,3,House,House,False,300.0,m2,False
2017306157,listing,/38-killara-terrace-gledswood-hills-nsw-2557-2017306157,1235000,is-sold,Sold by private treaty 09 Nov 2021,20211109,38 Killara Terrace,GLEDSWOOD HILLS,NSW,2557,-34.01419,150.771851,4,4,4,House,House,False,566.0,m2,False
2017306979,listing,/lot-224-ballandean-boulevard-gledswood-hills-nsw-2557-2017306979,855000,is-sold,Sold by private treaty 22 Nov 2021,20211122,Lot 224 Ballandean Boulevard,GLEDSWOOD HILLS,NSW,2557,-34.01523,150.766586,3,3,3,Terrace,Terrace,False,251.0,m2,False
2017327358,listing,/3-tasman-street-gregory-hills-nsw-2557-2017327358,960000,is-sold,Sold by private treaty 26 Nov 2021,20211126,3 Tasman Street,GREGORY HILLS,NSW,2557,-34.03127,150.783661,4,4,4,House,House,False,0.0,m2,False
2017350796,listing,/16-oakridge-lane-gledswood-hills-nsw-2557-2017350796,1030000,is-sold,Sold by private treaty 15 Nov 2021,20211115,16 Oakridge Lane,GLEDSWOOD HILLS,NSW,2557,-34.0179062,150.77269,4,4,4,House,House,False,421.0,m2,False
2017359989,listing,/23-kerilliau-street-gledswood-hills-nsw-2557-2017359989,1112000,is-sold,Sold by private treaty 16 Nov 2021,20211116,23 Kerilliau Street,GLEDSWOOD HILLS,NSW,2557,-34.0152245,150.782822,4,4,4,House,House,False,400.0,m2,False
2017364847,listing,/21-mannes-road-gledswood-hills-nsw-2557-2017364847,861000,is-sold,Sold at auction 20 Nov 2021,20211120,21 Mannes Road,GLEDSWOOD HILLS,NSW,2557,-34.0221367,150.774719,4,4,4,House,House,False,375.0,m2,False
2017373077,listing,/4a-tasman-street-gregory-hills-nsw-2557-2017373077,875000,is-sold,Sold by private treaty 11 Nov 2021,20211111,4a Tasman Street,GREGORY HILLS,NSW,2557,-34.0315933,150.7839,4,4,4,House,House,False,225.0,m2,False
2017373797,listing,/41-tarrawarra-avenue-gledswood-hills-nsw-2557-2017373797,900000,is-sold,Sold at auction 20 Nov 2021,20211120,41 Tarrawarra Avenue,GLEDSWOOD HILLS,NSW,2557,-34.01268,150.771561,4,4,4,House,House,False,495.0,m2,False
2017374621,listing,/5-upfield-lane-catherine-field-nsw-2557-2017374621,2250000,is-sold,Sold at auction 24 Nov 2021,20211124,5 Upfield Lane,CATHERINE FIELD,NSW,2557,-33.9943275,150.75943,4,4,4,House,House,False,3995.0,m2,False
2017376691,listing,/41-mckenzie-boulevard-gregory-hills-nsw-2557-2017376691,1050000,is-sold,Sold prior to auction 23 Nov 2021,20211123,41 Mckenzie Boulevard,GREGORY HILLS,NSW,2557,-34.027,150.775253,4,4,4,House,House,False,500.0,m2,False
2017378806,listing,/13-beeston-street-gledswood-hills-nsw-2557-2017378806,1080000,is-sold,Sold by private treaty 19 Nov 2021,20211119,13 Beeston Street,GLEDSWOOD HILLS,NSW,2557,-34.0132637,150.784729,4,4,4,House,House,False,400.0,m2,False
2017379580,listing,/34-audley-circuit-gregory-hills-nsw-2557-2017379580,900000,is-sold,Sold by private treaty 22 Nov 2021,20211122,34 Audley Circuit,GREGORY HILLS,NSW,2557,-34.0295334,150.7812,4,4,4,House,House,False,0.0,m2,False
2017393988,listing,/54b-discovery-circuit-gregory-hills-nsw-2557-2017393988,610000,is-sold,Sold by private treaty 08 Nov 2021,20211108,54b Discovery Circuit,GREGORY HILLS,NSW,2557,-34.0261879,150.769058,2,2,2,House,House,False,0.0,m2,False
2017411625,listing,/catherine-field-nsw-2557-2017411625,935000,is-sold,Sold by private treaty 21 Nov 2021,20211121,NaN,CATHERINE FIELD,NSW,2557,-34.01009,150.763519,4,4,4,House,House,False,303.0,m2,False
2017417692,listing,/9-whistler-street-gregory-hills-nsw-2557-2017417692,1300000,is-sold,Sold prior to auction 22 Nov 2021,20211122,9 Whistler Street,GREGORY HILLS,NSW,2557,-34.02241,150.775833,4,4,4,House,House,False,0.0,m2,False
2017423905,listing,/11-the-hermitage-way-gledswood-hills-nsw-2557-2017423905,1300000,is-sold,Sold by private treaty 21 Nov 2021,20211121,11 The Hermitage Way,GLEDSWOOD HILLS,NSW,2557,-34.0180473,150.7753,4,4,4,House,House,False,501.0,m2,False
2017871888,listing,/lot-8306-kangan-rise-catherine-field-nsw-2557-2017871888,1069900,is-sold,Sold by private treaty 23 Nov 2021,20211123,Lot 8306 Kangan Rise,CATHERINE FIELD,NSW,2557,-33.9898,150.768051,4,4,4,House,House,False,455.0,m2,False
2017080007,listing,/7a-b-yass-street-gregory-hills-nsw-2557-2017080007,Price Withheld,is-sold,Sold at auction 06 Nov 2021,20211106,7A & B Yass Street,GREGORY HILLS,NSW,2557,-34.0266228,150.783752,6,6,6,House,House,False,761.0,m2,False
2017164693,listing,/lot-264-wilhelm-parade-catherine-field-nsw-2557-2017164693,849900,is-sold,Sold by private treaty 03 Nov 2021,20211103,Lot 264 Wilhelm Parade,CATHERINE FIELD,NSW,2557,-34.0109634,150.755249,4,4,4,House,House,False,0.0,m2,False
2017231334,listing,/109-deepfields-road-catherine-field-nsw-2557-2017231334,3500000,is-sold,Sold by private treaty 28 Oct 2021,20211028,109 Deepfields Road,CATHERINE FIELD,NSW,2557,-33.9935646,150.7721,2,2,2,Rural,Rural,True,2.19,ha,False
2017233808,listing,/115-deepfields-road-catherine-field-nsw-2557-2017233808,3500000,is-sold,Sold by private treaty 28 Oct 2021,20211028,115 Deepfields Road,CATHERINE FIELD,NSW,2557,-33.9931374,150.771637,3,3,3,AcreageSemiRural,Acreage / Semi-Rural,True,2.15,ha,False
2017291548,listing,/229a-village-circuit-gregory-hills-nsw-2557-2017291548,895000,is-sold,Sold by private treaty 29 Oct 2021,20211029,229a Village Circuit,GREGORY HILLS,NSW,2557,-34.02963,150.783569,3,3,3,House,House,False,0.0,m2,False
2017295174,listing,/65-gledswood-hills-drive-gledswood-hills-nsw-2557-2017295174,1100000,is-sold,Sold at auction 30 Oct 2021,20211030,65 Gledswood Hills Drive,GLEDSWOOD HILLS,NSW,2557,-34.013855,150.783508,4,4,4,House,House,False,460.0,m2,False
2017304266,listing,/12a-yorkshire-close-catherine-field-nsw-2557-2017304266,2485000,is-sold,Sold prior to auction 29 Oct 2021,20211029,12A Yorkshire Close,CATHERINE FIELD,NSW,2557,-33.9869,150.764191,6,6,6,House,House,False,5400.0,m2,False
2017316611,listing,/7-crest-road-gledswood-hills-nsw-2557-2017316611,1380000,is-sold,Sold at auction 06 Nov 2021,20211106,7 Crest Road,GLEDSWOOD HILLS,NSW,2557,-34.0145874,150.783676,4,4,4,House,House,False,540.0,m2,False
2017329145,listing,/138-village-circuit-gregory-hills-nsw-2557-2017329145,1080000,is-sold,Sold by private treaty 05 Nov 2021,20211105,138 Village Circuit,GREGORY HILLS,NSW,2557,-34.0334663,150.778046,4,4,4,House,House,False,538.0,m2,False
2017331756,listing,/14-hungerford-street-catherine-field-nsw-2557-2017331756,660000,is-sold,Sold by private treaty 27 Oct 2021,20211027,14 Hungerford Street,CATHERINE FIELD,NSW,2557,-34.011982,150.764725,NaN,NaN,NaN,VacantLand,Vacant land,False,481.0,m2,False
2017337939,listing,/21-verdant-drive-gledswood-hills-nsw-2557-2017337939,1105000,is-sold,Sold by private treaty 02 Nov 2021,20211102,21 Verdant Drive,GLEDSWOOD HILLS,NSW,2557,-34.015873,150.786362,NaN,NaN,NaN,VacantLand,Vacant land,False,838.0,m2,False
2017338134,listing,/50-lillydale-avenue-gledswood-hills-nsw-2557-2017338134,1850000,is-sold,Sold prior to auction 29 Oct 2021,20211029,50 Lillydale Avenue,GLEDSWOOD HILLS,NSW,2557,-34.0126343,150.770569,4,4,4,House,House,False,533.0,m2,False
2017341814,listing,/203-barry-avenue-rossmore-nsw-2557-2017341814,2950000,is-sold,Sold by private treaty 06 Nov 2021,20211106,203 Barry Avenue,ROSSMORE,NSW,2557,-33.95135,150.756271,5,5,5,House,House,True,2.13,ha,False
2017352834,listing,/121-audley-circuit-gregory-hills-nsw-2557-2017352834,821000,is-sold,Sold by private treaty 27 Oct 2021,20211027,121 Audley Circuit,GREGORY HILLS,NSW,2557,-34.0285149,150.780289,4,4,4,House,House,False,252.0,m2,False
2017353254,listing,/4-mckenzie-boulevard-gregory-hills-nsw-2557-2017353254,1310000,is-sold,Sold by private treaty 29 Oct 2021,20211029,4 McKenzie Boulevard,GREGORY HILLS,NSW,2557,-34.0267525,150.776031,4,4,4,House,House,False,450.0,m2,False
2017357665,listing,/12-kookaburra-drive-gregory-hills-nsw-2557-2017357665,916280,is-sold,Sold by private treaty 03 Nov 2021,20211103,12 Kookaburra Drive,GREGORY HILLS,NSW,2557,-34.0231819,150.776459,4,4,4,House,House,False,255.0,m2,False
2017368274,listing,/rossmore-nsw-2557-2017368274,4080000,is-sold,Sold by private treaty 05 Nov 2021,20211105,NaN,ROSSMORE,NSW,2557,-33.9224,150.769638,4,4,4,House,House,True,2.07,ha,False
2017374988,listing,/27-farm-cove-street-gregory-hills-nsw-2557-2017374988,960000,is-sold,Sold by private treaty 01 Nov 2021,20211101,27 Farm Cove Street,GREGORY HILLS,NSW,2557,-34.03417,150.778061,4,4,4,House,House,False,480.0,m2,False
2017378104,listing,/7-ivanhoe-street-gregory-hills-nsw-2557-2017378104,800000,is-sold,Sold by private treaty 01 Nov 2021,20211101,7 Ivanhoe Street,GREGORY HILLS,NSW,2557,-34.0339661,150.781479,4,4,4,House,House,False,255.0,m2,False
