id,listingType,url,price,tagClassName,tagText,date,street,suburb,state,postcode,lat,lng,beds,baths,parking,propertyType,propertyTypeFormatted,isRural,landSize,landUnit,isRetirement
2018032250,listing,/264-carramar-road-gulgong-nsw-2852-2018032250,521000,is-sold,Sold by private treaty 08 Feb 2023,20230208,264 Carramar Road,GULGONG,NSW,2852,-32.2991753,149.578842,,,,Rural,Rural,True,36.6,ha,False
2018068402,listing,/10-cainbil-street-gulgong-nsw-2852-2018068402,590000,is-sold,Sold by private treaty 18 Jan 2023,20230118,10 Cainbil Street,GULGONG,NSW,2852,-32.3567123,149.53125,4,4,4,House,House,False,732.0,m2,False
2018096064,listing,/239-1-railway-street-gulgong-nsw-2852-2018096064,200000,is-sold,Sold by private treaty 27 Jan 2023,20230127,239/1 Railway Street,GULGONG,NSW,2852,-32.3602676,149.545334,,,,VacantLand,Vacant land,False,805.0,m2,False
2018096065,listing,/238-1-railway-street-gulgong-nsw-2852-2018096065,185000,is-sold,Sold by private treaty 27 Jan 2023,20230127,238/1 Railway Street,GULGONG,NSW,2852,-32.3602676,149.545334,,,,VacantLand,Vacant land,False,712.0,m2,False
2018096066,listing,/227-1-railway-street-gulgong-nsw-2852-2018096066,235000,is-sold,Sold by private treaty 27 Jan 2023,20230127,227/1 Railway Street,GULGONG,NSW,2852,-32.3602676,149.545334,,,,VacantLand,Vacant land,False,1040.0,m2,False
2018130555,listing,/1145-goolma-road-gulgong-nsw-2852-2018130555,510000,is-sold,Sold by private treaty 22 Feb 2023,20230222,1145 Goolma Road,GULGONG,NSW,2852,-32.4018326,149.43335,4,4,4,Rural,Rural,True,14.16,ha,False
2018138692,listing,/204-1-railway-street-gulgong-nsw-2852-2018138692,175000,is-sold,Sold by private treaty 27 Jan 2023,20230127,204/1 Railway Street,GULGONG,NSW,2852,-32.3602676,149.545334,,,,VacantLand,Vacant land,False,600.0,m2,False
2018138693,listing,/203-1-railway-street-gulgong-nsw-2852-2018138693,175000,is-sold,Sold by private treaty 27 Jan 2023,20230127,203/1 Railway Street,GULGONG,NSW,2852,-32.3602676,149.545334,,,,VacantLand,Vacant land,False,613.0,m2,False
2018159623,listing,/43-medley-street-gulgong-nsw-2852-2018159623,480000,is-sold,Sold by private treaty 20 Jan 2023,20230120,43 Medley Street,GULGONG,NSW,2852,-32.35933,149.533066,3,3,3,House,House,False,866.0,m2,False
2018181870,listing,/97-springwood-park-road-gulgong-nsw-2852-2018181870,785000,is-sold,Sold by private treaty 21 Nov 2022,20221121,97 Springwood Park Road,GULGONG,NSW,2852,-32.29926,149.649445,5,5,5,AcreageSemiRural,Acreage / Semi-Rural,True,12.97,ha,False
2018195205,listing,/5-scott-avenue-gulgong-nsw-2852-2018195205,563000,is-sold,Sold by private treaty 18 Nov 2022,20221118,5 Scott Avenue,GULGONG,NSW,2852,-32.3539467,149.532532,3,3,3,House,House,False,947.0,m2,False
2018201034,listing,/85-mayne-street-gulgong-nsw-2852-2018201034,510000,is-sold,Sold by private treaty 16 Dec 2022,20221216,85 Mayne Street,GULGONG,NSW,2852,-32.3634071,149.535233,5,5,5,House,House,False,1012.0,m2,False
2018209304,listing,/31-wonga-roo-rd-bungaba-nsw-2852-2018209304,726000,is-sold,Sold by private treaty 16 Dec 2022,20221216,31 Wonga Roo Rd,BUNGABA,NSW,2852,-32.1789627,149.62973,6,6,6,Rural,Rural,True,11.74,ha,False
2018234082,listing,/38-rouse-street-gulgong-nsw-2852-2018234082,535000,is-sold,Sold by private treaty 15 Dec 2022,20221215,38 Rouse Street,GULGONG,NSW,2852,-32.35534,149.530685,3,3,3,House,House,False,812.0,m2,False
2018237417,listing,/229-1-railway-street-gulgong-nsw-2852-2018237417,170000,is-sold,Sold by private treaty 22 Nov 2022,20221122,229/1 Railway Street,GULGONG,NSW,2852,-32.3602676,149.545334,,,,VacantLand,Vacant land,False,700.0,m2,False
2018237540,listing,/233-1-railway-street-gulgong-nsw-2852-2018237540,170000,is-sold,Sold by private treaty 02 Dec 2022,20221202,233/1 Railway Street,GULGONG,NSW,2852,-32.3602676,149.545334,,,,VacantLand,Vacant land,False,700.0,m2,False
2018242570,listing,/6-bunderra-street-gulgong-nsw-2852-2018242570,490000,is-sold,Sold by private treaty 01 Feb 2023,20230201,6 Bunderra Street,GULGONG,NSW,2852,-32.367588,149.526566,3,3,3,House,House,False,795.0,m2,False
2018310254,listing,/88-medley-street-gulgong-nsw-2852-2018310254,840000,is-sold,Sold by private treaty 25 Jan 2023,20230125,88 Medley Street,GULGONG,NSW,2852,-32.3641243,149.5316,4,4,4,House,House,False,1148.0,m2,False
2018314123,listing,/206-1-railway-street-gulgong-nsw-2852-2018314123,175000,is-sold,Sold by private treaty 27 Jan 2023,20230127,206/1 Railway Street,GULGONG,NSW,2852,-32.3602676,149.545334,,,,VacantLand,Vacant land,False,600.0,m2,False
2018314203,listing,/205-1-railway-street-gulgong-nsw-2852-2018314203,175000,is-sold,Sold by private treaty 27 Jan 2023,20230127,205/1 Railway Street,GULGONG,NSW,2852,-32.3602676,149.545334,,,,VacantLand,Vacant land,False,700.0,m2,False
2017798430,listing,/23-25-anderson-street-gulgong-nsw-2852-2017798430,905000,is-sold,Sold by private treaty 31 Oct 2022,20221031,23-25 Anderson Street,GULGONG,NSW,2852,-32.3677063,149.538986,4,4,4,House,House,False,5900.0,m2,False
2017813492,listing,/1127-goolma-road-gulgong-nsw-2852-2017813492,880000,is-sold,Sold by private treaty 14 Oct 2022,20221014,1127 Goolma Road,GULGONG,NSW,2852,-32.3975677,149.436142,4,4,4,House,House,True,15.29,ha,False
2017817508,listing,/2330-castlereagh-hwy-gulgong-nsw-2852-2017817508,640000,is-sold,Sold by private treaty 10 Nov 2022,20221110,2330 Castlereagh HWY,GULGONG,NSW,2852,-32.40447,149.527664,3,3,3,Rural,Rural,True,2.97,ha,False
2017889954,listing,/234-laheys-creek-road-gulgong-nsw-2852-2017889954,850000,is-sold,Sold by private treaty 18 Oct 2022,20221018,234 Laheys Creek Road,GULGONG,NSW,2852,-32.3056374,149.443344,4,4,4,Rural,Rural,True,12.7,ha,False
2017907647,listing,/11-adams-lead-road-gulgong-nsw-2852-2017907647,649000,is-sold,Sold by private treaty 07 Oct 2022,20221007,11 Adams Lead Road,GULGONG,NSW,2852,-32.3749428,149.527618,,,,Rural,Rural,True,16.19,ha,False
2017928372,listing,/29-tallawang-road-gulgong-nsw-2852-2017928372,410000,is-sold,Sold by private treaty 07 Oct 2022,20221007,29 Tallawang Road,GULGONG,NSW,2852,-32.3613129,149.525238,3,3,3,House,House,False,1012.0,m2,False
2017971716,listing,/50-annies-rock-road-gulgong-nsw-2852-2017971716,480000,is-sold,Sold by private treaty 04 Nov 2022,20221104,50 ANNIES ROCK ROAD,GULGONG,NSW,2852,-32.3405151,149.47583,3,3,3,Rural,Rural,True,6.25,ha,False
2018014569,listing,/67-elouera-road-gulgong-nsw-2852-2018014569,770000,is-sold,Sold by private treaty 13 Oct 2022,20221013,67 Elouera Road,GULGONG,NSW,2852,-32.3092842,149.572922,3,3,3,Rural,Rural,True,10.81,ha,False
2018037943,listing,/springwood-park-road-gulgong-nsw-2852-2018037943,470000,is-sold,Sold by private treaty 11 Oct 2022,20221011,Springwood Park Road,GULGONG,NSW,2852,-32.3051872,149.651978,4,4,4,House,House,True,13.0,ha,False
2018053918,listing,/21-bunderra-street-gulgong-nsw-2852-2018053918,495000,is-sold,Sold by private treaty 08 Nov 2022,20221108,21 Bunderra Street,GULGONG,NSW,2852,-32.367878,149.52565,3,3,3,House,House,False,968.0,m2,False
2018109967,listing,/218-1-railway-street-gulgong-nsw-2852-2018109967,180000,is-sold,Sold by private treaty 29 Sep 2022,20220929,218/1 Railway Street,GULGONG,NSW,2852,-32.3602676,149.545334,,,,VacantLand,Vacant land,False,769.0,m2,False
2018110177,listing,/230-1-railway-street-gulgong-nsw-2852-2018110177,170000,is-sold,Sold by private treaty 29 Sep 2022,20220929,230/1 Railway Street,GULGONG,NSW,2852,-32.3602676,149.545334,,,,VacantLand,Vacant land,False,700.0,m2,False
2018110320,listing,/234-1-railway-street-gulgong-nsw-2852-2018110320,170000,is-sold,Sold by private treaty 29 Sep 2022,20220929,234/1 Railway Street,GULGONG,NSW,2852,-32.3602676,149.545334,,,,VacantLand,Vacant land,False,700.0,m2,False
2018111246,listing,/94-medley-street-gulgong-nsw-2852-2018111246,649000,is-sold,Sold by private treaty 04 Nov 2022,20221104,94 Medley Street,GULGONG,NSW,2852,-32.3646355,149.53186,3,3,3,House,House,False,847.0,m2,False
2018111966,listing,/8-bunderra-street-gulgong-nsw-2852-2018111966,545000,is-sold,Sold at auction 21 Oct 2022,20221021,8 Bunderra Street,GULGONG,NSW,2852,-32.367588,149.526367,4,4,4,House,House,False,833.0,m2,False
2018112879,listing,/herbert-street-gulgong-nsw-2852-2018112879,125000,is-sold,Sold by private treaty 02 Nov 2022,20221102,Herbert Street,GULGONG,NSW,2852,-32.3614,149.533829,,,,VacantLand,Vacant land,False,490.0,m2,False
2018135067,listing,/222-1-railway-street-gulgong-nsw-2852-2018135067,175000,is-sold,Sold by private treaty 14 Oct 2022,20221014,222/1 Railway Street,GULGONG,NSW,2852,-32.3602676,149.545334,,,,VacantLand,Vacant land,False,736.0,m2,False
2018209303,listing,/232-1-railway-street-gulgong-nsw-2852-2018209303,170000,is-sold,Sold by private treaty 15 Nov 2022,20221115,232/1 Railway Street,GULGONG,NSW,2852,-32.3602676,149.545334,,,,VacantLand,Vacant land,False,700.0,m2,False
2018237480,listing,/221-1-railway-street-gulgong-nsw-2852-2018237480,170000,is-sold,Sold by private treaty 29 Sep 2022,20220929,221/1 Railway Street,GULGONG,NSW,2852,-32.3602676,149.545334,,,,VacantLand,Vacant land,False,700.0,m2,False
2018237481,listing,/219-1-railway-street-gulgong-nsw-2852-2018237481,170000,is-sold,Sold by private treaty 07 Nov 2022,20221107,219/1 Railway Street,GULGONG,NSW,2852,-32.3602676,149.545334,,,,VacantLand,Vacant land,False,707.0,m2,False
2017340558,listing,/246-cuthel-lane-gulgong-nsw-2852-2017340558,1300000,is-sold,Sold by private treaty 01 Sep 2022,20220901,246 Cuthel Lane,GULGONG,NSW,2852,-32.3333168,149.412827,3,3,3,AcreageSemiRural,Acreage / Semi-Rural,True,97.9,ha,False
2017623259,listing,/83-mayne-street-gulgong-nsw-2852-2017623259,725000,is-sold,Sold by private treaty 09 Sep 2022,20220909,83 Mayne Street,GULGONG,NSW,2852,-32.36347,149.535461,3,3,3,House,House,False,1024.0,m2,False
2017636676,listing,/12-queen-street-gulgong-nsw-2852-2017636676,459000,is-sold,Sold by private treaty 18 Aug 2022,20220818,12 Queen Street,GULGONG,NSW,2852,-32.3636856,149.5396,3,3,3,House,House,False,843.0,m2,False
2017716185,listing,/1713-cope-road-gulgong-nsw-2852-2017716185,440000,is-sold,Sold by private treaty 29 Jul 2022,20220729,1713 Cope Road,GULGONG,NSW,2852,-32.26938,149.688019,,,,Rural,Rural,True,40.47,ha,False
2017723178,listing,/104-suzanne-road-tallawang-gulgong-nsw-2852-2017723178,330000,is-sold,Sold by private treaty 23 Aug 2022,20220823,104 Suzanne Road Tallawang,GULGONG,NSW,2852,-32.2012062,149.385727,1,1,1,House,House,False,101171.0,m2,False
2017725055,listing,/129-133-herbert-street-gulgong-nsw-2852-2017725055,875000,is-sold,Sold by private treaty 04 Aug 2022,20220804,129-133 Herbert Street,GULGONG,NSW,2852,-32.36755,149.533081,4,4,4,House,House,False,8094.0,m2,False
2017789786,listing,/115-holleys-lane-gulgong-nsw-2852-2017789786,1050000,is-sold,Sold by private treaty 17 Aug 2022,20220817,115 Holleys Lane,GULGONG,NSW,2852,-32.3384781,149.465485,3,3,3,Rural,Rural,True,25.49,ha,False
2017848624,listing,/748-cope-road-gulgong-nsw-2852-2017848624,810000,is-sold,Sold by private treaty 05 Aug 2022,20220805,748 Cope Road,GULGONG,NSW,2852,-32.30997,149.59816,4,4,4,AcreageSemiRural,Acreage / Semi-Rural,True,6.44,ha,False
2017881856,listing,/5-walter-street-gulgong-nsw-2852-2017881856,700000,is-sold,Sold by private treaty 12 Aug 2022,20220812,5 Walter Street,GULGONG,NSW,2852,-32.3603821,149.543472,3,3,3,House,House,False,4825.0,m2,False
2017924023,listing,/10-wenonah-street-gulgong-nsw-2852-2017924023,880000,is-sold,Sold by private treaty 20 Sep 2022,20220920,10 Wenonah Street,GULGONG,NSW,2852,-32.363266,149.541031,6,6,6,House,House,False,1780.0,m2,False
2017939058,listing,/48-turners-lane-gulgong-nsw-2852-2017939058,759000,is-sold,Sold by private treaty 07 Sep 2022,20220907,48 Turners Lane,GULGONG,NSW,2852,-32.37346,149.4915,3,3,3,Rural,Rural,True,9.31,ha,False
2017968964,listing,/lot-2-1-railway-street-gulgong-nsw-2852-2017968964,170000,is-sold,Sold by private treaty 27 Jul 2022,20220727,"Lot 2,1 Railway Street",GULGONG,NSW,2852,-32.3602676,149.545334,,,,VacantLand,Vacant land,False,654.0,m2,False
2017984087,listing,/lot-1-1-railway-street-gulgong-nsw-2852-2017984087,170000,is-sold,Sold by private treaty 01 Sep 2022,20220901,"Lot 1,1 Railway Street",GULGONG,NSW,2852,-32.3602676,149.545334,,,,VacantLand,Vacant land,False,654.0,m2,False
2017986518,listing,/lot-4-1-railway-street-gulgong-nsw-2852-2017986518,170000,is-sold,Sold by private treaty 05 Aug 2022,20220805,"Lot 4,1 Railway Street",GULGONG,NSW,2852,-32.3602676,149.545334,,,,VacantLand,Vacant land,False,654.0,m2,False
2017997730,listing,/1-fitzroy-street-gulgong-nsw-2852-2017997730,420000,is-sold,Sold by private treaty 29 Sep 2022,20220929,1 Fitzroy Street,GULGONG,NSW,2852,-32.36548,149.5314,3,3,3,House,House,False,1138.0,m2,False
2018010404,listing,/7-moonlight-street-gulgong-nsw-2852-2018010404,469000,is-sold,Sold by private treaty 01 Sep 2022,20220901,7 Moonlight Street,GULGONG,NSW,2852,-32.36263,149.540451,2,2,2,House,House,False,1535.0,m2,False
2018011680,listing,/6-part-4-fisher-st-gulgong-nsw-2852-2018011680,,is-sold,Sold at auction 18 Aug 2022,20220818,"6, Part 4 Fisher St",GULGONG,NSW,2852,-32.36526,149.5258,,,,VacantLand,Vacant land,False,0.0,m2,False
2018013753,listing,/57-belmore-street-gulgong-nsw-2852-2018013753,632000,is-sold,Sold by private treaty 14 Sep 2022,20220914,57 Belmore Street,GULGONG,NSW,2852,-32.36076,149.5378,4,4,4,House,House,False,1180.0,m2,False
2018032985,listing,/7-worobil-street-gulgong-nsw-2852-2018032985,655000,is-sold,Sold at auction 28 Sep 2022,20220928,7 WOROBIL STREET,GULGONG,NSW,2852,-32.3572464,149.530655,3,3,3,House,House,False,1323.0,m2,False
2018237418,listing,/231-1-railway-street-gulgong-nsw-2852-2018237418,170000,is-sold,Sold by private treaty 21 Sep 2022,20220921,231/1 Railway Street,GULGONG,NSW,2852,-32.3602676,149.545334,,,,VacantLand,Vacant land,False,700.0,m2,False
2016475275,listing,/4-bayly-street-gulgong-nsw-2852-2016475275,,is-sold,Sold by private treaty 05 May 2022,20220505,4 Bayly Street,GULGONG,NSW,2852,-32.3619957,149.538452,4,4,4,House,House,False,2074.0,m2,False
2017266037,listing,/412-corishs-lane-gulgong-nsw-2852-2017266037,270000,is-sold,Sold by private treaty 19 Apr 2022,20220419,412 Corishs Lane,GULGONG,NSW,2852,-32.2071152,149.386383,,,,Rural,Rural,True,0.0,m2,False
2017605903,listing,/2-yaraandoo-street-gulgong-nsw-2852-2017605903,545000,is-sold,Sold by private treaty 20 Apr 2022,20220420,2 Yaraandoo Street,GULGONG,NSW,2852,-32.367794,149.5279,5,5,5,House,House,False,958.0,m2,False
2017609522,listing,/1-rouse-street-gulgong-nsw-2852-2017609522,150000,is-sold,Sold by private treaty 01 Jul 2022,20220701,1 Rouse Street,GULGONG,NSW,2852,-32.3564529,149.535767,,,,VacantLand,Vacant land,False,624.0,m2,False
2017610090,listing,/82-springwood-park-road-cope-nsw-2852-2017610090,308000,is-sold,Sold by private treaty 21 Jun 2022,20220621,82 SPRINGWOOD PARK ROAD,COPE,NSW,2852,-32.2989464,149.645569,,,,Rural,Rural,True,13.35,ha,False
2017611996,listing,/111-grimshaw-lane-gulgong-nsw-2852-2017611996,1300000,is-sold,Sold by private treaty 06 Jun 2022,20220606,111 Grimshaw Lane,GULGONG,NSW,2852,-32.378334,149.53949,5,5,5,Rural,Rural,True,3.62,ha,False
2017669547,listing,/587-durridgerie-road-gulgong-nsw-2852-2017669547,560000,is-sold,Sold by private treaty 15 Jul 2022,20220715,587 Durridgerie Road,GULGONG,NSW,2852,-32.36254,149.533569,2,2,2,Rural,Rural,True,43.01,ha,False
2017687378,listing,/275-springwood-park-road-cope-nsw-2852-2017687378,700000,is-sold,Sold by private treaty 12 Jul 2022,20220712,275 SPRINGWOOD PARK ROAD,COPE,NSW,2852,-32.3075333,149.662277,4,4,4,Rural,Rural,True,17.5,ha,False
2017708861,listing,/1532-blue-springs-road-bungaba-nsw-2852-2017708861,655000,is-sold,Sold by private treaty 14 Jun 2022,20220614,1532 BLUE SPRINGS ROAD,BUNGABA,NSW,2852,-32.17497,149.631088,2,2,2,Rural,Rural,True,10.94,ha,False
2017732958,listing,/287-wonga-roo-road-gulgong-nsw-2852-2017732958,450000,is-sold,Sold by private treaty 01 Jun 2022,20220601,287 Wonga Roo Road,GULGONG,NSW,2852,-32.1802559,149.651962,3,3,3,Rural,Rural,True,11.4,ha,False
2017733517,listing,/13-moonlight-street-gulgong-nsw-2852-2017733517,444000,is-sold,Sold by private treaty 05 May 2022,20220505,13 Moonlight Street,GULGONG,NSW,2852,-32.36249,149.53978,3,3,3,House,House,False,1083.0,m2,False
2017748717,listing,/364-corishs-lane-gulgong-nsw-2852-2017748717,300000,is-sold,Sold by private treaty 05 Jul 2022,20220705,364 Corishs Lane,GULGONG,NSW,2852,-32.2102,149.388809,,,,Rural,Rural,True,11.43,ha,False
2017782845,listing,/5-bunderra-street-gulgong-nsw-2852-2017782845,489000,is-sold,Sold by private treaty 24 May 2022,20220524,5 Bunderra Street,GULGONG,NSW,2852,-32.368145,149.52771,3,3,3,House,House,False,891.0,m2,False
2017788015,listing,/1656-blue-springs-road-bungaba-nsw-2852-2017788015,845000,is-sold,Sold by private treaty 08 Jun 2022,20220608,1656 BLUE SPRINGS ROAD,BUNGABA,NSW,2852,-32.1641045,149.633865,3,3,3,Rural,Rural,True,29.54,ha,False
2017788440,listing,/594-goolma-road-gulgong-nsw-2852-2017788440,10010440,is-sold,Sold by private treaty 18 Jul 2022,20220718,594 Goolma Road,GULGONG,NSW,2852,-32.39159,149.480148,7,7,7,AcreageSemiRural,Acreage / Semi-Rural,True,451.7,ha,False
2017802751,listing,/57-gollan-road-gulgong-nsw-2852-2017802751,580000,is-sold,Sold by private treaty 16 Jun 2022,20220616,57 Gollan Road,GULGONG,NSW,2852,-32.3647232,149.2672,3,3,3,House,House,True,3.93,ha,False
2017831355,listing,/65-elouera-road-gulgong-nsw-2852-2017831355,710000,is-sold,Sold by private treaty 14 Jul 2022,20220714,65 Elouera Road,GULGONG,NSW,2852,-32.30862,149.573975,3,3,3,Rural,Rural,True,10.12,ha,False
2017895591,listing,/50-medley-street-gulgong-nsw-2852-2017895591,495000,is-sold,Sold at auction 12 Jul 2022,20220712,50 MEDLEY STREET,GULGONG,NSW,2852,-32.3594933,149.532578,2,2,2,House,House,False,847.0,m2,False
2017951577,listing,/113-honeysett-road-tallawang-nsw-2852-2017951577,565000,is-sold,Sold by private treaty 21 Jul 2022,20220721,113 Honeysett Road,TALLAWANG,NSW,2852,-32.25768,149.419678,4,4,4,Rural,Rural,True,40.79,ha,False
2017968889,listing,/lot-3-1-railway-street-gulgong-nsw-2852-2017968889,170000,is-sold,Sold by private treaty 15 Jul 2022,20220715,"Lot 3,1 Railway Street",GULGONG,NSW,2852,-32.3602676,149.545334,,,,VacantLand,Vacant land,False,654.0,m2,False
2017354852,listing,/24-white-street-gulgong-nsw-2852-2017354852,395000,is-sold,Sold by private treaty 09 Mar 2022,20220309,24 White Street,GULGONG,NSW,2852,-32.3608742,149.534988,3,3,3,House,House,False,639.0,m2,False
2017403219,listing,/55-belmore-street-gulgong-nsw-2852-2017403219,425500,is-sold,Sold by private treaty 04 Apr 2022,20220404,55 Belmore Street,GULGONG,NSW,2852,-32.36085,149.538284,3,3,3,House,House,False,809.0,m2,False
2017494563,listing,/106-raydon-lane-gulgong-nsw-2852-2017494563,725000,is-sold,Sold by private treaty 03 Feb 2022,20220203,106 Raydon Lane,GULGONG,NSW,2852,-32.3141747,149.583145,,,,Rural,Rural,True,120.6,ha,False
2017496389,listing,/13-rouse-street-gulgong-nsw-2852-2017496389,460000,is-sold,Sold by private treaty 14 Mar 2022,20220314,13 Rouse Street,GULGONG,NSW,2852,-32.35589,149.5311,3,3,3,House,House,False,892.0,m2,False
2017519760,listing,/173-mayne-street-gulgong-nsw-2852-2017519760,345000,is-sold,Sold by private treaty 01 Feb 2022,20220201,173 Mayne Street,GULGONG,NSW,2852,-32.36367,149.5291,3,3,3,House,House,False,765.0,m2,False
2017526009,listing,/305-blue-springs-road-gulgong-nsw-2852-2017526009,980000,is-sold,Sold by private treaty 01 Apr 2022,20220401,305 Blue Springs Road,GULGONG,NSW,2852,-32.2725525,149.599548,6,6,6,Rural,Rural,True,61.7,ha,False
2017536563,listing,/149-suzanne-road-gulgong-nsw-2852-2017536563,,is-sold,Sold by private treaty 10 Mar 2022,20220310,149 SUZANNE ROAD,GULGONG,NSW,2852,-32.19593,149.377548,2,2,2,House,House,True,20.23,ha,False
2017546328,listing,/17-medley-street-gulgong-nsw-2852-2017546328,459000,is-sold,Sold by private treaty 28 Feb 2022,20220228,17 Medley Street,GULGONG,NSW,2852,-32.3566475,149.5338,5,5,5,House,House,False,796.0,m2,False
2017548029,listing,/4-james-street-gulgong-nsw-2852-2017548029,660000,is-sold,Sold by private treaty 14 Apr 2022,20220414,4 James Street,GULGONG,NSW,2852,-32.36228,149.546387,4,4,4,House,House,False,0.0,m2,False
2017568570,listing,/9-scott-avenue-gulgong-nsw-2852-2017568570,610000,is-sold,Sold by private treaty 11 Mar 2022,20220311,9 Scott Avenue,GULGONG,NSW,2852,-32.3539162,149.53212,4,4,4,House,House,False,954.0,m2,False
2017581384,listing,/93-belmore-street-gulgong-nsw-2852-2017581384,412500,is-sold,Sold by private treaty 24 Feb 2022,20220224,93 Belmore Street,GULGONG,NSW,2852,-32.3601952,149.531708,2,2,2,House,House,False,708.0,m2,False
2017603332,listing,/18-cainbil-street-gulgong-nsw-2852-2017603332,470000,is-sold,Sold by private treaty 08 Mar 2022,20220308,18 Cainbil Street,GULGONG,NSW,2852,-32.3575745,149.5311,3,3,3,House,House,False,1587.0,m2,False
2017614591,listing,/838-cope-road-gulgong-nsw-2852-2017614591,765000,is-sold,Sold by private treaty 22 Mar 2022,20220322,838 Cope Road,GULGONG,NSW,2852,-32.3062477,149.605667,3,3,3,Rural,Rural,True,14.83,ha,False
2017623264,listing,/6-lynne-street-gulgong-nsw-2852-2017623264,479000,is-sold,Sold by private treaty 17 Mar 2022,20220317,6 Lynne Street,GULGONG,NSW,2852,-32.359005,149.535187,3,3,3,House,House,False,557.0,m2,False
2017663858,listing,/77-mayne-street-gulgong-nsw-2852-2017663858,675000,is-sold,Sold by private treaty 14 Apr 2022,20220414,77 Mayne Street,GULGONG,NSW,2852,-32.36384,149.53595,3,3,3,House,House,False,1676.0,m2,False
2017664326,listing,/gulgong-nsw-2852-2017664326,670000,is-sold,Sold by private treaty 14 Apr 2022,20220414,,GULGONG,NSW,2852,-32.36254,149.533569,3,3,3,House,House,False,1770.0,m2,False
2017667263,listing,/9-hollingsworth-drive-gulgong-nsw-2852-2017667263,670000,is-sold,Sold by private treaty 25 Mar 2022,20220325,9 Hollingsworth Drive,GULGONG,NSW,2852,-32.3680573,149.530167,4,4,4,House,House,False,887.0,m2,False
2017667952,listing,/148-beryl-road-gulgong-nsw-2852-2017667952,910250,is-sold,Sold by private treaty 13 Apr 2022,20220413,148 Beryl Road,GULGONG,NSW,2852,-32.34735,149.469528,4,4,4,Rural,Rural,True,10.12,ha,False
2017709173,listing,/58-mayne-street-gulgong-nsw-2852-2017709173,679000,is-sold,Sold by private treaty 14 Apr 2022,20220414,58 Mayne Street,GULGONG,NSW,2852,-32.36395,149.538025,3,3,3,House,House,False,1113.0,m2,False
2017755836,listing,/92-belmore-street-gulgong-nsw-2852-2017755836,255000,is-sold,Sold at auction 03 Mar 2022,20220303,92 BELMORE STREET,GULGONG,NSW,2852,-32.3594933,149.53212,1,1,1,House,House,False,759.0,m2,False
2016865684,listing,/-jardine-266-gum-gully-road-mebul-gulgong-nsw-2852-2016865684,1850000,is-sold,Sold at auction 08 Nov 2021,20211108,'Jardine'/266 Gum Gully Road Mebul,GULGONG,NSW,2852,-32.3668137,149.382492,3,3,3,Farm,Farm,True,409.52,ha,False
2016906925,listing,/14-white-street-gulgong-nsw-2852-2016906925,295000,is-sold,Sold by private treaty 16 Nov 2021,20211116,14 White Street,GULGONG,NSW,2852,-32.35909,149.5354,3,3,3,House,House,False,667.0,m2,False
2017116444,listing,/54-herbert-street-gulgong-nsw-2852-2017116444,200000,is-sold,Sold by private treaty 26 Oct 2021,20211026,54 Herbert Street,GULGONG,NSW,2852,-32.3595467,149.533844,1,1,1,House,House,False,423.0,m2,False
2017121243,listing,/171-black-lead-lane-gulgong-nsw-2852-2017121243,420000,is-sold,Sold by private treaty 24 Dec 2021,20211224,171 Black Lead Lane,GULGONG,NSW,2852,-32.3490257,149.5259,,,,Rural,Rural,True,5.08,ha,False
2017139929,listing,/165-167-mayne-street-gulgong-nsw-2852-2017139929,562500,is-sold,Sold by private treaty 22 Nov 2021,20211122,165-167 Mayne Street,GULGONG,NSW,2852,-32.3631859,149.529663,3,3,3,House,House,False,1303.0,m2,False
2017179856,listing,/681-barneys-reef-rd-gulgong-nsw-2852-2017179856,1175000,is-sold,Sold at auction 25 Nov 2021,20211125,681 Barneys Reef Rd,GULGONG,NSW,2852,-32.2966042,149.533112,,,,Rural,Rural,True,175.63,ha,False
2017188148,listing,/10-moonlight-street-gulgong-nsw-2852-2017188148,630000,is-sold,Sold by private treaty 17 Nov 2021,20211117,10 Moonlight Street,GULGONG,NSW,2852,-32.36216,149.5405,4,4,4,House,House,False,2023.0,m2,False
2017248280,listing,/2710-sandy-creek-road-gulgong-nsw-2852-2017248280,888000,is-sold,Sold by private treaty 11 Nov 2021,20211111,2710 Sandy Creek Road,GULGONG,NSW,2852,-32.27806,149.308533,1,1,1,Rural,Rural,True,113.33,ha,False
2017265424,listing,/41-wynella-street-gulgong-nsw-2852-2017265424,521000,is-sold,Sold by private treaty 05 Nov 2021,20211105,41 Wynella Street,GULGONG,NSW,2852,-32.3560753,149.52916,4,4,4,House,House,False,1070.0,m2,False
2017321220,listing,/2-black-lead-lane-gulgong-nsw-2852-2017321220,755000,is-sold,Sold by private treaty 17 Jan 2022,20220117,2 Black Lead Lane,GULGONG,NSW,2852,-32.3465233,149.546234,,,,Rural,Rural,True,65.34,ha,False
2017327283,listing,/5-705-springfield-lane-gulgong-nsw-2852-2017327283,530000,is-sold,Sold by private treaty 03 Nov 2021,20211103,5/705 Springfield Lane,GULGONG,NSW,2852,-32.3971519,149.541855,,,,Rural,Rural,True,14.84,ha,False
2017328283,listing,/26-scotts-lane-gulgong-nsw-2852-2017328283,910000,is-sold,Sold by private treaty 24 Jan 2022,20220124,26 Scotts Lane,GULGONG,NSW,2852,-32.36379,149.51474,4,4,4,House,House,False,0.0,m2,False
2017345321,listing,/9-bulga-street-gulgong-nsw-2852-2017345321,430000,is-sold,Sold by private treaty 19 Nov 2021,20211119,9 Bulga Street,GULGONG,NSW,2852,-32.3621,149.530121,3,3,3,House,House,False,759.0,m2,False
2017349049,listing,/72-mayne-street-gulgong-nsw-2852-2017349049,300000,is-sold,Sold by private treaty 22 Nov 2021,20211122,72 Mayne Street,GULGONG,NSW,2852,-32.36333,149.536041,1,1,1,House,House,False,555.0,m2,False
2017360103,listing,/6-bunderra-street-gulgong-nsw-2852-2017360103,325000,is-sold,Sold by private treaty 08 Dec 2021,20211208,6 Bunderra Street,GULGONG,NSW,2852,-32.367588,149.526566,3,3,3,House,House,False,795.0,m2,False
2017384131,listing,/77-herbert-street-gulgong-nsw-2852-2017384131,610000,is-sold,Sold by private treaty 29 Nov 2021,20211129,77 Herbert Street,GULGONG,NSW,2852,-32.36169,149.534134,4,4,4,House,House,False,544.0,m2,False
2017390517,listing,/46-montaza-road-gulgong-nsw-2852-2017390517,620000,is-sold,Sold by private treaty 10 Dec 2021,20211210,46 Montaza Road,GULGONG,NSW,2852,-32.2744446,149.379257,2,2,2,AcreageSemiRural,Acreage / Semi-Rural,True,12.14,ha,False
2017392106,listing,/42-cope-road-gulgong-nsw-2852-2017392106,1550000,is-sold,Sold at auction 04 Jan 2022,20220104,42 Cope Road,GULGONG,NSW,2852,-32.35372,149.54512,5,5,5,Rural,Rural,True,11.46,ha,False
2017412223,listing,/102-belmore-street-gulgong-nsw-2852-2017412223,560000,is-sold,Sold by private treaty 10 Dec 2021,20211210,102 Belmore Street,GULGONG,NSW,2852,-32.35948,149.531189,4,4,4,House,House,False,1163.0,m2,False
2017426566,listing,/18-medley-street-gulgong-nsw-2852-2017426566,490000,is-sold,Sold by private treaty 16 Dec 2021,20211216,18 Medley Street,GULGONG,NSW,2852,-32.3554726,149.5333,3,3,3,House,House,False,830.0,m2,False
2016958390,listing,/two-mile-flat-nsw-2852-2016958390,370000,is-sold,Sold by private treaty 18 Oct 2021,20211018,,TWO MILE FLAT,NSW,2852,-32.3960152,149.382172,1,1,1,House,House,True,10.12,ha,False
2017015775,listing,/38-belmore-street-gulgong-nsw-2852-2017015775,370000,is-sold,Sold by private treaty 22 Oct 2021,20211022,38 Belmore Street,GULGONG,NSW,2852,-32.3608437,149.542633,3,3,3,House,House,False,923.0,m2,False
2017092567,listing,/gulgong-nsw-2852-2017092567,815000,is-sold,Sold by private treaty 23 Sep 2021,20210923,,GULGONG,NSW,2852,-32.3479424,149.460922,4,4,4,House,House,True,37.64,ha,False
2017103322,listing,/26-herbert-street-gulgong-nsw-2852-2017103322,299000,is-sold,Sold by private treaty 19 Aug 2021,20210819,26 Herbert Street,GULGONG,NSW,2852,-32.3574333,149.534515,2,2,2,House,House,False,405.0,m2,False
2017108425,listing,/391-cope-rd-gulgong-nsw-2852-2017108425,360000,is-sold,Sold by private treaty 27 Aug 2021,20210827,391 Cope Rd,GULGONG,NSW,2852,-32.33035,149.565491,,,,Rural,Rural,True,25.9,ha,False
2017122599,listing,/lot-200-391-cope-rd-gulgong-nsw-2852-2017122599,,is-sold,Sold by private treaty 12 Oct 2021,20211012,LOT 200/391 Cope Rd,GULGONG,NSW,2852,-32.33035,149.565491,,,,Rural,Rural,True,17.81,ha,False
2017122648,listing,/33-fisher-street-gulgong-nsw-2852-2017122648,215000,is-sold,Sold at auction 10 Aug 2021,20210810,33 Fisher Street,GULGONG,NSW,2852,-32.3661957,149.5261,2,2,2,House,House,False,939.0,m2,False
2017139741,listing,/6-nandoura-street-gulgong-nsw-2852-2017139741,375000,is-sold,Sold by private treaty 22 Sep 2021,20210922,6 Nandoura Street,GULGONG,NSW,2852,-32.3571663,149.5368,3,3,3,House,House,False,632.0,m2,False
2017139974,listing,/14-herbert-street-gulgong-nsw-2852-2017139974,469000,is-sold,Sold by private treaty 23 Sep 2021,20210923,14 Herbert Street,GULGONG,NSW,2852,-32.356678,149.534515,3,3,3,House,House,False,632.0,m2,False
2017146112,listing,/35-lynne-street-gulgong-nsw-2852-2017146112,605000,is-sold,Sold by private treaty 19 Aug 2021,20210819,35 LYNNE STREET,GULGONG,NSW,2852,-32.3584175,149.528076,3,3,3,House,House,False,2878.0,m2,False
2017148756,listing,/1-railway-street-gulgong-nsw-2852-2017148756,770000,is-sold,Sold at auction 20 Aug 2021,20210820,1 Railway Street,GULGONG,NSW,2852,-32.3602676,149.545334,,,,VacantLand,Vacant land,True,4.19,ha,False
2017154169,listing,/201-cope-road-gulgong-nsw-2852-2017154169,268000,is-sold,Sold by private treaty 21 Sep 2021,20210921,201 Cope Road,GULGONG,NSW,2852,-32.3426056,149.553162,,,,VacantLand,Vacant land,True,16.19,ha,False
2017167649,listing,/79-montaza-road-gulgong-nsw-2852-2017167649,499000,is-sold,Sold by private treaty 07 Sep 2021,20210907,79 Montaza Road,GULGONG,NSW,2852,-32.2705727,149.373016,2,2,2,Rural,Rural,True,21.16,ha,False
2017178943,listing,/13-robinson-street-gulgong-nsw-2852-2017178943,200000,is-sold,Sold at auction 28 Sep 2021,20210928,13 ROBINSON STREET,GULGONG,NSW,2852,-32.3637123,149.530167,2,2,2,House,House,False,805.0,m2,False
2017204448,listing,/2-hollingsworth-drive-gulgong-nsw-2852-2017204448,550000,is-sold,Sold by private treaty 20 Sep 2021,20210920,2 Hollingsworth Drive,GULGONG,NSW,2852,-32.3683777,149.528809,4,4,4,House,House,False,1129.0,m2,False
2017210840,listing,/164-mayne-street-gulgong-nsw-2852-2017210840,389000,is-sold,Sold by private treaty 27 Sep 2021,20210927,164 Mayne Street,GULGONG,NSW,2852,-32.3630447,149.528992,2,2,2,House,House,False,506.0,m2,False
2017268852,listing,/122-barneys-reef-road-gulgong-nsw-2852-2017268852,864000,is-sold,Sold by private treaty 13 Oct 2021,20211013,122 Barneys Reef Road,GULGONG,NSW,2852,-32.34226,149.535049,4,4,4,Rural,Rural,True,8.0,ha,False
2017293362,listing,/54-medley-street-gulgong-nsw-2852-2017293362,305000,is-sold,Sold by private treaty 26 Oct 2021,20211026,54 Medley Street,GULGONG,NSW,2852,-32.3597641,149.5324,2,2,2,House,House,False,0.0,m2,False
2017327291,listing,/6-705-springfield-lane-gulgong-nsw-2852-2017327291,550000,is-sold,Sold by private treaty 25 Oct 2021,20211025,6/705 Springfield Lane,GULGONG,NSW,2852,-32.3971519,149.541855,,,,Rural,Rural,True,12.89,ha,False
2017328363,listing,/8-yaraandoo-street-gulgong-nsw-2852-2017328363,130000,is-sold,Sold by private treaty 14 Oct 2021,20211014,8 Yaraandoo Street,GULGONG,NSW,2852,-32.3669853,149.5279,,,,VacantLand,Vacant land,False,1178.0,m2,False
2016201993,listing,/2916-goolma-road-goolma-nsw-2852-2016201993,185000,is-sold,Sold by private treaty 18 Jun 2021,20210618,2916 Goolma Road,GOOLMA,NSW,2852,-32.3743973,149.275,3,3,3,House,House,False,1263.0,m2,False
2016500957,listing,/goolma-nsw-2852-2016500957,30000000,is-sold,Sold by private treaty 03 Jun 2021,20210603,,GOOLMA,NSW,2852,-32.36695,149.264282,,,,Rural,Rural,True,5800.0,ha,False
2016586128,listing,/202-black-lead-lane-gulgong-nsw-2852-2016586128,785000,is-sold,Sold by private treaty 11 Jun 2021,20210611,202 Black Lead Lane,GULGONG,NSW,2852,-32.3462944,149.528091,4,4,4,Rural,Rural,True,9.38,ha,False
2016738266,listing,/120-medley-street-gulgong-nsw-2852-2016738266,390000,is-sold,Sold by private treaty 07 Jul 2021,20210707,120 Medley Street,GULGONG,NSW,2852,-32.367878,149.531677,3,3,3,House,House,False,1467.0,m2,False
2016751443,listing,/14-cainbil-street-gulgong-nsw-2852-2016751443,670000,is-sold,Sold by private treaty 30 Jun 2021,20210630,14 Cainbil Street,GULGONG,NSW,2852,-32.3572235,149.531143,5,5,5,House,House,False,1185.0,m2,False
2016908815,listing,/58-holleys-lane-gulgong-nsw-2852-2016908815,715000,is-sold,Sold by private treaty 23 Jun 2021,20210623,58 Holleys Lane,GULGONG,NSW,2852,-32.34253,149.471237,4,4,4,Rural,Rural,True,10.12,ha,False
2016945060,listing,/16-fisher-street-gulgong-nsw-2852-2016945060,345000,is-sold,Sold by private treaty 06 Jul 2021,20210706,16 Fisher Street,GULGONG,NSW,2852,-32.366066,149.52803,3,3,3,House,House,False,600.0,m2,False
2016952504,listing,/77-black-lead-lane-gulgong-nsw-2852-2016952504,860000,is-sold,Sold by private treaty 11 Jun 2021,20210611,77 Black Lead Lane,GULGONG,NSW,2852,-32.34891,149.537445,8,8,8,House,House,False,20900.0,m2,False
2017006918,listing,/36-montaza-road-gulgong-nsw-2852-2017006918,305000,is-sold,Sold by private treaty 07 Jun 2021,20210607,36 Montaza Road,GULGONG,NSW,2852,-32.27625,149.3791,,,,AcreageSemiRural,Acreage / Semi-Rural,True,13.35,ha,False
2017014607,listing,/3-fitzroy-street-gulgong-nsw-2852-2017014607,481000,is-sold,Sold by private treaty 22 Jun 2021,20210622,3 Fitzroy Street,GULGONG,NSW,2852,-32.3654327,149.531219,3,3,3,House,House,False,1518.0,m2,False
2017034717,listing,/110-beela-road-gulgong-nsw-2852-2017034717,640000,is-sold,Sold by private treaty 01 Jul 2021,20210701,110 Beela Road,GULGONG,NSW,2852,-32.3050957,149.587784,4,4,4,Rural,Rural,True,10.6,ha,False
2017035015,listing,/5-hollingsworth-drive-gulgong-nsw-2852-2017035015,552000,is-sold,Sold by private treaty 14 Jul 2021,20210714,5 Hollingsworth Drive,GULGONG,NSW,2852,-32.3679047,149.529526,4,4,4,House,House,False,586.0,m2,False
2017046965,listing,/6-roy-cross-place-gulgong-nsw-2852-2017046965,639000,is-sold,Sold by private treaty 28 Jul 2021,20210728,6 Roy Cross Place,GULGONG,NSW,2852,-32.3676872,149.53006,4,4,4,House,House,False,1024.0,m2,False
2017055915,listing,/1001-spring-creek-road-gulgong-nsw-2852-2017055915,370000,is-sold,Sold by private treaty 08 Jul 2021,20210708,1001 Spring Creek Road,GULGONG,NSW,2852,-32.33459,149.6458,,1.0,2.0,Rural,Rural,True,10.12,ha,False
2017058122,listing,/241-bergalin-road-gulgong-nsw-2852-2017058122,1125000,is-sold,Sold by private treaty 08 Jun 2021,20210608,241 Bergalin Road,GULGONG,NSW,2852,-32.379673,149.504486,,,,AcreageSemiRural,Acreage / Semi-Rural,True,121.41,ha,False
2017119000,listing,/5-bowman-street-gulgong-nsw-2852-2017119000,372000,is-sold,Sold by private treaty 02 Aug 2021,20210802,5 Bowman Street,GULGONG,NSW,2852,-32.361866,149.53923,3,3,3,House,House,False,607.0,m2,False
2017121434,listing,/2305-goolma-road-goolma-nsw-2852-2017121434,871100,is-sold,Sold by private treaty 23 Jun 2021,20210623,2305 Goolma Road,GOOLMA,NSW,2852,-32.41328,149.324738,,,,Rural,Rural,True,66.09,ha,False
2017122611,listing,/104-medley-street-gulgong-nsw-2852-2017122611,202000,is-sold,Sold by private treaty 28 Jul 2021,20210728,104 Medley Street,GULGONG,NSW,2852,-32.3658142,149.531769,,1.0,,House,House,False,980.0,m2,False
2017122616,listing,/1-yaraandoo-street-gulgong-nsw-2852-2017122616,405000,is-sold,Sold by private treaty 02 Jul 2021,20210702,1 Yaraandoo Street,GULGONG,NSW,2852,-32.3676529,149.527222,3,3,3,House,House,False,932.0,m2,False
2017122627,listing,/36-herbert-street-gulgong-nsw-2852-2017122627,485000,is-sold,Sold by private treaty 28 Jun 2021,20210628,36 Herbert Street,GULGONG,NSW,2852,-32.35808,149.534485,3,3,3,House,House,False,847.0,m2,False
2016305993,listing,/1617-castlereagh-highway-gulgong-nsw-2852-2016305993,572500,is-sold,Sold by private treaty 22 Mar 2021,20210322,1617 Castlereagh Highway,GULGONG,NSW,2852,-32.24911,149.432663,4,4,4,AcreageSemiRural,Acreage / Semi-Rural,True,10.12,ha,False
2016443750,listing,/245-bergalin-road-gulgong-nsw-2852-2016443750,1300000,is-sold,Sold by private treaty 30 Mar 2021,20210330,245 Bergalin Road,GULGONG,NSW,2852,-32.38215,149.503052,8,8,8,AcreageSemiRural,Acreage / Semi-Rural,True,10.12,ha,False
2016651733,listing,/1-brooklyn-gulgong-nsw-2852-2016651733,,is-sold,Sold by private treaty 31 Mar 2021,20210331,1 Brooklyn,GULGONG,NSW,2852,-32.35,149.53334,5,5,5,Rural,Rural,True,1918.0,ha,False
2016708964,listing,/3-rouse-street-gulgong-nsw-2852-2016708964,389000,is-sold,Sold by private treaty 08 Mar 2021,20210308,3 Rouse Street,GULGONG,NSW,2852,-32.3564644,149.53537,3,3,3,House,House,False,1012.0,m2,False
2016738952,listing,/112-norris-lane-gulgong-nsw-2852-2016738952,530000,is-sold,Sold by private treaty 15 Apr 2021,20210415,112 Norris Lane,GULGONG,NSW,2852,-32.4438629,149.531067,4,4,4,House,House,False,101171.0,m2,False
2016741192,listing,/10-anderson-street-gulgong-nsw-2852-2016741192,300000,is-sold,Sold by private treaty 16 Mar 2021,20210316,10 Anderson Street,GULGONG,NSW,2852,-32.3631821,149.539276,2,2,2,House,House,False,0.0,m2,False
2016757101,listing,/1928-goolma-rd-two-mile-flat-nsw-2852-2016757101,650000,is-sold,Sold by private treaty 04 Mar 2021,20210304,1928 Goolma Rd,TWO MILE FLAT,NSW,2852,-32.4076538,149.362366,6,6,6,Rural,Rural,True,89.4,ha,False
2016790026,listing,/42-medley-street-gulgong-nsw-2852-2016790026,359000,is-sold,Sold by private treaty 17 May 2021,20210517,42 Medley Street,GULGONG,NSW,2852,-32.3586,149.5326,4,4,4,House,House,False,863.0,m2,False
2016798341,listing,/2212-spring-ridge-road-gulgong-nsw-2852-2016798341,589000,is-sold,Sold by private treaty 04 Mar 2021,20210304,2212 Spring Ridge Road,GULGONG,NSW,2852,-32.2668037,149.324387,3,3,3,Rural,Rural,True,43.2,ha,False
2016798374,listing,/158-grimshaw-lane-gulgong-nsw-2852-2016798374,685000,is-sold,Sold by private treaty 27 Apr 2021,20210427,158 Grimshaw Lane,GULGONG,NSW,2852,-32.3824577,149.540024,3,3,3,Rural,Rural,True,4.43,ha,False
2016799002,listing,/11-roy-cross-place-gulgong-nsw-2852-2016799002,509000,is-sold,Sold by private treaty 16 Apr 2021,20210416,11 Roy Cross Place,GULGONG,NSW,2852,-32.3669052,149.529572,5,5,5,House,House,False,1024.0,m2,False
2016800284,listing,/11-bowman-street-gulgong-nsw-2852-2016800284,420000,is-sold,Sold by private treaty 23 Apr 2021,20210423,11 Bowman Street,GULGONG,NSW,2852,-32.36251,149.539108,4,4,4,House,House,False,1214.0,m2,False
2016812676,listing,/716-spring-creek-road-gulgong-nsw-2852-2016812676,710000,is-sold,Sold prior to auction 26 Feb 2021,20210226,716 Spring Creek Road,GULGONG,NSW,2852,-32.3503761,149.619659,3,3,3,Rural,Rural,True,47.35,ha,False
2016816472,listing,/1995-barneys-reef-road-barneys-reef-nsw-2852-2016816472,220000,is-sold,Sold by private treaty 16 Mar 2021,20210316,1995 Barneys Reef Road,BARNEYS REEF,NSW,2852,-32.1800423,149.519287,1,1,1,House,House,False,246100.0,m2,False
2016826866,listing,/20-medley-street-gulgong-nsw-2852-2016826866,475000,is-sold,Sold by private treaty 08 May 2021,20210508,20 Medley Street,GULGONG,NSW,2852,-32.35566,149.533249,4,4,4,House,House,False,976.0,m2,False
2016868823,listing,/42-guntawang-street-gulgong-nsw-2852-2016868823,379000,is-sold,Sold by private treaty 10 May 2021,20210510,42 Guntawang Street,GULGONG,NSW,2852,-32.3711128,149.529068,,,,VacantLand,Vacant land,False,18400.0,m2,False
2016883290,listing,/494-laheys-creek-road-gulgong-nsw-2852-2016883290,550000,is-sold,Sold by private treaty 26 Apr 2021,20210426,494 Laheys Creek Road,GULGONG,NSW,2852,-32.3002663,149.416412,3,3,3,Rural,Rural,True,10.03,ha,False
2016898219,listing,/89-belmore-street-gulgong-nsw-2852-2016898219,699000,is-sold,Sold by private treaty 11 May 2021,20210511,89 Belmore Street,GULGONG,NSW,2852,-32.3603745,149.532715,2,2,2,House,House,False,424.0,m2,False
2016914410,listing,/28-belmore-street-gulgong-nsw-2852-2016914410,410000,is-sold,Sold by private treaty 21 Apr 2021,20210421,28 Belmore Street,GULGONG,NSW,2852,-32.3610649,149.543915,3,3,3,House,House,False,840.0,m2,False
2016921082,listing,/14-cooyal-street-gulgong-nsw-2852-2016921082,225000,is-sold,Sold by private treaty 12 May 2021,20210512,14 Cooyal Street,GULGONG,NSW,2852,-32.365387,149.539566,1,1,1,House,House,False,882.0,m2,False
2016097928,listing,/gulgong-nsw-2852-2016097928,245000,is-sold,Sold by private treaty 05 Feb 2021,20210205,,GULGONG,NSW,2852,-32.35,149.53334,,,,VacantLand,Vacant land,False,20234.0,m2,False
2016223037,listing,/101-103-herbert-street-gulgong-nsw-2852-2016223037,415000,is-sold,Sold by private treaty 15 Jan 2021,20210115,101-103 Herbert Street,GULGONG,NSW,2852,-32.36367,149.533646,4,4,4,House,House,False,881.0,m2,False
2016440419,listing,/106-stubbo-road-gulgong-nsw-2852-2016440419,865000,is-sold,Sold by private treaty 24 Dec 2020,20201224,106 Stubbo Road,GULGONG,NSW,2852,-32.3036156,149.545242,4,4,4,House,House,False,1157400.0,m2,False
2016445008,listing,/1-scott-avenue-gulgong-nsw-2852-2016445008,359000,is-sold,Sold by private treaty 20 Jan 2021,20210120,1 Scott Avenue,GULGONG,NSW,2852,-32.3540268,149.5333,3,3,3,House,House,False,999.0,m2,False
2016518310,listing,/19-bunderra-street-gulgong-nsw-2852-2016518310,381000,is-sold,Sold by private treaty 27 Jan 2021,20210127,19 Bunderra Street,GULGONG,NSW,2852,-32.36791,149.525909,3,3,3,House,House,False,864.0,m2,False
2016583980,listing,/196-mayne-street-gulgong-nsw-2852-2016583980,335000,is-sold,Sold by private treaty 15 Dec 2020,20201215,196 Mayne Street,GULGONG,NSW,2852,-32.3650131,149.526184,3,3,3,House,House,False,904.0,m2,False
2016625546,listing,/46-homer-street-gulgong-nsw-2852-2016625546,785000,is-sold,Sold by private treaty 16 Feb 2021,20210216,46 Homer Street,GULGONG,NSW,2852,-32.3682327,149.5464,6,6,6,House,House,True,2.83,ha,False
2016649821,listing,/951-birriwa-bus-route-north-merotherie-nsw-2852-2016649821,,is-sold,Sold at auction 10 Dec 2020,20201210,951 Birriwa Bus Route North,MEROTHERIE,NSW,2852,-32.11353,149.556259,3,3,3,Farm,Farm,True,338.0,ha,False
2016658626,listing,/9-bunderra-street-gulgong-nsw-2852-2016658626,375000,is-sold,Sold by private treaty 23 Dec 2020,20201223,9 Bunderra Street,GULGONG,NSW,2852,-32.3680573,149.527084,4,4,4,House,House,False,755.0,m2,False
2016680096,listing,/69-wynella-street-gulgong-nsw-2852-2016680096,415000,is-sold,Sold by private treaty 15 Jan 2021,20210115,69 Wynella Street,GULGONG,NSW,2852,-32.3594971,149.528534,3,3,3,House,House,False,850.0,m2,False
2016694390,listing,/5-cooyal-street-gulgong-nsw-2852-2016694390,395000,is-sold,Sold by private treaty 27 Jan 2021,20210127,5 COOYAL STREET,GULGONG,NSW,2852,-32.36597,149.540039,4,4,4,House,House,False,1277.0,m2,False
2016699787,listing,/7-kaylene-crs-gulgong-nsw-2852-2016699787,375000,is-sold,Sold by private treaty 10 Feb 2021,20210210,7 Kaylene Crs,GULGONG,NSW,2852,-32.35497,149.5323,3,3,3,House,House,False,972.0,m2,False
2016704108,listing,/50-wynella-street-gulgong-nsw-2852-2016704108,429000,is-sold,Sold by private treaty 28 Jan 2021,20210128,50 Wynella Street,GULGONG,NSW,2852,-32.3588562,149.528076,5,5,5,House,House,False,828.0,m2,False
2016712271,listing,/gulgong-nsw-2852-2016712271,415000,is-sold,Sold by private treaty 28 Jan 2021,20210128,,GULGONG,NSW,2852,-32.35,149.53334,4,4,4,House,House,False,0.0,m2,False
2016715797,listing,/108-medley-street-gulgong-nsw-2852-2016715797,350000,is-sold,Sold by private treaty 22 Jan 2021,20210122,108 Medley Street,GULGONG,NSW,2852,-32.36636,149.53186,3,3,3,House,House,False,1010.0,m2,False
2016716269,listing,/18-fisher-street-gulgong-nsw-2852-2016716269,450000,is-sold,Sold by private treaty 23 Dec 2020,20201223,18 Fisher Street,GULGONG,NSW,2852,-32.36604,149.52771,2,2,2,House,House,False,0.0,m2,False
2016724165,listing,/22-cooyal-street-gulgong-nsw-2852-2016724165,385000,is-sold,Sold by private treaty 25 Feb 2021,20210225,22 Cooyal Street,GULGONG,NSW,2852,-32.3652229,149.538284,3,3,3,House,House,False,889.0,m2,False
2016729639,listing,/69-barney-s-reef-road-gulgong-nsw-2852-2016729639,300000,is-sold,Sold by private treaty 15 Feb 2021,20210215,69 Barney's Reef Road,GULGONG,NSW,2852,-32.3460922,149.5313,,,,VacantLand,Vacant land,False,20000.0,m2,False
2016734057,listing,/177-mayne-street-gulgong-nsw-2852-2016734057,520000,is-sold,Sold by private treaty 10 Jan 2021,20210110,177 Mayne Street,GULGONG,NSW,2852,-32.3638344,149.528839,4,4,4,House,House,False,981.0,m2,False
2016764029,listing,/stubbo-road-gulgong-nsw-2852-2016764029,520000,is-sold,Sold by private treaty 12 Feb 2021,20210212,Stubbo Road,GULGONG,NSW,2852,-32.2989426,149.547958,4,4,4,House,House,False,404685.0,m2,False
2012911969,listing,/9-caledonian-street-gulgong-nsw-2852-2012911969,445000,is-sold,Sold by private treaty 22 Oct 2020,20201022,9 Caledonian Street,GULGONG,NSW,2852,-32.3586845,149.524567,3,3,3,House,House,False,4054.0,m2,False
2014814727,listing,/lot-2-snelsons-lane-gulgong-nsw-2852-2014814727,520000,is-sold,Sold by private treaty 11 Nov 2020,20201111,Lot 2 Snelsons Lane,GULGONG,NSW,2852,-32.3670578,149.553574,,,,AcreageSemiRural,Acreage / Semi-Rural,True,51.13,ha,False
2015615018,listing,/103-mebul-road-gulgong-nsw-2852-2015615018,489950,is-sold,Sold by private treaty 25 Nov 2020,20201125,103 Mebul Road,GULGONG,NSW,2852,-32.3778648,149.31488,4,4,4,AcreageSemiRural,Acreage / Semi-Rural,True,7.27,ha,False
2016127057,listing,/stubbo-nsw-2852-2016127057,345000,is-sold,Sold by private treaty 14 Oct 2020,20201014,,STUBBO,NSW,2852,-32.306427,149.589264,2,2,2,House,House,False,101171.0,m2,False
2016166021,listing,/8-bowman-street-gulgong-nsw-2852-2016166021,265000,is-sold,Sold by private treaty 30 Oct 2020,20201030,8 Bowman Street,GULGONG,NSW,2852,-32.3630638,149.538467,3,3,3,House,House,False,722.0,m2,False
2016249051,listing,/317-bald-hill-road-goolma-nsw-2852-2016249051,2250000,is-sold,Sold by private treaty 02 Nov 2020,20201102,317 Bald Hill Road,GOOLMA,NSW,2852,-32.2595749,149.173737,3,3,3,Rural,Rural,True,541.1,ha,False
2016282546,listing,/5-grevillea-street-gulgong-nsw-2852-2016282546,515000,is-sold,Sold by private treaty 09 Nov 2020,20201109,5 Grevillea Street,GULGONG,NSW,2852,-32.3672256,149.5291,4,4,4,House,House,False,1849.0,m2,False
2016288127,listing,/436-spring-creek-road-gulgong-nsw-2852-2016288127,1275000,is-sold,Sold by private treaty 22 Oct 2020,20201022,436 Spring Creek Road,GULGONG,NSW,2852,-32.3536148,149.58844,4,4,4,Rural,Rural,True,81.34,ha,False
2016314975,listing,/110-whitehouse-road-gulgong-nsw-2852-2016314975,799000,is-sold,Sold by private treaty 09 Nov 2020,20201109,110 Whitehouse Road,GULGONG,NSW,2852,-32.3511658,149.5659,4,4,4,Rural,Rural,True,47.04,ha,False
2016353680,listing,/171-wongaroo-road-gulgong-nsw-2852-2016353680,410000,is-sold,Sold by private treaty 20 Oct 2020,20201020,171 Wongaroo Road,GULGONG,NSW,2852,-32.35,149.53334,4,4,4,AcreageSemiRural,Acreage / Semi-Rural,True,10.12,ha,False
2016406038,listing,/7-moonlight-street-gulgong-nsw-2852-2016406038,289000,is-sold,Sold by private treaty 12 Oct 2020,20201012,7 Moonlight Street,GULGONG,NSW,2852,-32.36263,149.540451,2,2,2,House,House,False,1535.0,m2,False
2016440254,listing,/184-mayne-street-gulgong-nsw-2852-2016440254,355000,is-sold,Sold by private treaty 11 Nov 2020,20201111,184 MAYNE STREET,GULGONG,NSW,2852,-32.36438,149.52713,3,3,3,House,House,False,1012.0,m2,False
2016493785,listing,/honeysett-road-gulgong-nsw-2852-2016493785,445000,is-sold,Sold by private treaty 02 Nov 2020,20201102,Honeysett Road,GULGONG,NSW,2852,-32.2528267,149.420746,3,3,3,House,House,False,203200.0,m2,False
2016509991,listing,/49-zimmler-lane-gulgong-nsw-2852-2016509991,720000,is-sold,Sold by private treaty 26 Oct 2020,20201026,49 Zimmler Lane,GULGONG,NSW,2852,-32.3728638,149.543137,3,3,3,Rural,Rural,True,4.05,ha,False
2016559729,listing,/1-hollingsworth-estate-gulgong-nsw-2852-2016559729,120000,is-sold,Sold by private treaty 16 Oct 2020,20201016,1 Hollingsworth Estate,GULGONG,NSW,2852,-32.36785,149.528961,,,,VacantLand,Vacant land,False,943.0,m2,False
2016573669,listing,/239-bergalin-road-gulgong-nsw-2852-2016573669,430000,is-sold,Sold by private treaty 19 Oct 2020,20201019,239 Bergalin Road,GULGONG,NSW,2852,-32.382412,149.505157,,,,Rural,Rural,True,10.37,ha,False
2016582063,listing,/141-145-herbert-street-gulgong-nsw-2852-2016582063,849000,is-sold,Sold by private treaty 20 Nov 2020,20201120,141-145 Herbert Street,GULGONG,NSW,2852,-32.3686142,149.532867,4,4,4,House,House,False,7147.0,m2,False
2016586900,listing,/155-suzanne-road-gulgong-nsw-2852-2016586900,420000,is-sold,Sold by private treaty 27 Nov 2020,20201127,155 Suzanne Road,GULGONG,NSW,2852,-32.1939468,149.377518,3,3,3,Rural,Rural,True,26.1,ha,False
2016669704,listing,/52-wynella-street-gulgong-nsw-2852-2016669704,499000,is-sold,Sold by private treaty 27 Nov 2020,20201127,52 Wynella Street,GULGONG,NSW,2852,-32.35902,149.527939,4,4,4,House,House,False,6383.0,m2,False
2016684025,listing,/26-hollingsworth-estate-medley-street-gulgong-nsw-2852-2016684025,95000,is-sold,Sold by private treaty 04 Dec 2020,20201204,"26 Hollingsworth Estate, Medley Street",GULGONG,NSW,2852,-32.368988,149.53035,,,,VacantLand,Vacant land,False,943.0,m2,False
2014865586,listing,/13-caledonian-street-gulgong-nsw-2852-2014865586,560000,is-sold,Sold by private treaty 28 Aug 2020,20200828,13 Caledonian Street,GULGONG,NSW,2852,-32.3599129,149.5246,4,4,4,House,House,False,4586.0,m2,False
2015880459,listing,/2754-henry-lawson-drive-gulgong-nsw-2852-2015880459,750000,is-sold,Sold by private treaty 10 Sep 2020,20200910,2754 Henry Lawson Drive,GULGONG,NSW,2852,-32.3697281,149.561722,6,6,6,Rural,Rural,True,16.18,ha,False
2015950421,listing,/126-beryl-road-gulgong-nsw-2852-2015950421,465000,is-sold,Sold by private treaty 27 Aug 2020,20200827,126 Beryl Road,GULGONG,NSW,2852,-32.34556,149.47171,4,4,4,Rural,Rural,True,10.12,ha,False
2016051782,listing,/8-roy-cross-place-gulgong-nsw-2852-2016051782,430000,is-sold,Sold by private treaty 10 Sep 2020,20200910,8 Roy Cross Place,GULGONG,NSW,2852,-32.367485,149.53006,4,4,4,House,House,False,1031.0,m2,False
2016171961,listing,/765-spring-ridge-road-mebul-nsw-2852-2016171961,,is-sold,Sold by private treaty 03 Sep 2020,20200903,765 Spring Ridge Road,MEBUL,NSW,2852,-32.31824,149.392868,3,3,3,Rural,Rural,True,436.66,ha,False
2016265091,listing,/23-rouse-street-gulgong-nsw-2852-2016265091,387500,is-sold,Sold by private treaty 28 Aug 2020,20200828,23 Rouse Street,GULGONG,NSW,2852,-32.35573,149.529739,3,3,3,House,House,False,839.0,m2,False
2016282449,listing,/22-wenonah-street-gulgong-nsw-2852-2016282449,445000,is-sold,Sold by private treaty 24 Sep 2020,20200924,22 Wenonah Street,GULGONG,NSW,2852,-32.36567,149.540726,5,5,5,House,House,False,962.0,m2,False
2016282617,listing,/3-thomas-place-gulgong-nsw-2852-2016282617,355000,is-sold,Sold by private treaty 27 Aug 2020,20200827,3 Thomas Place,GULGONG,NSW,2852,-32.356163,149.530457,3,3,3,House,House,False,750.0,m2,False
2016285971,listing,/2391-castlereagh-highway-gulgong-nsw-2852-2016285971,820000,is-sold,Sold by private treaty 14 Sep 2020,20200914,2391 Castlereagh Highway,GULGONG,NSW,2852,-32.4066162,149.523972,4,4,4,Rural,Rural,True,10.48,ha,False
2016292454,listing,/161-mayne-street-gulgong-nsw-2852-2016292454,635000,is-sold,Sold by private treaty 23 Sep 2020,20200923,161 Mayne Street,GULGONG,NSW,2852,-32.36324,149.530151,4,4,4,House,House,False,1214.0,m2,False
2016307415,listing,/68-medley-street-gulgong-nsw-2852-2016307415,410000,is-sold,Sold by private treaty 01 Oct 2020,20201001,68 Medley Street,GULGONG,NSW,2852,-32.36096,149.532089,4,4,4,House,House,False,1012.0,m2,False
2016355439,listing,/21-herbert-street-gulgong-nsw-2852-2016355439,365000,is-sold,Sold by private treaty 13 Aug 2020,20200813,21 Herbert Street,GULGONG,NSW,2852,-32.35676,149.534958,3,3,3,House,House,False,1325.0,m2,False
2016365627,listing,/88-bergalin-road-gulgong-nsw-2852-2016365627,429000,is-sold,Sold by private treaty 28 Aug 2020,20200828,88 Bergalin Road,GULGONG,NSW,2852,-32.3811836,149.519943,2,2,2,Rural,Rural,True,4.58,ha,False
2016415632,listing,/18-homer-street-gulgong-nsw-2852-2016415632,400000,is-sold,Sold by private treaty 10 Sep 2020,20200910,18 Homer Street,GULGONG,NSW,2852,-32.3630524,149.54657,3,3,3,House,House,False,705.0,m2,False
2016426454,listing,/14-wenonah-street-gulgong-nsw-2852-2016426454,409000,is-sold,Sold by private treaty 15 Sep 2020,20200915,14 Wenonah Street,GULGONG,NSW,2852,-32.3641243,149.540939,3,3,3,House,House,False,1005.0,m2,False
2016435043,listing,/47-belmore-street-gulgong-nsw-2852-2016435043,495000,is-sold,Sold by private treaty 21 Sep 2020,20200921,47 Belmore Street,GULGONG,NSW,2852,-32.36093,149.539,3,3,3,House,House,False,1201.0,m2,False
2016475274,listing,/2-kaylene-crs-gulgong-nsw-2852-2016475274,,is-sold,Sold by private treaty 04 Sep 2020,20200904,2 Kaylene Crs,GULGONG,NSW,2852,-32.35,149.53334,4,4,4,House,House,False,939.0,m2,False
2016497053,listing,/88-medley-street-gulgong-nsw-2852-2016497053,595000,is-sold,Sold by private treaty 14 Sep 2020,20200914,88 Medley Street,GULGONG,NSW,2852,-32.3641243,149.5316,4,4,4,House,House,False,1148.0,m2,False
2016512800,listing,/20-belmore-street-gulgong-nsw-2852-2016512800,428000,is-sold,Sold by private treaty 22 Sep 2020,20200922,20 Belmore Street,GULGONG,NSW,2852,-32.36112,149.544724,4,4,4,House,House,False,980.0,m2,False
2016550425,listing,/11-hollingsworth-drive-gulgong-nsw-2852-2016550425,460000,is-sold,Sold by private treaty 28 Sep 2020,20200928,11 Hollingsworth Drive,GULGONG,NSW,2852,-32.3680229,149.530411,4,4,4,House,House,False,990.0,m2,False
2014114577,listing,/915-blue-springs-road-gulgong-nsw-2852-2014114577,350000,is-sold,Sold by private treaty 23 Jun 2020,20200623,915 Blue Springs Road,GULGONG,NSW,2852,-32.22786,149.624252,4,4,4,Rural,Rural,True,2.02,ha,False
2014230246,listing,/6-nandoura-street-gulgong-nsw-2852-2014230246,265000,is-sold,Sold by private treaty 03 Jul 2020,20200703,6 Nandoura Street,GULGONG,NSW,2852,-32.3571663,149.5368,3,3,3,House,House,False,632.0,m2,False
2014666257,listing,/915-blue-springs-road-gulgong-nsw-2852-2014666257,349000,is-sold,Sold by private treaty 23 Jun 2020,20200623,915 Blue Springs Road,GULGONG,NSW,2852,-32.22786,149.624252,4,4,4,Rural,Rural,True,2.02,ha,False
2015026240,listing,/705-springfield-lane-castlereagh-hwy-gulgong-nsw-2852-2015026240,625000,is-sold,Sold by private treaty 08 Jul 2020,20200708,705 Springfield Lane & Castlereagh Hwy,GULGONG,NSW,2852,-32.4002342,149.54129,,,,Rural,Rural,True,82.05,ha,False
2015888644,listing,/13-lynne-street-gulgong-nsw-2852-2015888644,385000,is-sold,Sold by private treaty 26 Jun 2020,20200626,13 Lynne Street,GULGONG,NSW,2852,-32.35889,149.5319,3,3,3,House,House,False,600.0,m2,False
2015963369,listing,/12-hollingsworth-drive-gulgong-nsw-2852-2015963369,445000,is-sold,Sold by private treaty 24 Jun 2020,20200624,12 Hollingsworth Drive,GULGONG,NSW,2852,-32.3684578,149.5301,4,4,4,House,House,False,1068.0,m2,False
2015968011,listing,/70-belmore-street-gulgong-nsw-2852-2015968011,270000,is-sold,Sold by private treaty 22 Jun 2020,20200622,70 Belmore Street,GULGONG,NSW,2852,-32.3603,149.5361,3,3,3,House,House,False,670.0,m2,False
2016149906,listing,/20-queen-street-gulgong-nsw-2852-2016149906,340000,is-sold,Sold by private treaty 15 Jun 2020,20200615,20 Queen Street,GULGONG,NSW,2852,-32.363472,149.53833,3,3,3,House,House,False,1214.0,m2,False
2016207311,listing,/26-wenonah-street-gulgong-nsw-2852-2016207311,395000,is-sold,Sold by private treaty 25 Jun 2020,20200625,26 Wenonah Street,GULGONG,NSW,2852,-32.3667221,149.540451,3,3,3,House,House,False,1284.0,m2,False
2016217676,listing,/8-moonlight-street-gulgong-nsw-2852-2016217676,350000,is-sold,Sold by private treaty 24 Jul 2020,20200724,8 Moonlight Street,GULGONG,NSW,2852,-32.36222,149.540726,2,2,2,House,House,False,2023.0,m2,False
2016274709,listing,/19-bayly-street-gulgong-nsw-2852-2016274709,325000,is-sold,Sold by private treaty 02 Jun 2020,20200602,19 Bayly Street,GULGONG,NSW,2852,-32.3621674,149.536179,3,3,3,House,House,False,1022.0,m2,False
2016307406,listing,/16-hollingsworth-drive-gulgong-nsw-2852-2016307406,460000,is-sold,Sold by private treaty 20 Jul 2020,20200720,16 Hollingsworth Drive,GULGONG,NSW,2852,-32.36887,149.530426,4,4,4,House,House,False,924.0,m2,False
2016433782,listing,/32-hollingsworth-estate-medley-street-gulgong-nsw-2852-2016433782,115000,is-sold,Sold by private treaty 05 Aug 2020,20200805,"32 Hollingsworth Estate, Medley Street",GULGONG,NSW,2852,-32.3690758,149.530731,,,,VacantLand,Vacant land,False,943.0,m2,False
2016434110,listing,/28-18-hollingsworth-drive-gulgong-nsw-2852-2016434110,95000,is-sold,Sold by private treaty 05 Aug 2020,20200805,28/18 Hollingsworth Drive,GULGONG,NSW,2852,-32.3690529,149.5304,,,,VacantLand,Vacant land,False,943.0,m2,False
2016444672,listing,/2-hollingsworth-estate-gulgong-nsw-2852-2016444672,95000,is-sold,Sold by private treaty 13 Aug 2020,20200813,2 Hollingsworth Estate,GULGONG,NSW,2852,-32.3683777,149.528809,,,,VacantLand,Vacant land,False,0.0,m2,False
2016473805,listing,/10-hollingsworth-drive-gulgong-nsw-2852-2016473805,497000,is-sold,Sold by private treaty 29 Jun 2020,20200629,10 Hollingsworth Drive,GULGONG,NSW,2852,-32.368515,149.529785,4,4,4,House,House,False,1075.0,m2,False
2016474026,listing,/94-nugget-lane-gulgong-nsw-2852-2016474026,240000,is-sold,Sold by private treaty 29 Jun 2020,20200629,94 Nugget Lane,GULGONG,NSW,2852,-32.346283,149.551041,,,,Rural,Rural,True,14.37,ha,False
2016475213,listing,/61-barneys-reef-road-gulgong-nsw-2852-2016475213,283000,is-sold,Sold by private treaty 12 Jun 2020,20200612,61 Barneys Reef Road,GULGONG,NSW,2852,-32.3299942,149.530853,,,,Rural,Rural,True,6.51,ha,False
2016475219,listing,/75-barneys-reef-road-gulgong-nsw-2852-2016475219,275000,is-sold,Sold by private treaty 22 Jun 2020,20200622,75 Barneys Reef Road,GULGONG,NSW,2852,-32.3299942,149.530853,,,,VacantLand,Vacant land,True,2.38,ha,False
2016476021,listing,/gulgong-nsw-2852-2016476021,370000,is-sold,Sold by private treaty 09 Jul 2020,20200709,,GULGONG,NSW,2852,-32.35,149.53334,4,4,4,House,House,False,809.0,m2,False
2014651474,listing,/370-castlereagh-highway-gulgong-nsw-2852-2014651474,655000,is-sold,Sold by private treaty 01 Apr 2020,20200401,370 Castlereagh Highway,GULGONG,NSW,2852,-32.34457,149.49,3,3,3,Rural,Rural,True,25.0,ha,False
2014824774,listing,/gulgong-nsw-2852-2014824774,120000,is-sold,Sold by private treaty 28 Feb 2020,20200228,,GULGONG,NSW,2852,-32.35,149.53334,,,,Rural,Rural,True,4.05,ha,False
2014939710,listing,/25-fisher-street-gulgong-nsw-2852-2014939710,98000,is-sold,Sold by private treaty 11 May 2020,20200511,25 Fisher Street,GULGONG,NSW,2852,-32.36656,149.527359,,,,VacantLand,Vacant land,False,1806.0,m2,False
2015277575,listing,/163-mayne-street-gulgong-nsw-2852-2015277575,307000,is-sold,Sold by private treaty 24 Jan 2020,20200124,163 MAYNE STREET,GULGONG,NSW,2852,-32.3632431,149.529922,3,3,3,House,House,False,1012.0,m2,False
2015541431,listing,/1834-blue-springs-road-gulgong-nsw-2852-2015541431,280000,is-sold,Sold by private treaty 12 Feb 2020,20200212,1834 Blue Springs Road,GULGONG,NSW,2852,-32.15252,149.6421,2,2,2,Rural,Rural,True,55.63,ha,False
2015641909,listing,/12-carramar-road-gulgong-nsw-2852-2015641909,271000,is-sold,Sold by private treaty 06 Mar 2020,20200306,12 Carramar Road,GULGONG,NSW,2852,-32.3015633,149.600891,3,3,3,Rural,Rural,True,20.57,ha,False
2015704220,listing,/34-rouse-street-gulgong-nsw-2852-2015704220,380000,is-sold,Sold by private treaty 10 Mar 2020,20200310,34 Rouse Street,GULGONG,NSW,2852,-32.35539,149.531311,3,3,3,House,House,False,2522.0,m2,False
2015706154,listing,/gulgong-nsw-2852-2015706154,120000,is-sold,Sold by private treaty 28 Feb 2020,20200228,,GULGONG,NSW,2852,-32.35,149.53334,,,,VacantLand,Vacant land,True,4.05,ha,False
2015835518,listing,/52-herbert-street-gulgong-nsw-2852-2015835518,360000,is-sold,Sold by private treaty 24 Apr 2020,20200424,52 Herbert Street,GULGONG,NSW,2852,-32.35943,149.5339,3,3,3,House,House,False,1012.0,m2,False
2015933843,listing,/9-stuart-street-gulgong-nsw-2852-2015933843,540000,is-sold,Sold by private treaty 26 Feb 2020,20200226,9 Stuart Street,GULGONG,NSW,2852,-32.3672867,149.539871,4,4,4,House,House,False,1850.0,m2,False
2015966873,listing,/6-grevillea-street-gulgong-nsw-2852-2015966873,336000,is-sold,Sold by private treaty 15 Apr 2020,20200415,6 Grevillea Street,GULGONG,NSW,2852,-32.36692,149.5284,5,5,5,House,House,False,3300.0,m2,False
2016022332,listing,/22-fisher-street-gulgong-nsw-2852-2016022332,250000,is-sold,Sold by private treaty 18 May 2020,20200518,22 Fisher Street,GULGONG,NSW,2852,-32.3659058,149.52713,3,3,3,House,House,False,999.0,m2,False
2016093845,listing,/647-cope-road-stubbo-nsw-2852-2016093845,390000,is-sold,Sold by private treaty 18 Feb 2020,20200218,647 Cope Road,STUBBO,NSW,2852,-32.3159981,149.585251,4,4,4,Rural,Rural,True,10.11,ha,False
2016161642,listing,/11-tallawang-road-gulgong-nsw-2852-2016161642,225000,is-sold,Sold by private treaty 28 May 2020,20200528,11 Tallawang Road,GULGONG,NSW,2852,-32.3620338,149.527191,4,4,4,House,House,False,0.0,m2,False
2016182447,listing,/17-rouse-street-gulgong-nsw-2852-2016182447,390000,is-sold,Sold by private treaty 25 May 2020,20200525,17 Rouse Street,GULGONG,NSW,2852,-32.3559036,149.530548,3,3,3,House,House,False,840.0,m2,False
2016224801,listing,/21-hollingsworth-estate-medley-street-gulgong-nsw-2852-2016224801,113000,is-sold,Sold by private treaty 22 Apr 2020,20200422,"21 Hollingsworth Estate, Medley Street",GULGONG,NSW,2852,-32.36892,149.531067,,,,VacantLand,Vacant land,False,943.0,m2,False
2016237635,listing,/2-wattle-lane-gulgong-nsw-2852-2016237635,445000,is-sold,Sold by private treaty 18 May 2020,20200518,2 Wattle Lane,GULGONG,NSW,2852,-32.36292,149.540619,3,3,3,House,House,False,2023.0,m2,False
2016345286,listing,/147-egans-lane-gulgong-nsw-2852-2016345286,1000000,is-sold,Sold by private treaty 27 May 2020,20200527,147 Egans Lane,GULGONG,NSW,2852,-32.59495,149.587677,,,,Rural,Rural,True,137.59,ha,False
2016355892,listing,/9-stuart-street-gulgong-nsw-2852-2016355892,540000,is-sold,Sold by private treaty 26 Feb 2020,20200226,9 Stuart Street,GULGONG,NSW,2852,-32.3672867,149.539871,4,4,4,House,House,False,1850.0,m2,False
2016355958,listing,/647-cope-road-stubbo-nsw-2852-2016355958,390000,is-sold,Sold by private treaty 18 Feb 2020,20200218,647 Cope Road,STUBBO,NSW,2852,-32.3159981,149.585251,4,4,4,Rural,Rural,True,10.11,ha,False
2012410022,listing,/41-prosperity-lane-gulgong-nsw-2852-2012410022,215000,is-sold,Sold by private treaty 22 Oct 2019,20191022,41 Prosperity Lane,GULGONG,NSW,2852,-32.34216,149.531326,,,,Rural,Rural,True,3.25,ha,False
2013955281,listing,/13-15-belmore-street-gulgong-nsw-2852-2013955281,769000,is-sold,Sold by private treaty 28 Oct 2019,20191028,13-15 Belmore Street,GULGONG,NSW,2852,-32.3622627,149.54454,5,5,5,House,House,False,0.0,m2,False
2014309161,listing,/82-nugget-lane-gulgong-nsw-2852-2014309161,160000,is-sold,Sold by private treaty 07 Jan 2020,20200107,82 Nugget Lane,GULGONG,NSW,2852,-32.3479271,149.555222,,,,Rural,Rural,True,20.89,ha,False
2014320400,listing,/9-medley-street-gulgong-nsw-2852-2014320400,330000,is-sold,Sold by private treaty 30 Oct 2019,20191030,9 Medley Street,GULGONG,NSW,2852,-32.35411,149.534592,,,,VacantLand,Vacant land,True,1.67,ha,False
2014662056,listing,/8-bunderra-street-gulgong-nsw-2852-2014662056,350000,is-sold,Sold by private treaty 20 Sep 2019,20190920,8 Bunderra Street,GULGONG,NSW,2852,-32.367588,149.526367,4,4,4,House,House,False,833.0,m2,False
2014910401,listing,/78-belmore-street-gulgong-nsw-2852-2014910401,302000,is-sold,Sold by private treaty 17 Oct 2019,20191017,78 Belmore Street,GULGONG,NSW,2852,-32.3602257,149.535126,4,4,4,House,House,False,914.0,m2,False
2014930464,listing,/gulgong-nsw-2852-2014930464,570000,is-sold,Sold by private treaty 17 Sep 2019,20190917,,GULGONG,NSW,2852,-32.35,149.53334,4,4,4,House,House,True,39.73,ha,False
2015297317,listing,/14-station-street-gulgong-nsw-2852-2015297317,326000,is-sold,Sold by private treaty 08 Oct 2019,20191008,14 Station Street,GULGONG,NSW,2852,-32.3567352,149.536087,3,3,3,House,House,False,809.0,m2,False
2015392166,listing,/gulgong-nsw-2852-2015392166,,is-sold,Sold by private treaty 08 Oct 2019,20191008,,GULGONG,NSW,2852,-32.35,149.53334,2,2,2,AcreageSemiRural,Acreage / Semi-Rural,True,18.62,ha,False
2015413897,listing,/3-moonlight-street-gulgong-nsw-2852-2015413897,315000,is-sold,Sold by private treaty 19 Dec 2019,20191219,3 Moonlight Street,GULGONG,NSW,2852,-32.36271,149.540909,3,3,3,House,House,False,982.0,m2,False
2015621808,listing,/189-mayne-street-gulgong-nsw-2852-2015621808,272000,is-sold,Sold by private treaty 11 Dec 2019,20191211,189 MAYNE STREET,GULGONG,NSW,2852,-32.3646965,149.52771,1,1,1,House,House,False,1661.0,m2,False
2015654163,listing,/67-wynella-street-gulgong-nsw-2852-2015654163,410000,is-sold,Sold by private treaty 23 Jan 2020,20200123,67 Wynella Street,GULGONG,NSW,2852,-32.3591576,149.528748,3,3,3,House,House,False,3623.0,m2,False
2015672296,listing,/110-medley-street-gulgong-nsw-2852-2015672296,370000,is-sold,Sold by private treaty 23 Jan 2020,20200123,110 Medley Street,GULGONG,NSW,2852,-32.36654,149.5317,3,3,3,House,House,False,1012.0,m2,False
2015672369,listing,/115-herbert-street-gulgong-nsw-2852-2015672369,360000,is-sold,Sold by private treaty 12 Dec 2019,20191212,115 Herbert Street,GULGONG,NSW,2852,-32.3649559,149.5332,5,5,5,House,House,False,1012.0,m2,False
2015742801,listing,/gulgong-nsw-2852-2015742801,,is-sold,Sold by private treaty 12 Dec 2019,20191212,,GULGONG,NSW,2852,-32.35,149.53334,3,3,3,House,House,False,526091.0,m2,False
2015819732,listing,/54-black-lead-lane-gulgong-nsw-2852-2015819732,525000,is-sold,Sold by private treaty 20 Nov 2019,20191120,54 Black Lead Lane,GULGONG,NSW,2852,-32.3480949,149.5404,4,4,4,Rural,Rural,True,1.61,ha,False
2015881666,listing,/11-lot-29-hollingsworth-drive-gulgong-nsw-2852-2015881666,105000,is-sold,Sold by private treaty 24 Sep 2019,20190924,11 (Lot 29) Hollingsworth Drive,GULGONG,NSW,2852,-32.3680229,149.530411,,,,VacantLand,Vacant land,False,0.0,m2,False
2015955768,listing,/lot-25-hollingsworth-estate-gulgong-nsw-2852-2015955768,78000,is-sold,Sold by private treaty 28 Nov 2019,20191128,Lot 25 Hollingsworth Estate,GULGONG,NSW,2852,-32.3682022,149.5297,,,,VacantLand,Vacant land,False,0.0,m2,False
2015966871,listing,/lot-23-hollingsworth-estate-gulgong-nsw-2852-2015966871,112500,is-sold,Sold by private treaty 12 Dec 2019,20191212,Lot 23 Hollingsworth Estate,GULGONG,NSW,2852,-32.3682022,149.5297,,,,VacantLand,Vacant land,False,1004.0,m2,False
2015992464,listing,/lot-24-hollingsworth-estate-gulgong-nsw-2852-2015992464,112000,is-sold,Sold by private treaty 20 Dec 2019,20191220,Lot 24 Hollingsworth Estate,GULGONG,NSW,2852,-32.3682022,149.5297,,,,VacantLand,Vacant land,False,0.0,m2,False
2012970244,listing,/57-belmore-street-gulgong-nsw-2852-2012970244,360000,is-sold,Sold by private treaty 07 Jun 2019,20190607,57 Belmore Street,GULGONG,NSW,2852,-32.36076,149.5378,4,4,4,House,House,False,1180.0,m2,False
2013283977,listing,/198-mayne-street-gulgong-nsw-2852-2013283977,252000,is-sold,Sold by private treaty 17 Sep 2019,20190917,198 Mayne Street,GULGONG,NSW,2852,-32.3650742,149.525955,3,3,3,House,House,False,1113.0,m2,False
2013695395,listing,/11-cunninghams-lane-gulgong-nsw-2852-2013695395,212000,is-sold,Sold by private treaty 19 Jun 2019,20190619,11 Cunninghams Lane,GULGONG,NSW,2852,-32.3717232,149.500443,,,,Rural,Rural,True,0.0,m2,False
2014224335,listing,/24-zimmler-lane-gulgong-nsw-2852-2014224335,170000,is-sold,Sold by private treaty 18 Jun 2019,20190618,24 Zimmler Lane,GULGONG,NSW,2852,-32.3725357,149.542068,,,,Rural,Rural,True,4.05,ha,False
2014240137,listing,/42-zimmler-lane-gulgong-nsw-2852-2014240137,180000,is-sold,Sold by private treaty 31 Jul 2019,20190731,42 Zimmler Lane,GULGONG,NSW,2852,-32.3725357,149.542068,,,,Rural,Rural,True,0.0,m2,False
2014387189,listing,/87-mayne-street-gulgong-nsw-2852-2014387189,472000,is-sold,Sold by private treaty 29 Aug 2019,20190829,87 Mayne Street,GULGONG,NSW,2852,-32.3632927,149.5351,9,9,9,House,House,False,1141.0,m2,False
2014714981,listing,/83-adelong-road-gulgong-nsw-2852-2014714981,596000,is-sold,Sold by private treaty 14 Aug 2019,20190814,83 Adelong Road,GULGONG,NSW,2852,-32.24825,149.412308,4,4,4,Rural,Rural,True,29.18,ha,False
2014754825,listing,/57-herbert-street-gulgong-nsw-2852-2014754825,280000,is-sold,Sold by private treaty 14 Jun 2019,20190614,57 Herbert Street,GULGONG,NSW,2852,-32.36053,149.534317,3,3,3,House,House,False,841.0,m2,False
2014830878,listing,/5-hollingsworth-drive-gulgong-nsw-2852-2014830878,435000,is-sold,Sold by private treaty 17 Jun 2019,20190617,5 Hollingsworth Drive,GULGONG,NSW,2852,-32.3679047,149.529526,4,4,4,House,House,False,586.0,m2,False
2014844748,listing,/103-belmore-street-gulgong-nsw-2852-2014844748,304000,is-sold,Sold by private treaty 11 Sep 2019,20190911,103 BELMORE STREET,GULGONG,NSW,2852,-32.3598442,149.530731,3,3,3,House,House,False,813.0,m2,False
2014899536,listing,/18-station-street-gulgong-nsw-2852-2014899536,270000,is-sold,Sold by private treaty 17 Sep 2019,20190917,18 Station Street,GULGONG,NSW,2852,-32.35702,149.5355,4,4,4,House,House,False,898.0,m2,False
2014944815,listing,/gulgong-nsw-2852-2014944815,215000,is-sold,Sold by private treaty 01 Aug 2019,20190801,,GULGONG,NSW,2852,-32.35,149.53334,,,,Rural,Rural,True,113.0,ha,False
2014962122,listing,/31a-nandoura-street-gulgong-nsw-2852-2014962122,450000,is-sold,Sold by private treaty 05 Jul 2019,20190705,31A Nandoura Street,GULGONG,NSW,2852,-32.361,149.537216,4,4,4,House,House,False,826.0,m2,False
2015216234,listing,/gulgong-nsw-2852-2015216234,420000,is-sold,Sold by private treaty 02 Sep 2019,20190902,,GULGONG,NSW,2852,-32.35,149.53334,5,5,5,House,House,True,55.85,ha,False
2015229337,listing,/gulgong-nsw-2852-2015229337,,is-sold,Sold by private treaty 08 Jul 2019,20190708,,GULGONG,NSW,2852,-32.35,149.53334,2,2,2,House,House,True,20.23,ha,False
2015232312,listing,/69-beela-road-gulgong-nsw-2852-2015232312,490000,is-sold,Sold by private treaty 31 Jul 2019,20190731,69 Beela Road,GULGONG,NSW,2852,-32.3680267,149.523148,5,5,5,AcreageSemiRural,Acreage / Semi-Rural,True,10.12,ha,False
2015315263,listing,/2-bligh-street-gulgong-nsw-2852-2015315263,257000,is-sold,Sold by private treaty 21 Aug 2019,20190821,2 Bligh Street,GULGONG,NSW,2852,-32.3626251,149.528229,3,3,3,House,House,False,403.0,m2,False
2015317556,listing,/47-herbert-street-gulgong-nsw-2852-2015317556,305000,is-sold,Sold by private treaty 12 Aug 2019,20190812,47 Herbert Street,GULGONG,NSW,2852,-32.35964,149.534531,2,2,2,House,House,False,473.0,m2,False
2015406415,listing,/3-scott-avenue-gulgong-nsw-2852-2015406415,400000,is-sold,Sold by private treaty 06 Aug 2019,20190806,3 Scott Avenue,GULGONG,NSW,2852,-32.3539925,149.532715,4,4,4,House,House,False,947.0,m2,False
2015530412,listing,/384-blue-springs-road-gulgong-nsw-2852-2015530412,189000,is-sold,Sold by private treaty 10 Sep 2019,20190910,384 Blue Springs Road,GULGONG,NSW,2852,-32.2697258,149.614273,4,4,4,Rural,Rural,True,48.6,ha,False
2012238448,listing,/29-herbert-street-gulgong-nsw-2852-2012238448,330000,is-sold,Sold by private treaty 21 Mar 2019,20190321,29 Herbert Street,GULGONG,NSW,2852,-32.3582153,149.535,4,4,4,House,House,False,841.0,m2,False
2013471067,listing,/97-black-lead-lane-gulgong-nsw-2852-2013471067,690000,is-sold,Sold by private treaty 20 Mar 2019,20190320,97 Black Lead Lane,GULGONG,NSW,2852,-32.3491936,149.535736,4,4,4,House,House,True,1.85,ha,False
2013601070,listing,/24-cooyal-street-gulgong-nsw-2852-2013601070,334000,is-sold,Sold by private treaty 19 Mar 2019,20190319,24 Cooyal Street,GULGONG,NSW,2852,-32.3651466,149.538071,4,4,4,House,House,False,889.0,m2,False
2013668214,listing,/76-zimmler-lane-gulgong-nsw-2852-2013668214,158000,is-sold,Sold by private treaty 15 Feb 2019,20190215,76 Zimmler Lane,GULGONG,NSW,2852,-32.3725433,149.542084,,,,Rural,Rural,True,4.05,ha,False
2014308815,listing,/7-railway-street-gulgong-nsw-2852-2014308815,262000,is-sold,Sold by private treaty 04 Feb 2019,20190204,7 Railway Street,GULGONG,NSW,2852,-32.3599968,149.5453,4,4,4,House,House,False,1334.0,m2,False
2014414090,listing,/85-mayne-street-gulgong-nsw-2852-2014414090,253000,is-sold,Sold by private treaty 24 May 2019,20190524,85 Mayne Street,GULGONG,NSW,2852,-32.3634148,149.535233,5,5,5,House,House,False,1012.0,m2,False
2014503195,listing,/26-wenonah-street-gulgong-nsw-2852-2014503195,290000,is-sold,Sold by private treaty 19 Mar 2019,20190319,26 Wenonah Street,GULGONG,NSW,2852,-32.3667221,149.540451,3,3,3,House,House,False,1283.0,m2,False
2014551044,listing,/stubbo-road-gulgong-nsw-2852-2014551044,,is-sold,Sold by private treaty 27 Mar 2019,20190327,Stubbo Road,GULGONG,NSW,2852,-32.2989426,149.547958,4,4,4,House,House,True,40.47,ha,False
2014587896,listing,/1036-durridgerie-road-gulgong-nsw-2852-2014587896,440000,is-sold,Sold by private treaty 03 Mar 2019,20190303,1036 Durridgerie Road,GULGONG,NSW,2852,-32.1837273,149.896774,3,3,3,Rural,Rural,True,200.7,ha,False
2014624431,listing,/37-medley-street-gulgong-nsw-2852-2014624431,335000,is-sold,Sold by private treaty 29 Jan 2019,20190129,37 Medley Street,GULGONG,NSW,2852,-32.35868,149.533188,3,3,3,House,House,False,748.0,m2,False
2014654089,listing,/8-bulga-street-gulgong-nsw-2852-2014654089,610000,is-sold,Sold by private treaty 27 Mar 2019,20190327,8 Bulga Street,GULGONG,NSW,2852,-32.3597641,149.529831,5,5,5,House,House,False,2871.0,m2,False
2014695123,listing,/1781-blue-springs-road-gulgong-nsw-2852-2014695123,172000,is-sold,Sold by private treaty 30 May 2019,20190530,1781 Blue Springs Road,GULGONG,NSW,2852,-32.1546478,149.62944,,,,Rural,Rural,True,13.98,ha,False
2014786992,listing,/15-wenonah-street-gulgong-nsw-2852-2014786992,453000,is-sold,Sold by private treaty 15 Feb 2019,20190215,15 Wenonah Street,GULGONG,NSW,2852,-32.3634644,149.5419,3,3,3,House,House,False,2948.0,m2,False
2014790700,listing,/62-herbert-street-gulgong-nsw-2852-2014790700,318000,is-sold,Sold by private treaty 01 May 2019,20190501,62 Herbert Street,GULGONG,NSW,2852,-32.3600235,149.533783,2,2,2,House,House,False,608.0,m2,False
2014816826,listing,/111-adams-lead-road-gulgong-nsw-2852-2014816826,182000,is-sold,Sold by private treaty 01 Feb 2019,20190201,111 ADAMS LEAD ROAD,GULGONG,NSW,2852,-32.3747025,149.518509,,,,VacantLand,Vacant land,True,3.1,ha,False
2014824523,listing,/9-lynne-street-gulgong-nsw-2852-2014824523,255000,is-sold,Sold by private treaty 21 Mar 2019,20190321,9 Lynne Street,GULGONG,NSW,2852,-32.35931,149.533554,3,3,3,House,House,False,1016.0,m2,False
2014917356,listing,/703-cope-road-gulgong-nsw-2852-2014917356,425000,is-sold,Sold by private treaty 26 Feb 2019,20190226,703 Cope Road,GULGONG,NSW,2852,-32.3116035,149.593018,3,3,3,Farm,Farm,True,10.12,ha,False
2014939666,listing,/29-fisher-street-gulgong-nsw-2852-2014939666,397000,is-sold,Sold by private treaty 28 Mar 2019,20190328,29 Fisher Street,GULGONG,NSW,2852,-32.36656,149.527359,4,4,4,House,House,False,1245.0,m2,False
2014945805,listing,/10-moonlight-sreet-gulgong-nsw-2852-2014945805,395000,is-sold,Sold by private treaty 28 Mar 2019,20190328,10 Moonlight Sreet,GULGONG,NSW,2852,-32.36216,149.5405,4,4,4,House,House,False,2023.0,m2,False
2015629204,listing,/lot-20-hollingsworth-estate-medley-street-gulgong-nsw-2852-2015629204,115000,is-sold,Sold by private treaty 23 May 2019,20190523,"Lot 20 Hollingsworth Estate, Medley Street",GULGONG,NSW,2852,-32.35,149.53334,,,,VacantLand,Vacant land,False,0.0,m2,False
2012613177,listing,/215-black-lead-lane-gulgong-nsw-2852-2012613177,235000,is-sold,Sold by private treaty 04 Dec 2018,20181204,215 Black Lead Lane,GULGONG,NSW,2852,-32.34803,149.534714,,,,VacantLand,Vacant land,True,5.06,ha,False
2013771664,listing,/43-medley-street-gulgong-nsw-2852-2013771664,220000,is-sold,Sold by private treaty 18 Oct 2018,20181018,43 Medley Street,GULGONG,NSW,2852,-32.35939,149.533157,3,3,3,House,House,False,0.0,m2,False
2014271222,listing,/94-medley-street-gulgong-nsw-2852-2014271222,258900,is-sold,Sold by private treaty 02 Oct 2018,20181002,94 Medley Street,GULGONG,NSW,2852,-32.36464,149.531708,3,3,3,House,House,False,847.0,m2,False
2014367488,listing,/gulgong-nsw-2852-2014367488,340000,is-sold,Sold by private treaty 22 Oct 2018,20181022,,GULGONG,NSW,2852,-32.35,149.53334,3,3,3,House,House,False,436.0,m2,False
2014505115,listing,/183-black-lead-lane-gulgong-nsw-2852-2014505115,730000,is-sold,Sold by private treaty 08 Nov 2018,20181108,183 Black Lead Lane,GULGONG,NSW,2852,-32.3486977,149.52623,6,6,6,Rural,Rural,True,5.06,ha,False
2014511990,listing,/190-trilby-lane-gulgong-nsw-2852-2014511990,1850000,is-sold,Sold by private treaty 06 Nov 2018,20181106,190 Trilby Lane,GULGONG,NSW,2852,-32.30995,149.4247,3,3,3,Rural,Rural,True,410.87,ha,False
2014553952,listing,/873-blue-springs-road-gulgong-nsw-2852-2014553952,420000,is-sold,Sold by private treaty 07 Sep 2018,20180907,873 Blue Springs Road,GULGONG,NSW,2852,-32.2272568,149.62558,1,1,1,Rural,Rural,True,100.59,ha,False
2014562892,listing,/goolma-nsw-2852-2014562892,10300000,is-sold,Sold by private treaty 15 Oct 2018,20181015,,GOOLMA,NSW,2852,-32.36695,149.264282,,,,Rural,Rural,True,5798.0,ha,False
2014586344,listing,/5-bunderra-street-gulgong-nsw-2852-2014586344,220000,is-sold,Sold by private treaty 20 Sep 2018,20180920,5 BUNDERRA STREET,GULGONG,NSW,2852,-32.368145,149.52771,3,3,3,House,House,False,891.0,m2,False
2014619063,listing,/gulgong-nsw-2852-2014619063,344000,is-sold,Sold by private treaty 22 Nov 2018,20181122,,GULGONG,NSW,2852,-32.35,149.53334,3,3,3,House,House,False,505.0,m2,False
2014621004,listing,/16-yaraandoo-street-gulgong-nsw-2852-2014621004,255000,is-sold,Sold by private treaty 25 Oct 2018,20181025,16 Yaraandoo Street,GULGONG,NSW,2852,-32.36682,149.526947,4,4,4,House,House,False,757.0,m2,False
2014643245,listing,/74-mayne-street-gulgong-nsw-2852-2014643245,327000,is-sold,Sold by private treaty 02 Nov 2018,20181102,74 Mayne Street,GULGONG,NSW,2852,-32.3631058,149.535889,3,3,3,House,House,False,1315.0,m2,False
2014643999,listing,/1318-cope-road-gulgong-nsw-2852-2014643999,565000,is-sold,Sold by private treaty 22 Nov 2018,20181122,1318 Cope Road,GULGONG,NSW,2852,-32.2934151,149.654327,3,3,3,Rural,Rural,True,27.55,ha,False
2014647983,listing,/41-medley-street-gulgong-nsw-2852-2014647983,235000,is-sold,Sold by private treaty 05 Dec 2018,20181205,41 Medley Street,GULGONG,NSW,2852,-32.3592377,149.533188,3,3,3,House,House,False,816.0,m2,False
2014654857,listing,/165-167-mayne-street-gulgong-nsw-2852-2014654857,,is-sold,Sold by private treaty 07 Dec 2018,20181207,165-167 Mayne Street,GULGONG,NSW,2852,-32.3631859,149.529663,4,4,4,House,House,False,1303.0,m2,False
2014694500,listing,/lot-3492-8-black-lead-lane-gulgong-nsw-2852-2014694500,219000,is-sold,Sold by private treaty 12 Nov 2018,20181112,Lot 3492/8 Black Lead Lane,GULGONG,NSW,2852,-32.3481979,149.544846,,,,Rural,Rural,True,2.0,ha,False
2014793129,listing,/51-medley-st-gulgong-nsw-2852-2014793129,295000,is-sold,Sold by private treaty 13 Dec 2018,20181213,51 Medley St,GULGONG,NSW,2852,-32.36162,149.532516,3,3,3,House,House,False,970.0,m2,False
2014845229,listing,/10-bulga-street-gulgong-nsw-2852-2014845229,155000,is-sold,Sold by private treaty 22 Jan 2019,20190122,10 Bulga Street,GULGONG,NSW,2852,-32.3602,149.529648,,,,VacantLand,Vacant land,False,1590.0,m2,False
2015629153,listing,/lot-30-hollingsworth-estate-gulgong-nsw-2852-2015629153,92500,is-sold,Sold by private treaty 01 Nov 2018,20181101,Lot 30 Hollingsworth Estate,GULGONG,NSW,2852,-32.3690758,149.530731,,,,VacantLand,Vacant land,False,0.0,m2,False
2015629173,listing,/10-scott-avenue-gulgong-nsw-2852-2015629173,340000,is-sold,Sold by private treaty 04 Sep 2018,20180904,10 Scott Avenue,GULGONG,NSW,2852,-32.3533859,149.532074,,,,House,House,False,0.0,m2,False
2012612862,listing,/199-black-lead-lane-gulgong-nsw-2852-2012612862,,is-sold,Sold by private treaty 01 Jun 2018,20180601,199 Black Lead Lane,GULGONG,NSW,2852,-32.34803,149.534714,,,,VacantLand,Vacant land,True,5.81,ha,False
2013236003,listing,/46-mayne-street-gulgong-nsw-2852-2013236003,349000,is-sold,Sold by private treaty 10 Jul 2018,20180710,46 Mayne Street,GULGONG,NSW,2852,-32.3642273,149.53949,2,2,2,House,House,False,1012.0,m2,False
2013668212,listing,/68-zimmler-lane-gulgong-nsw-2852-2013668212,132000,is-sold,Sold by private treaty 05 Jul 2018,20180705,68 Zimmler Lane,GULGONG,NSW,2852,-32.3725433,149.542084,,,,Rural,Rural,True,4.05,ha,False
2014003048,listing,/4-queen-street-gulgong-nsw-2852-2014003048,395000,is-sold,Sold by private treaty 20 Jul 2018,20180720,4 Queen Street,GULGONG,NSW,2852,-32.3636,149.540741,3,3,3,House,House,False,0.0,m2,False
2014049187,listing,/gulgong-nsw-2852-2014049187,340000,is-sold,Sold by private treaty 25 Jun 2018,20180625,,GULGONG,NSW,2852,-32.35,149.53334,5,5,5,House,House,False,1012.0,m2,False
2014075950,listing,/343-puggoon-road-gulgong-nsw-2852-2014075950,910000,is-sold,Sold by private treaty 23 Aug 2018,20180823,343 Puggoon Road,GULGONG,NSW,2852,-32.3085175,149.484161,3,3,3,ApartmentUnitFlat,Apartment / Unit / Flat,True,129.0,ha,False
2014238951,listing,/136-bergalin-road-gulgong-nsw-2852-2014238951,185000,is-sold,Sold by private treaty 22 Aug 2018,20180822,136 Bergalin Road,GULGONG,NSW,2852,-32.3809052,149.517578,,,,Rural,Rural,True,5.44,ha,False
2014244188,listing,/1617-castlereagh-highway-gulgong-nsw-2852-2014244188,215000,is-sold,Sold by private treaty 15 Aug 2018,20180815,1617 Castlereagh Highway,GULGONG,NSW,2852,-32.24911,149.432663,,,,Farm,Farm,True,10.0,ha,False
2014247766,listing,/6-bayly-street-gulgong-nsw-2852-2014247766,300000,is-sold,Sold by private treaty 24 Aug 2018,20180824,6 Bayly Street,GULGONG,NSW,2852,-32.3619461,149.538239,3,3,3,House,House,False,1737.0,m2,False
2014320399,listing,/11-medley-street-gulgong-nsw-2852-2014320399,307000,is-sold,Sold by private treaty 02 Jul 2018,20180702,11 Medley Street,GULGONG,NSW,2852,-32.35411,149.534592,3,3,3,House,House,False,896.0,m2,False
2014371108,listing,/1743-blue-springs-road-gulgong-nsw-2852-2014371108,369000,is-sold,Sold by private treaty 12 Jun 2018,20180612,1743 Blue Springs Road,GULGONG,NSW,2852,-32.1564941,149.6292,4,4,4,Rural,Rural,True,12.91,ha,False
2014374940,listing,/19-cainbil-street-gulgong-nsw-2852-2014374940,313000,is-sold,Sold by private treaty 24 Aug 2018,20180824,19 Cainbil Street,GULGONG,NSW,2852,-32.35825,149.531586,4,4,4,House,House,False,758.0,m2,False
2014384546,listing,/17-lynne-street-gulgong-nsw-2852-2014384546,225000,is-sold,Sold by private treaty 03 Sep 2018,20180903,17 Lynne Street,GULGONG,NSW,2852,-32.35898,149.531647,3,3,3,House,House,False,1012.0,m2,False
2014399367,listing,/2333-castlereagh-highway-gulgong-nsw-2852-2014399367,340000,is-sold,Sold by private treaty 29 Jun 2018,20180629,2333 CASTLEREAGH HIGHWAY,GULGONG,NSW,2852,-32.4039879,149.52356,3,3,3,AcreageSemiRural,Acreage / Semi-Rural,True,13.76,ha,False
2014423525,listing,/1637-castlereagh-highway-tallawang-nsw-2852-2014423525,405000,is-sold,Sold by private treaty 17 Aug 2018,20180817,1637 Castlereagh Highway,TALLAWANG,NSW,2852,-32.24711,149.433228,5,5,5,Rural,Rural,True,11.54,ha,False
2014452676,listing,/69-beela-road-gulgong-nsw-2852-2014452676,395000,is-sold,Sold by private treaty 03 Aug 2018,20180803,69 Beela Road,GULGONG,NSW,2852,-32.30871,149.58374,3,3,3,Rural,Rural,True,10.2,ha,False
2014490712,listing,/24-flirtation-hill-lane-gulgong-nsw-2852-2014490712,202000,is-sold,Sold by private treaty 30 Aug 2018,20180830,24 Flirtation Hill Lane,GULGONG,NSW,2852,-32.3688431,149.540817,,,,VacantLand,Vacant land,True,1.84,ha,False
2014498663,listing,/2-wattle-lane-gulgong-nsw-2852-2014498663,397000,is-sold,Sold by private treaty 07 Aug 2018,20180807,2 Wattle Lane,GULGONG,NSW,2852,-32.36292,149.540619,3,3,3,House,House,False,2023.0,m2,False
2015629151,listing,/lot-33-hollingsworth-estate-gulgong-nsw-2852-2015629151,115000,is-sold,Sold by private treaty 28 May 2018,20180528,Lot 33 Hollingsworth Estate,GULGONG,NSW,2852,-32.3682022,149.5297,,,,VacantLand,Vacant land,False,0.0,m2,False
2015629152,listing,/lot-22-hollingsworth-estate-gulgong-nsw-2852-2015629152,110000,is-sold,Sold by private treaty 04 Sep 2018,20180904,Lot 22 Hollingsworth Estate,GULGONG,NSW,2852,-32.3682022,149.5297,,,,VacantLand,Vacant land,False,0.0,m2,False
2012086891,listing,/110-ridout-lane-gulgong-nsw-2852-2012086891,123500,is-sold,Sold by private treaty 02 Mar 2018,20180302,110 Ridout Lane,GULGONG,NSW,2852,-32.370533,149.547928,,,,Rural,Rural,True,4.05,ha,False
2012230227,listing,/152-mayne-street-gulgong-nsw-2852-2012230227,160500,is-sold,Sold by private treaty 14 Feb 2018,20180214,152 Mayne Street,GULGONG,NSW,2852,-32.3626633,149.5305,2,2,2,House,House,False,556.0,m2,False
2012230237,listing,/860-cope-road-gulgong-nsw-2852-2012230237,155000,is-sold,Sold by private treaty 23 May 2018,20180523,860 Cope Road,GULGONG,NSW,2852,-32.3039742,149.606232,,,,Rural,Rural,True,6.07,ha,False
2013095006,listing,/68-belmore-street-gulgong-nsw-2852-2013095006,192000,is-sold,Sold by private treaty 06 Apr 2018,20180406,68 Belmore Street,GULGONG,NSW,2852,-32.36033,149.536255,2,2,2,House,House,False,948.0,m2,False
2013668211,listing,/77-grimshaw-lane-gulgong-nsw-2852-2013668211,160000,is-sold,Sold by private treaty 12 Mar 2018,20180312,77 Grimshaw Lane,GULGONG,NSW,2852,-32.38196,149.541,,,,Rural,Rural,True,4.05,ha,False
2013668213,listing,/90-zimmler-lane-gulgong-nsw-2852-2013668213,163000,is-sold,Sold by private treaty 25 May 2018,20180525,90 Zimmler Lane,GULGONG,NSW,2852,-32.3725433,149.542084,,,,Rural,Rural,True,4.05,ha,False
2013689147,listing,/37-medley-street-gulgong-nsw-2852-2013689147,,is-sold,Sold by private treaty 02 Jan 2018,20180102,37 Medley Street,GULGONG,NSW,2852,-32.35868,149.533188,3,3,3,House,House,False,0.0,m2,False
2013974572,listing,/6-worobil-street-gulgong-nsw-2852-2013974572,265000,is-sold,Sold by private treaty 02 Apr 2018,20180402,6 Worobil Street,GULGONG,NSW,2852,-32.35689,149.531845,3,3,3,House,House,False,787.0,m2,False
2013977076,listing,/3697-yarrabin-road-gulgong-nsw-2852-2013977076,550000,is-sold,Sold at auction 27 Feb 2018,20180227,3697 Yarrabin Road,GULGONG,NSW,2852,-32.3626,149.534,,,,House,House,True,633.55,ha,False
2014016911,listing,/20-cainbil-street-gulgong-nsw-2852-2014016911,305000,is-sold,Sold by private treaty 26 Mar 2018,20180326,20 Cainbil Street,GULGONG,NSW,2852,-32.3577461,149.531036,4,4,4,House,House,False,1556.0,m2,False
2014058382,listing,/1-bowman-street-gulgong-nsw-2852-2014058382,262500,is-sold,Sold by private treaty 01 Feb 2018,20180201,1 BOWMAN STREET,GULGONG,NSW,2852,-32.3614349,149.539322,3,3,3,House,House,False,1126.0,m2,False
2014061783,listing,/1127-goolma-road-gulgong-nsw-2852-2014061783,575000,is-sold,Sold by private treaty 26 Feb 2018,20180226,"1127 Goolma Road,",GULGONG,NSW,2852,-32.3990364,149.436172,4,4,4,House,House,True,15.13,ha,False
2014079991,listing,/202-carramar-road-gulgong-nsw-2852-2014079991,405000,is-sold,Sold by private treaty 12 Jan 2018,20180112,202 Carramar Road,GULGONG,NSW,2852,-32.3626,149.534,3,3,3,Rural,Rural,True,10.12,ha,False
2014090486,listing,/1572-blue-springs-road-gulgong-nsw-2852-2014090486,279000,is-sold,Sold by private treaty 19 Mar 2018,20180319,1572 Blue Springs Road,GULGONG,NSW,2852,-32.30114,149.604614,3,3,3,Rural,Rural,True,10.95,ha,False
2014190551,listing,/78-mayne-street-gulgong-nsw-2852-2014190551,199000,is-sold,Sold by private treaty 04 May 2018,20180504,78 Mayne Street,GULGONG,NSW,2852,-32.36294,149.5355,3,3,3,House,House,False,1012.0,m2,False
2014198564,listing,/231-springwood-park-road-gulgong-nsw-2852-2014198564,161000,is-sold,Sold by private treaty 09 May 2018,20180509,231 Springwood Park Road,GULGONG,NSW,2852,-32.30689,149.659424,3,3,3,Rural,Rural,True,16.99,ha,False
2014260821,listing,/4-james-street-gulgong-nsw-2852-2014260821,400000,is-sold,Sold prior to auction 12 Apr 2018,20180412,4 James Street,GULGONG,NSW,2852,-32.3622551,149.5464,4,4,4,House,House,False,760.0,m2,False
2014260823,listing,/18-fisher-street-gulgong-nsw-2852-2014260823,85500,is-sold,Sold by private treaty 08 May 2018,20180508,18 Fisher Street,GULGONG,NSW,2852,-32.36604,149.52771,,,,VacantLand,Vacant land,False,1262.0,m2,False
2014268129,listing,/58-holleys-lane-gulgong-nsw-2852-2014268129,515000,is-sold,Sold by private treaty 02 May 2018,20180502,58 Holleys Lane,GULGONG,NSW,2852,-32.34253,149.471237,4,4,4,Rural,Rural,True,10.21,ha,False
2014355864,listing,/56-mayne-street-gulgong-nsw-2852-2014355864,259000,is-sold,Sold by private treaty 16 May 2018,20180516,56 Mayne Street,GULGONG,NSW,2852,-32.3640671,149.538223,3,3,3,House,House,False,1012.0,m2,False
2011899977,listing,/141-grimshaw-lane-gulgong-nsw-2852-2011899977,159000,is-sold,Sold by private treaty 26 Oct 2017,20171026,141 Grimshaw Lane,GULGONG,NSW,2852,-32.38196,149.541,,,,Rural,Rural,True,6.8,ha,False
2012086890,listing,/130-ridout-lane-gulgong-nsw-2852-2012086890,115000,is-sold,Sold by private treaty 30 Nov 2017,20171130,130 Ridout Lane,GULGONG,NSW,2852,-32.370533,149.547928,,,,Rural,Rural,True,4.05,ha,False
2012419851,listing,/1-168-6-168-bergalin-road-gulgong-nsw-2852-2012419851,172000,is-sold,Sold by private treaty 20 Oct 2017,20171020,"1, 168 & 6/168 Bergalin Road",GULGONG,NSW,2852,-32.38089,149.517578,,,,Rural,Rural,True,4.24,ha,False
2012575589,listing,/33-lynne-street-gulgong-nsw-2852-2012575589,85000,is-sold,Sold by private treaty 18 Dec 2017,20171218,33 Lynne Street,GULGONG,NSW,2852,-32.3584061,149.528885,,,,VacantLand,Vacant land,False,812.0,m2,False
2012981382,listing,/54-mayne-street-gulgong-nsw-2852-2012981382,285000,is-sold,Sold by private treaty 23 Oct 2017,20171023,54 Mayne Street,GULGONG,NSW,2852,-32.36416,149.5384,3,3,3,House,House,False,546.0,m2,False
2013136840,listing,/73-belmore-street-gulgong-nsw-2852-2013136840,310000,is-sold,Sold by private treaty 21 Dec 2017,20171221,73 Belmore Street,GULGONG,NSW,2852,-32.36086,149.535583,4,4,4,House,House,False,0.0,m2,False
2013364258,listing,/20-rouse-street-gulgong-nsw-2852-2013364258,278000,is-sold,Sold by private treaty 13 Oct 2017,20171013,20 Rouse Street,GULGONG,NSW,2852,-32.3555641,149.532837,3,3,3,House,House,False,0.0,m2,False
2013473805,listing,/16-bayly-street-gulgong-nsw-2852-2013473805,350000,is-sold,Sold by private treaty 23 Oct 2017,20171023,16 Bayly Street,GULGONG,NSW,2852,-32.3617668,149.5372,3,3,3,House,House,False,1277.0,m2,False
2013495738,listing,/81-adelong-road-gulgong-nsw-2852-2013495738,505000,is-sold,Sold by private treaty 17 Nov 2017,20171117,81 Adelong Road,GULGONG,NSW,2852,-32.2516,149.416046,3,3,3,Rural,Rural,True,10.67,ha,False
2013506179,listing,/1532-blue-springs-road-gulgong-nsw-2852-2013506179,315000,is-sold,Sold by private treaty 07 Dec 2017,20171207,1532 Blue Springs Road,GULGONG,NSW,2852,-32.30114,149.604614,2,2,2,Rural,Rural,True,10.9,ha,False
2013526616,listing,/278-beryl-road-gulgong-nsw-2852-2013526616,415000,is-sold,Sold by private treaty 30 Oct 2017,20171030,278 Beryl Road,GULGONG,NSW,2852,-32.34431,149.4577,5,5,5,Rural,Rural,True,5.67,ha,False
2013636104,listing,/28-belmore-street-gulgong-nsw-2852-2013636104,279000,is-sold,Sold by private treaty 23 Oct 2017,20171023,28 Belmore Street,GULGONG,NSW,2852,-32.36105,149.5439,3,3,3,House,House,False,840.0,m2,False
2013641068,listing,/gulgong-nsw-2852-2013641068,215000,is-sold,Sold by private treaty 15 Dec 2017,20171215,,GULGONG,NSW,2852,-32.35,149.53334,2,2,2,Rural,Rural,True,113.31,ha,False
2013674467,listing,/20-yaraandoo-street-gulgong-nsw-2852-2013674467,299000,is-sold,Sold by private treaty 08 Nov 2017,20171108,20 Yaraandoo Street,GULGONG,NSW,2852,-32.36675,149.526535,4,4,4,House,House,False,774.0,m2,False
2013731613,listing,/gulgong-nsw-2852-2013731613,209500,is-sold,Sold by private treaty 22 Dec 2017,20171222,,GULGONG,NSW,2852,-32.35,149.53334,4,4,4,AcreageSemiRural,Acreage / Semi-Rural,True,10.12,ha,False
2013883934,listing,/56-medley-street-gulgong-nsw-2852-2013883934,173000,is-sold,Sold by private treaty 06 Nov 2017,20171106,56 Medley Street,GULGONG,NSW,2852,-32.36006,149.532318,2,2,2,House,House,False,506.0,m2,False
2014014601,listing,/7a-worobil-street-gulgong-nsw-2852-2014014601,618000,is-sold,Sold by private treaty 18 Dec 2017,20171218,7A Worobil Street,GULGONG,NSW,2852,-32.35724,149.530167,5,5,5,House,House,False,1437.0,m2,False
2015629150,listing,/lot-34-hollingsworth-estate-gulgong-nsw-2852-2015629150,115000,is-sold,Sold by private treaty 14 Dec 2017,20171214,Lot 34 Hollingsworth Estate,GULGONG,NSW,2852,-32.3682022,149.5297,,,,VacantLand,Vacant land,False,0.0,m2,False
2015973047,listing,/246-whistons-lane-tallawang-nsw-2852-2015973047,540000,is-sold,Sold at auction 02 Nov 2017,20171102,246 Whistons Lane,TALLAWANG,NSW,2852,-32.2214661,149.4652,,,,Rural,Rural,True,204.0,ha,False
2017179936,listing,/2610-castlereagh-highway-gulgong-nsw-2852-2017179936,750000,is-sold,Sold by private treaty 17 Oct 2017,20171017,2610 Castlereagh Highway,GULGONG,NSW,2852,-32.3753433,149.531143,3,3,3,Rural,Rural,True,126.1,ha,False
2012086889,listing,/111-grimshaw-lane-gulgong-nsw-2852-2012086889,129000,is-sold,Sold by private treaty 18 Jul 2017,20170718,111 Grimshaw Lane,GULGONG,NSW,2852,-32.38196,149.541,,,,Rural,Rural,True,3.64,ha,False
2012230231,listing,/93-barneys-reef-road-gulgong-nsw-2852-2012230231,465500,is-sold,Sold by private treaty 13 Oct 2017,20171013,93 Barneys Reef Road,GULGONG,NSW,2852,-32.3438377,149.532333,3,3,3,House,House,True,4.78,ha,False
2012322897,listing,/9-hill-view-estate-gulgong-nsw-2852-2012322897,405000,is-sold,Sold by private treaty 01 Aug 2017,20170801,9 Hill View Estate,GULGONG,NSW,2852,-32.3626,149.534,,,4.0,Rural,Rural,True,20.0,ha,False
2012630788,listing,/17-herbert-street-gulgong-nsw-2852-2012630788,179000,is-sold,Sold by private treaty 27 Jul 2017,20170727,17 Herbert Street,GULGONG,NSW,2852,-32.3564072,149.534943,3,3,3,House,House,False,734.0,m2,False
2012647494,listing,/1-67-bergalin-road-gulgong-nsw-2852-2012647494,174000,is-sold,Sold by private treaty 04 Sep 2017,20170904,1 & 67 Bergalin Road,GULGONG,NSW,2852,-32.3803177,149.511612,,,,Rural,Rural,True,5.44,ha,False
2012725940,listing,/139-mayne-street-gulgong-nsw-2852-2012725940,335000,is-sold,Sold by private treaty 25 Aug 2017,20170825,139 Mayne Street,GULGONG,NSW,2852,-32.3628922,149.5322,3,3,3,House,House,False,0.0,m2,False
2013172158,listing,/11-bunderra-street-gulgong-nsw-2852-2013172158,325000,is-sold,Sold by private treaty 21 Aug 2017,20170821,11 Bunderra Street,GULGONG,NSW,2852,-32.3681335,149.526886,3,3,3,House,House,False,729.0,m2,False
2013409718,listing,/01637-castlereagh-hwy-gulgong-nsw-2852-2013409718,395000,is-sold,Sold by private treaty 01 Aug 2017,20170801,01637 Castlereagh Hwy,GULGONG,NSW,2852,-30.917635,148.375626,4,4,4,Rural,Rural,True,11.54,ha,False
2013492835,listing,/1018-castlereagh-highway-gulgong-nsw-2852-2013492835,,is-sold,Sold by private treaty 01 Sep 2017,20170901,1018 Castlereagh Highway,GULGONG,NSW,2852,-32.3712349,149.5319,3,3,3,House,House,False,8094.0,m2,False
2013525753,listing,/2-kaylene-crescent-gulgong-nsw-2852-2013525753,392000,is-sold,Sold by private treaty 13 Jul 2017,20170713,2 Kaylene Crescent,GULGONG,NSW,2852,-32.3548126,149.532883,4,4,4,House,House,False,939.0,m2,False
2013553928,listing,/37-snelsons-lane-gulgong-nsw-2852-2013553928,99000,is-sold,Sold by private treaty 08 Sep 2017,20170908,37 Snelsons Lane,GULGONG,NSW,2852,-32.365242,149.55304,,,,VacantLand,Vacant land,False,1.0,m2,False
2013579595,listing,/93-belmore-street-gulgong-nsw-2852-2013579595,210000,is-sold,Sold by private treaty 24 Aug 2017,20170824,93 Belmore Street,GULGONG,NSW,2852,-32.3601952,149.531708,3,3,3,House,House,False,708.0,m2,False
2013596563,listing,/4-cainbil-street-gulgong-nsw-2852-2013596563,252000,is-sold,Sold by private treaty 24 Jul 2017,20170724,4 Cainbil Street,GULGONG,NSW,2852,-32.35615,149.531387,4,4,4,House,House,False,1170.0,m2,False
2013633303,listing,/43-wynella-street-gulgong-nsw-2852-2013633303,,is-sold,Sold by private treaty 31 Aug 2017,20170831,43 Wynella Street,GULGONG,NSW,2852,-32.3562622,149.529129,4,4,4,House,House,False,1070.0,m2,False
2013648586,listing,/85-black-lead-lane-gulgong-nsw-2852-2013648586,310000,is-sold,Sold by private treaty 17 Jul 2017,20170717,85 Black Lead Lane,GULGONG,NSW,2852,-32.34981,149.5373,1,1,1,Rural,Rural,True,1.96,ha,False
2013679393,listing,/3-cooyal-street-gulgong-nsw-2852-2013679393,,is-sold,Sold by private treaty 26 Sep 2017,20170926,3 Cooyal Street,GULGONG,NSW,2852,-32.36608,149.540329,5,5,5,House,House,False,1277.0,m2,False
2013725524,listing,/232-wyoming-road-gulgong-nsw-2852-2013725524,195000,is-sold,Sold at auction 12 Aug 2017,20170812,232 Wyoming Road,GULGONG,NSW,2852,-32.3167572,149.6084,2,2,2,Rural,Rural,True,10.2,ha,False
2013726860,listing,/1515-blue-springs-road-gulgong-nsw-2852-2013726860,390000,is-sold,Sold by private treaty 14 Sep 2017,20170914,1515 Blue Springs Road,GULGONG,NSW,2852,-32.30114,149.604614,,,3.0,Rural,Rural,True,193.63,ha,False
2013780146,listing,/485-cope-road-gulgong-nsw-2852-2013780146,339000,is-sold,Sold by private treaty 21 Sep 2017,20170921,485 Cope Road,GULGONG,NSW,2852,-32.3230476,149.577271,2,2,2,Rural,Rural,True,20.23,ha,False
2013821014,listing,/1165-goolma-road-gulgong-nsw-2852-2013821014,485000,is-sold,Sold by private treaty 29 Sep 2017,20170929,1165 Goolma Road,GULGONG,NSW,2852,-32.38376,149.490067,3,3,3,Rural,Rural,True,13.03,ha,False
2009867876,listing,/gulgong-nsw-2852-2009867876,382500,is-sold,Sold by private treaty 12 May 2017,20170512,,GULGONG,NSW,2852,-32.3625832,149.532074,,,,Rural,Rural,True,20.31,ha,False
2012318347,listing,/7-hill-view-estate-gulgong-nsw-2852-2012318347,385000,is-sold,Sold by private treaty 07 Jul 2017,20170707,7 Hill View Estate,GULGONG,NSW,2852,-32.3626,149.534,,,,Rural,Rural,True,20.0,ha,False
2012816530,listing,/5-296-laheys-creek-road-beryl-nsw-2852-2012816530,,is-sold,Sold by private treaty 04 Jul 2017,20170704,5/296 Laheys Creek Road,BERYL,NSW,2852,-32.3017159,149.410919,1,1,1,House,House,False,0.0,m2,False
2012998869,listing,/81-belmore-street-gulgong-nsw-2852-2012998869,235000,is-sold,Sold by private treaty 04 Jul 2017,20170704,81 Belmore Street,GULGONG,NSW,2852,-32.3605728,149.534576,3,3,3,House,House,False,417.0,m2,False
2013051624,listing,/10-moonlight-street-gulgong-nsw-2852-2013051624,362000,is-sold,Sold by private treaty 24 May 2017,20170524,10 Moonlight Street,GULGONG,NSW,2852,-32.36191,149.540482,4,4,4,House,House,False,2023.0,m2,False
2013055782,listing,/lot-59-beryl-road-gulgong-nsw-2852-2013055782,265000,is-sold,Sold by private treaty 24 May 2017,20170524,Lot 59 Beryl Road,GULGONG,NSW,2852,-32.3456879,149.479324,,,,Rural,Rural,True,31.16,ha,False
2013056007,listing,/lot-two-1403-blue-springs-rd-gulgong-nsw-2852-2013056007,245000,is-sold,Sold by private treaty 24 May 2017,20170524,Lot Two 1403 Blue Springs Rd,GULGONG,NSW,2852,-32.30114,149.604614,,,,Rural,Rural,False,0.0,m2,False
2013085310,listing,/3-bowman-street-gulgong-nsw-2852-2013085310,253500,is-sold,Sold by private treaty 24 May 2017,20170524,3 Bowman Street,GULGONG,NSW,2852,-32.36165,149.539413,3,3,3,House,House,False,1012.0,m2,False
2013207360,listing,/1225-gollan-road-goolma-nsw-2852-2013207360,,is-sold,Sold by private treaty 19 May 2017,20170519,1225 Gollan Road,GOOLMA,NSW,2852,-32.32155,149.231827,5,5,5,Rural,Rural,True,87.07,ha,False
2013225187,listing,/31-nandoura-street-gulgong-nsw-2852-2013225187,,is-sold,Sold by private treaty 05 Jul 2017,20170705,31 Nandoura Street,GULGONG,NSW,2852,-32.3616333,149.536942,3,3,3,House,House,False,825.0,m2,False
2013239188,listing,/158-montaza-road-gulgong-nsw-2852-2013239188,450000,is-sold,Sold by private treaty 02 Jun 2017,20170602,158 Montaza Road,GULGONG,NSW,2852,-32.26637,149.3862,5,5,5,House,House,True,40.47,ha,False
