id,listingType,url,price,tagClassName,tagText,date,street,suburb,state,postcode,lat,lng,beds,baths,parking,propertyType,propertyTypeFormatted,isRural,landSize,landUnit,isRetirement
2018069987,listing,/22-316-manningham-road-doncaster-vic-3108-2018069987,530000,is-sold,Sold by private treaty 01 Mar 2023,20230301,22/316 Manningham Road,DONCASTER,VIC,3108,-37.7749367,145.115433,2,2,1,ApartmentUnitFlat,Apartment / Unit / Flat,False,0,m2,False
2018270828,listing,/401-65-stables-circuit-doncaster-vic-3108-2018270828,1288000,is-sold,Sold by private treaty 01 Mar 2023,20230301,401/65 Stables Circuit,DONCASTER,VIC,3108,-37.786972,145.114487,3,2,2,ApartmentUnitFlat,Apartment / Unit / Flat,False,0,m2,False
2017922502,listing,/701-9-11-williamsons-road-doncaster-vic-3108-2017922502,Price Withheld,is-sold,Sold by private treaty 03 Mar 2023,20230303,701/9-11 Williamsons Road,DONCASTER,VIC,3108,-37.7859039,145.124329,2,2,1,ApartmentUnitFlat,Apartment / Unit / Flat,False,0,m2,False
2018353993,listing,/401-7-berkeley-street-doncaster-vic-3108-2018353993,615000,is-sold,Sold by private treaty 03 Mar 2023,20230303,401/7 Berkeley Street,DONCASTER,VIC,3108,-37.78601,145.128769,2,2,1,ApartmentUnitFlat,Apartment / Unit / Flat,False,0,m2,False
2018340293,listing,/2-2-mcleod-street-doncaster-vic-3108-2018340293,930000,is-sold,Sold at auction 04 Mar 2023,20230304,2/2 McLeod Street,DONCASTER,VIC,3108,-37.7913246,145.106873,3,2,2,Townhouse,Townhouse,False,241,m2,False
2018343938,listing,/3-kersey-place-doncaster-vic-3108-2018343938,1983000,is-sold,Sold at auction 04 Mar 2023,20230304,3 Kersey Place,DONCASTER,VIC,3108,-37.7695274,145.134247,4,3,2,House,House,False,781,m2,False
