id,listingType,url,price,tagClassName,tagText,date,street,suburb,state,postcode,lat,lng,beds,baths,parking,propertyType,propertyTypeFormatted,isRural,landSize,landUnit,isRetirement
2018069987,listing,/22-316-manningham-road-doncaster-vic-3108-2018069987,530000,is-sold,Sold by private treaty 01 Mar 2023,20230301,22/316 Manningham Road,DONCASTER,VIC,3108,-37.7749367,145.115433,2,2,2,ApartmentUnitFlat,Apartment / Unit / Flat,False,0,m2,False
2018270828,listing,/401-65-stables-circuit-doncaster-vic-3108-2018270828,1288000,is-sold,Sold by private treaty 01 Mar 2023,20230301,401/65 Stables Circuit,DONCASTER,VIC,3108,-37.786972,145.114487,3,3,3,ApartmentUnitFlat,Apartment / Unit / Flat,False,0,m2,False
2017922502,listing,/701-9-11-williamsons-road-doncaster-vic-3108-2017922502,,is-sold,Sold by private treaty 03 Mar 2023,20230303,701/9-11 Williamsons Road,DONCASTER,VIC,3108,-37.7859039,145.124329,2,2,2,ApartmentUnitFlat,Apartment / Unit / Flat,False,0,m2,False
2018353993,listing,/401-7-berkeley-street-doncaster-vic-3108-2018353993,615000,is-sold,Sold by private treaty 03 Mar 2023,20230303,401/7 Berkeley Street,DONCASTER,VIC,3108,-37.78601,145.128769,2,2,2,ApartmentUnitFlat,Apartment / Unit / Flat,False,0,m2,False
2018340293,listing,/2-2-mcleod-street-doncaster-vic-3108-2018340293,930000,is-sold,Sold at auction 04 Mar 2023,20230304,2/2 McLeod Street,DONCASTER,VIC,3108,-37.7913246,145.106873,3,3,3,Townhouse,Townhouse,False,241,m2,False
2018343938,listing,/3-kersey-place-doncaster-vic-3108-2018343938,1983000,is-sold,Sold at auction 04 Mar 2023,20230304,3 Kersey Place,DONCASTER,VIC,3108,-37.7695274,145.134247,4,4,4,House,House,False,781,m2,False
2016656378,listing,/519-101-105-tram-road-doncaster-vic-3108-2016656378,,is-sold,Sold by private treaty 20 Feb 2023,20230220,519/101-105 Tram Road,DONCASTER,VIC,3108,-37.7883263,145.12468,2,2,1,ApartmentUnitFlat,Apartment / Unit / Flat,False,0,m2,False
2018075197,listing,/9-claret-crescent-doncaster-vic-3108-2018075197,,is-sold,Sold by private treaty 01 Mar 2023,20230301,9 Claret Crescent,DONCASTER,VIC,3108,-37.7865829,145.121033,,,,VacantLand,Vacant land,False,406,m2,False
2018077484,listing,/215-65-stables-circuit-doncaster-vic-3108-2018077484,,is-sold,Sold by private treaty 16 Feb 2023,20230216,215/65 Stables Circuit,DONCASTER,VIC,3108,-37.78677,145.115524,3,2,2,ApartmentUnitFlat,Apartment / Unit / Flat,False,0,m2,False
2018171682,listing,/16-dunoon-street-doncaster-vic-3108-2018171682,1340000,is-sold,Sold by private treaty 15 Feb 2023,20230215,16 Dunoon Street,DONCASTER,VIC,3108,-37.79409,145.140411,3,1,2,House,House,False,746,m2,False
2018222645,listing,/22-dion-street-doncaster-vic-3108-2018222645,,is-sold,Sold by private treaty 11 Feb 2023,20230211,22 Dion Street,DONCASTER,VIC,3108,-37.7749367,145.113129,4,3,2,House,House,False,0,m2,False
2018223463,listing,/5-walker-street-doncaster-vic-3108-2018223463,1300000,is-sold,Sold by private treaty 23 Feb 2023,20230223,5 Walker Street,DONCASTER,VIC,3108,-37.7921867,145.1286,3,1,2,House,House,False,743,m2,False
2018265146,listing,/g09-832-doncaster-road-doncaster-vic-3108-2018265146,382000,is-sold,Sold by private treaty 21 Feb 2023,20230221,G09/832 Doncaster Road,DONCASTER,VIC,3108,-37.7871666,145.142868,1,1,1,ApartmentUnitFlat,Apartment / Unit / Flat,False,0,m2,False
2018302029,listing,/5-robyn-street-doncaster-vic-3108-2018302029,1936000,is-sold,Sold at auction 18 Feb 2023,20230218,5 Robyn Street,DONCASTER,VIC,3108,-37.78331,145.131439,4,3,2,House,House,False,682,m2,False
2018303425,listing,/16-hampshire-road-doncaster-vic-3108-2018303425,1501000,is-sold,Sold at auction 11 Feb 2023,20230211,16 Hampshire Road,DONCASTER,VIC,3108,-37.7946777,145.138031,3,2,1,House,House,False,654,m2,False
2018306693,listing,/18-wilsons-road-doncaster-vic-3108-2018306693,1890000,is-sold,Sold at auction 18 Feb 2023,20230218,18 Wilsons Road,DONCASTER,VIC,3108,-37.7925034,145.119217,4,3,2,Townhouse,Townhouse,False,385,m2,False
2018314125,listing,/22-dion-street-doncaster-vic-3108-2018314125,,is-sold,Sold by private treaty 17 Feb 2023,20230217,22 Dion Street,DONCASTER,VIC,3108,-37.7749367,145.113129,4,3,2,House,House,False,0,m2,False
2018318254,listing,/64-whittens-lane-doncaster-vic-3108-2018318254,1380000,is-sold,Sold at auction 25 Feb 2023,20230225,64 Whittens Lane,DONCASTER,VIC,3108,-37.7918549,145.131531,4,2,4,House,House,False,846,m2,False
2018327680,listing,/14-somerville-street-doncaster-vic-3108-2018327680,1384500,is-sold,Sold at auction 25 Feb 2023,20230225,14 Somerville Street,DONCASTER,VIC,3108,-37.77836,145.115234,3,1,3,House,House,False,663,m2,False
2018347037,listing,/16-97-whittens-lane-doncaster-vic-3108-2018347037,660000,is-sold,Sold by private treaty 21 Feb 2023,20230221,16/97 Whittens Lane,DONCASTER,VIC,3108,-37.7887421,145.132126,2,2,1,ApartmentUnitFlat,Apartment / Unit / Flat,False,0,m2,False
2016359652,listing,/309-19-21-frederick-street-doncaster-vic-3108-2016359652,727000,is-sold,Sold by private treaty 21 Jan 2023,20230121,309/19-21 Frederick Street,DONCASTER,VIC,3108,-37.7894936,145.126266,3,2,2,ApartmentUnitFlat,Apartment / Unit / Flat,False,0,m2,False
2017863058,listing,/901-600-doncaster-road-doncaster-vic-3108-2017863058,580000,is-sold,Sold by private treaty 07 Feb 2023,20230207,901/600 Doncaster Road,DONCASTER,VIC,3108,-37.7879524,145.124008,2,2,2,ApartmentUnitFlat,Apartment / Unit / Flat,False,0,m2,False
2017923143,listing,/610-5-elgar-court-doncaster-vic-3108-2017923143,515000,is-sold,Sold by private treaty 02 Feb 2023,20230202,610/5 Elgar Court,DONCASTER,VIC,3108,-37.7887344,145.124268,2,1,1,ApartmentUnitFlat,Apartment / Unit / Flat,False,0,m2,False
2018034467,listing,/46-thiele-street-doncaster-vic-3108-2018034467,1125000,is-sold,Sold by private treaty 07 Jan 2023,20230107,46 Thiele Street,DONCASTER,VIC,3108,-37.7823067,145.136444,3,2,2,House,House,False,660,m2,False
2018060150,listing,/207-1-grosvenor-street-doncaster-vic-3108-2018060150,490000,is-sold,Sold by private treaty 03 Jan 2023,20230103,207/1 Grosvenor Street,DONCASTER,VIC,3108,-37.7832146,145.127975,2,2,1,ApartmentUnitFlat,Apartment / Unit / Flat,False,0,m2,False
2018083311,listing,/g4-20-hepburn-road-doncaster-vic-3108-2018083311,,is-sold,Sold by private treaty 09 Jan 2023,20230109,G4/20 Hepburn Road,DONCASTER,VIC,3108,-37.78826,145.1292,3,2,2,ApartmentUnitFlat,Apartment / Unit / Flat,False,0,m2,False
2018148033,listing,/10-545-549-doncaster-road-doncaster-vic-3108-2018148033,422881,is-sold,Sold by private treaty 27 Jan 2023,20230127,10/545-549 Doncaster Road,DONCASTER,VIC,3108,-37.78786,145.118835,2,1,2,ApartmentUnitFlat,Apartment / Unit / Flat,False,0,m2,False
2018156822,listing,/109-5-elgar-court-doncaster-vic-3108-2018156822,,is-sold,Sold by private treaty 09 Feb 2023,20230209,109/5 Elgar Court,DONCASTER,VIC,3108,-37.7887344,145.124268,2,1,1,ApartmentUnitFlat,Apartment / Unit / Flat,False,0,m2,False
2018174033,listing,/4-glenda-street-doncaster-vic-3108-2018174033,3430000,is-sold,Sold by private treaty 29 Jan 2023,20230129,4 Glenda Street,DONCASTER,VIC,3108,-37.78295,145.103943,5,3,2,House,House,False,0,m2,False
2018215228,listing,/1-29-madeleine-street-doncaster-vic-3108-2018215228,,is-sold,Sold by private treaty 20 Jan 2023,20230120,1/29 Madeleine Street,DONCASTER,VIC,3108,-37.775856,145.1086,2,1,1,ApartmentUnitFlat,Apartment / Unit / Flat,False,0,m2,False
2018230820,listing,/18-sharon-street-doncaster-vic-3108-2018230820,1380000,is-sold,Sold by private treaty 31 Jan 2023,20230131,18 Sharon Street,DONCASTER,VIC,3108,-37.78441,145.141357,3,2,2,House,House,False,655,m2,False
2018242287,listing,/213-600-doncaster-road-doncaster-vic-3108-2018242287,,is-sold,Sold by private treaty 01 Feb 2023,20230201,213/600 Doncaster Road,DONCASTER,VIC,3108,-37.7879524,145.124008,1,1,1,ApartmentUnitFlat,Apartment / Unit / Flat,False,0,m2,False
2018252971,listing,/810-642-doncaster-road-doncaster-vic-3108-2018252971,629000,is-sold,Sold by private treaty 06 Jan 2023,20230106,810/642 Doncaster Road,DONCASTER,VIC,3108,-37.78772,145.127975,2,2,1,ApartmentUnitFlat,Apartment / Unit / Flat,False,0,m2,False
2018265149,listing,/208-65-stables-circuit-doncaster-vic-3108-2018265149,,is-sold,Sold by private treaty 03 Feb 2023,20230203,208/65 Stables Circuit,DONCASTER,VIC,3108,-37.78677,145.115524,2,2,1,ApartmentUnitFlat,Apartment / Unit / Flat,False,0,m2,False
2018268332,listing,/405-642-doncaster-road-doncaster-vic-3108-2018268332,610000,is-sold,Sold by private treaty 05 Jan 2023,20230105,405/642 Doncaster Road,DONCASTER,VIC,3108,-37.78772,145.127975,2,2,1,ApartmentUnitFlat,Apartment / Unit / Flat,False,0,m2,False
2018270829,listing,/4-sentinel-way-doncaster-vic-3108-2018270829,1065000,is-sold,Sold at auction 04 Feb 2023,20230204,4 Sentinel Way,DONCASTER,VIC,3108,-37.7869,145.105988,3,3,2,House,House,False,503,m2,False
2018270842,listing,/30a-winters-way-doncaster-vic-3108-2018270842,1800000,is-sold,Sold at auction 04 Feb 2023,20230204,30a Winters Way,DONCASTER,VIC,3108,-37.77906,145.109634,4,3,2,Townhouse,Townhouse,False,392,m2,False
2018270845,listing,/21-winston-drive-doncaster-vic-3108-2018270845,2105000,is-sold,Sold at auction 20 Jan 2023,20230120,21 Winston Drive,DONCASTER,VIC,3108,-37.77876,145.126617,4,2,2,House,House,False,654,m2,False
2018281235,listing,/31-wetherby-road-doncaster-vic-3108-2018281235,1234500,is-sold,Sold at auction 01 Feb 2023,20230201,31 Wetherby Road,DONCASTER,VIC,3108,-37.7898064,145.142929,3,3,2,House,House,False,333,m2,False
2018289310,listing,/302-632-doncaster-road-doncaster-vic-3108-2018289310,480000,is-sold,Sold at auction 09 Feb 2023,20230209,302/632 Doncaster Road,DONCASTER,VIC,3108,-37.78777,145.126511,2,2,2,ApartmentUnitFlat,Apartment / Unit / Flat,False,0,m2,False
2018090317,listing,/7-3-sovereign-point-court-doncaster-vic-3108-2018090317,609000,is-sold,Sold by private treaty 16 Dec 2022,20221216,7/3 Sovereign Point Court,DONCASTER,VIC,3108,-37.78367,145.123016,2,1,1,ApartmentUnitFlat,Apartment / Unit / Flat,False,0,m2,False
2018111874,listing,/9-750-doncaster-road-doncaster-vic-3108-2018111874,,is-sold,Sold by private treaty 14 Dec 2022,20221214,9/750 Doncaster Road,DONCASTER,VIC,3108,-37.7870064,145.136383,1,1,1,ApartmentUnitFlat,Apartment / Unit / Flat,False,0,m2,True
2018116735,listing,/108-ayr-street-doncaster-vic-3108-2018116735,1190000,is-sold,Sold at auction 26 Dec 2022,20221226,108 Ayr Street,DONCASTER,VIC,3108,-37.77831,145.103516,4,2,2,House,House,False,749,m2,False
2018130665,listing,/10-bordeaux-street-doncaster-vic-3108-2018130665,,is-sold,Sold by private treaty 14 Dec 2022,20221214,10 Bordeaux Street,DONCASTER,VIC,3108,-37.7822571,145.122345,7,3,4,House,House,False,1311,m2,False
2018151262,listing,/25-wetherby-road-doncaster-vic-3108-2018151262,1150000,is-sold,Sold by private treaty 23 Dec 2022,20221223,25 Wetherby Road,DONCASTER,VIC,3108,-37.78927,145.142975,3,1,2,House,House,False,652,m2,False
2018164863,listing,/10-merrigum-court-doncaster-vic-3108-2018164863,1370000,is-sold,Sold by private treaty 26 Dec 2022,20221226,10 Merrigum Court,DONCASTER,VIC,3108,-37.7818,145.141846,4,2,3,House,House,False,732,m2,False
2018190405,listing,/36-members-drive-doncaster-vic-3108-2018190405,1638000,is-sold,Sold by private treaty 13 Dec 2022,20221213,36 Members Drive,DONCASTER,VIC,3108,-37.7858658,145.110931,4,3,2,House,House,False,0,m2,False
2018196967,listing,/304-5-elgar-court-doncaster-vic-3108-2018196967,550000,is-sold,Sold by private treaty 21 Dec 2022,20221221,304/5 Elgar Court,DONCASTER,VIC,3108,-37.7887344,145.124268,2,2,1,ApartmentUnitFlat,Apartment / Unit / Flat,False,0,m2,False
2018200028,listing,/2-7-sharon-street-doncaster-vic-3108-2018200028,1140000,is-sold,Sold by private treaty 27 Dec 2022,20221227,2/7 Sharon Street,DONCASTER,VIC,3108,-37.7835541,145.139389,3,2,2,Townhouse,Townhouse,False,0,m2,False
2018201656,listing,/6-turana-street-doncaster-vic-3108-2018201656,1360000,is-sold,Sold by private treaty 23 Dec 2022,20221223,6 Turana Street,DONCASTER,VIC,3108,-37.7806969,145.132126,3,2,2,House,House,False,647,m2,False
2018201698,listing,/2-747-749-elgar-road-doncaster-vic-3108-2018201698,800000,is-sold,Sold by private treaty 23 Dec 2022,20221223,2/747-749 Elgar Road,DONCASTER,VIC,3108,-37.7929649,145.120728,3,1,2,ApartmentUnitFlat,Apartment / Unit / Flat,False,362,m2,False
2018210682,listing,/15-morris-street-doncaster-vic-3108-2018210682,1315000,is-sold,Sold at auction 17 Dec 2022,20221217,15 Morris Street,DONCASTER,VIC,3108,-37.7927,145.118,3,1,2,House,House,False,777,m2,False
2018213842,listing,/3-722-elgar-road-doncaster-vic-3108-2018213842,1110000,is-sold,Sold at auction 17 Dec 2022,20221217,3/722 Elgar Road,DONCASTER,VIC,3108,-37.7943764,145.1208,4,2,2,House,House,False,338,m2,False
2018215384,listing,/38-high-street-doncaster-vic-3108-2018215384,1610000,is-sold,Sold by private treaty 23 Dec 2022,20221223,38 High Street,DONCASTER,VIC,3108,-37.7850342,145.107452,5,3,2,House,House,False,678,m2,False
2018215422,listing,/10-maralee-place-doncaster-vic-3108-2018215422,1615000,is-sold,Sold by private treaty 26 Dec 2022,20221226,10 Maralee Place,DONCASTER,VIC,3108,-37.77756,145.116074,4,3,3,House,House,False,0,m2,False
2018220587,listing,/807-101-tram-road-doncaster-vic-3108-2018220587,465000,is-sold,Sold by private treaty 21 Dec 2022,20221221,807/101 Tram Road,DONCASTER,VIC,3108,-37.78801,145.1245,2,2,1,ApartmentUnitFlat,Apartment / Unit / Flat,False,0,m2,False
2018221055,listing,/2-vivian-court-doncaster-vic-3108-2018221055,1250000,is-sold,Sold at auction 19 Dec 2022,20221219,2 Vivian Court,DONCASTER,VIC,3108,-37.7921562,145.112686,3,2,1,House,House,False,773,m2,False
2018225598,listing,/759-doncaster-road-doncaster-vic-3108-2018225598,1850320,is-sold,Sold by private treaty 23 Dec 2022,20221223,759 Doncaster Road,DONCASTER,VIC,3108,-37.78654,145.1343,5,4,4,House,House,False,697,m2,False
2018239392,listing,/3-23-firth-street-doncaster-vic-3108-2018239392,422000,is-sold,Sold by private treaty 20 Dec 2022,20221220,3/23 Firth Street,DONCASTER,VIC,3108,-37.7866478,145.1209,2,1,2,ApartmentUnitFlat,Apartment / Unit / Flat,False,0,m2,False
2018285796,listing,/38-high-street-doncaster-vic-3108-2018285796,,is-sold,Sold by private treaty 23 Dec 2022,20221223,38 High Street,DONCASTER,VIC,3108,-37.7850342,145.107452,5,3,2,House,House,False,678,m2,False
2017731319,listing,/3-723-elgar-road-doncaster-vic-3108-2017731319,,is-sold,Sold at auction 03 Dec 2022,20221203,3/723 Elgar Road,DONCASTER,VIC,3108,-37.7948723,145.11911,3,2,2,Townhouse,Townhouse,False,0,m2,False
2017851766,listing,/unit-504-88-tram-rd-doncaster-vic-3108-2017851766,485000,is-sold,Sold by private treaty 09 Dec 2022,20221209,Unit 504/88 Tram Rd,DONCASTER,VIC,3108,-37.7893257,145.125381,2,2,1,ApartmentUnitFlat,Apartment / Unit / Flat,False,0,m2,False
2017888758,listing,/1-23-firth-street-doncaster-vic-3108-2017888758,425300,is-sold,Sold by private treaty 13 Dec 2022,20221213,1/23 Firth Street,DONCASTER,VIC,3108,-37.7866478,145.1209,2,1,1,ApartmentUnitFlat,Apartment / Unit / Flat,False,0,m2,False
2017901631,listing,/18-33-queens-avenue-doncaster-vic-3108-2017901631,565000,is-sold,Sold by private treaty 05 Dec 2022,20221205,18/33 Queens Avenue,DONCASTER,VIC,3108,-37.7874832,145.135452,2,2,1,ApartmentUnitFlat,Apartment / Unit / Flat,False,0,m2,False
2018042338,listing,/403-18-berkeley-street-doncaster-vic-3108-2018042338,515000,is-sold,Sold by private treaty 03 Dec 2022,20221203,403/18 Berkeley Street,DONCASTER,VIC,3108,-37.78551,145.127975,2,2,1,ApartmentUnitFlat,Apartment / Unit / Flat,False,0,m2,False
2018102345,listing,/107-8-berkeley-street-doncaster-vic-3108-2018102345,550000,is-sold,Sold by private treaty 05 Dec 2022,20221205,107/8 Berkeley Street,DONCASTER,VIC,3108,-37.78564,145.128555,2,2,1,ApartmentUnitFlat,Apartment / Unit / Flat,False,0,m2,False
2018116854,listing,/8a-wilsons-road-doncaster-vic-3108-2018116854,2200000,is-sold,Sold at auction 04 Dec 2022,20221204,8A Wilsons Road,DONCASTER,VIC,3108,-37.7925453,145.120453,6,5,2,House,House,False,0,m2,False
2018130506,listing,/506-642-doncaster-road-doncaster-vic-3108-2018130506,795000,is-sold,Sold by private treaty 05 Dec 2022,20221205,506/642 Doncaster Road,DONCASTER,VIC,3108,-37.78772,145.127975,3,2,2,ApartmentUnitFlat,Apartment / Unit / Flat,False,0,m2,False
2018165005,listing,/26-winbrook-court-doncaster-vic-3108-2018165005,1710000,is-sold,Sold by private treaty 30 Nov 2022,20221130,26 Winbrook Court,DONCASTER,VIC,3108,-37.7811737,145.126617,5,3,2,House,House,False,711,m2,False
2018178663,listing,/1b-katrina-street-doncaster-vic-3108-2018178663,785000,is-sold,Sold at auction 03 Dec 2022,20221203,1B Katrina Street,DONCASTER,VIC,3108,-37.7945137,145.1194,3,2,2,Townhouse,Townhouse,False,175,m2,False
2018179294,listing,/g8-83-tram-road-doncaster-vic-3108-2018179294,421000,is-sold,Sold by private treaty 13 Dec 2022,20221213,G8/83 Tram Road,DONCASTER,VIC,3108,-37.7899437,145.1251,2,2,1,ApartmentUnitFlat,Apartment / Unit / Flat,False,0,m2,False
2018184165,listing,/1-20-madeleine-street-doncaster-vic-3108-2018184165,881000,is-sold,Sold at auction 03 Dec 2022,20221203,1/20 Madeleine Street,DONCASTER,VIC,3108,-37.7753067,145.109116,4,2,2,ApartmentUnitFlat,Apartment / Unit / Flat,False,475,m2,False
2018188874,listing,/513-1-grosvenor-street-doncaster-vic-3108-2018188874,495000,is-sold,Sold by private treaty 30 Nov 2022,20221130,513/1 Grosvenor Street,DONCASTER,VIC,3108,-37.7832146,145.127975,2,1,1,ApartmentUnitFlat,Apartment / Unit / Flat,False,0,m2,False
2018197829,listing,/55-stanton-street-doncaster-vic-3108-2018197829,1045500,is-sold,Sold at auction 10 Dec 2022,20221210,55 Stanton Street,DONCASTER,VIC,3108,-37.79363,145.110443,4,2,2,House,House,False,648,m2,False
2018203433,listing,/6-coolabah-street-doncaster-vic-3108-2018203433,837000,is-sold,Sold at auction 10 Dec 2022,20221210,6 Coolabah Street,DONCASTER,VIC,3108,-37.7924042,145.1417,3,1,1,ApartmentUnitFlat,Apartment / Unit / Flat,False,0,m2,False
2018204630,listing,/37-corella-street-doncaster-vic-3108-2018204630,1520000,is-sold,Sold by private treaty 03 Dec 2022,20221203,37 Corella Street,DONCASTER,VIC,3108,-37.78351,145.1345,3,2,2,House,House,False,659,m2,False
2018204708,listing,/23-ada-street-doncaster-vic-3108-2018204708,1310000,is-sold,Sold by private treaty 12 Dec 2022,20221212,23 Ada Street,DONCASTER,VIC,3108,-37.79091,145.120148,4,3,1,House,House,False,660,m2,False
2018206611,listing,/53-caringal-avenue-doncaster-vic-3108-2018206611,,is-sold,Sold by private treaty 02 Dec 2022,20221202,53 Caringal Avenue,DONCASTER,VIC,3108,-37.7906075,145.115585,6,3,1,House,House,False,782,m2,False
2018221902,listing,/5-phar-lap-drive-doncaster-vic-3108-2018221902,918000,is-sold,Sold by private treaty 05 Dec 2022,20221205,5 Phar Lap Drive,DONCASTER,VIC,3108,-37.7868042,145.116211,2,2,2,Townhouse,Townhouse,False,0,m2,False
2018231378,listing,/14-verdant-crescent-doncaster-vic-3108-2018231378,1530000,is-sold,Sold by private treaty 06 Dec 2022,20221206,14 Verdant Crescent,DONCASTER,VIC,3108,-37.78438,145.114563,4,2,2,Townhouse,Townhouse,False,0,m2,False
2017559645,listing,/213-8-berkeley-street-doncaster-vic-3108-2017559645,539000,is-sold,Sold by private treaty 18 Nov 2022,20221118,213/8 Berkeley Street,DONCASTER,VIC,3108,-37.78564,145.128555,2,2,1,ApartmentUnitFlat,Apartment / Unit / Flat,False,0,m2,False
2017787697,listing,/113-6-thiele-street-doncaster-vic-3108-2017787697,470000,is-sold,Sold at auction 09 Nov 2022,20221109,113/6 Thiele Street,DONCASTER,VIC,3108,-37.78599,145.135529,2,1,1,ApartmentUnitFlat,Apartment / Unit / Flat,False,0,m2,False
2017849852,listing,/9-450-doncaster-road-doncaster-vic-3108-2017849852,680000,is-sold,Sold by private treaty 18 Nov 2022,20221118,9/450 Doncaster Road,DONCASTER,VIC,3108,-37.788,145.109955,2,1,1,Townhouse,Townhouse,False,0,m2,False
2017914535,listing,/45a-victoria-street-doncaster-vic-3108-2017914535,2265000,is-sold,Sold at auction 12 Nov 2022,20221112,45A Victoria Street,DONCASTER,VIC,3108,-37.7828827,145.144028,5,5,2,House,House,False,452,m2,False
2018058844,listing,/101-88-tram-road-doncaster-vic-3108-2018058844,430000,is-sold,Sold by private treaty 11 Nov 2022,20221111,101/88 Tram Road,DONCASTER,VIC,3108,-37.7893257,145.125381,2,2,1,ApartmentUnitFlat,Apartment / Unit / Flat,False,0,m2,False
2018081316,listing,/6-6-hill-court-doncaster-vic-3108-2018081316,,is-sold,Sold by private treaty 24 Nov 2022,20221124,6/6 Hill Court,DONCASTER,VIC,3108,-37.7795563,145.1269,3,3,2,Townhouse,Townhouse,False,0,m2,False
2018128218,listing,/7-alpine-avenue-doncaster-vic-3108-2018128218,,is-sold,Sold at auction 12 Nov 2022,20221112,7 Alpine Avenue,DONCASTER,VIC,3108,-37.7837677,145.117081,4,2,2,House,House,False,0,m2,False
2018130501,listing,/722-642-doncaster-road-doncaster-vic-3108-2018130501,595000,is-sold,Sold by private treaty 15 Nov 2022,20221115,722/642 Doncaster Road,DONCASTER,VIC,3108,-37.78772,145.127975,2,2,1,ApartmentUnitFlat,Apartment / Unit / Flat,False,0,m2,False
2018138570,listing,/219-632-doncaster-road-doncaster-vic-3108-2018138570,515000,is-sold,Sold by private treaty 14 Nov 2022,20221114,219/632 Doncaster Road,DONCASTER,VIC,3108,-37.78777,145.126511,2,2,2,ApartmentUnitFlat,Apartment / Unit / Flat,False,0,m2,False
2018140481,listing,/7-tandara-avenue-doncaster-vic-3108-2018140481,,is-sold,Sold by private treaty 17 Nov 2022,20221117,7 Tandara Avenue,DONCASTER,VIC,3108,-37.79002,145.138214,3,1,4,House,House,False,764,m2,False
2018142119,listing,/2-pagoda-court-doncaster-vic-3108-2018142119,1480000,is-sold,Sold by private treaty 22 Nov 2022,20221122,2 Pagoda Court,DONCASTER,VIC,3108,-37.7771454,145.12648,4,2,2,House,House,False,953,m2,False
2018147527,listing,/18-firth-street-doncaster-vic-3108-2018147527,2660000,is-sold,Sold at auction 26 Nov 2022,20221126,18 Firth Street,DONCASTER,VIC,3108,-37.7869148,145.121964,8,4,8,House,House,False,1009,m2,False
2018154433,listing,/5-cellar-way-doncaster-vic-3108-2018154433,1460000,is-sold,Sold at auction 19 Nov 2022,20221119,5 Cellar Way,DONCASTER,VIC,3108,-37.7865829,145.121033,4,2,2,Townhouse,Townhouse,False,208,m2,False
2018154752,listing,/341-george-street-doncaster-vic-3108-2018154752,1260000,is-sold,Sold at auction 26 Nov 2022,20221126,341 George Street,DONCASTER,VIC,3108,-37.7774963,145.12558,4,2,3,House,House,False,753,m2,False
2018157576,listing,/8-gifford-road-doncaster-vic-3108-2018157576,1401500,is-sold,Sold at auction 19 Nov 2022,20221119,8 Gifford Road,DONCASTER,VIC,3108,-37.79002,145.130188,3,1,2,House,House,False,731,m2,False
2018161089,listing,/105-642-doncaster-road-doncaster-vic-3108-2018161089,589000,is-sold,Sold by private treaty 16 Nov 2022,20221116,105/642 Doncaster Road,DONCASTER,VIC,3108,-37.78772,145.127975,2,2,1,ApartmentUnitFlat,Apartment / Unit / Flat,False,0,m2,False
2018161389,listing,/412-9-williamsons-road-doncaster-vic-3108-2018161389,1350000,is-sold,Sold by private treaty 22 Nov 2022,20221122,412/9 Williamsons Road,DONCASTER,VIC,3108,-37.7858238,145.124084,3,2,3,ApartmentUnitFlat,Apartment / Unit / Flat,False,0,m2,False
2018174560,listing,/131-ayr-street-doncaster-vic-3108-2018174560,1185000,is-sold,Sold prior to auction 17 Nov 2022,20221117,131 Ayr Street,DONCASTER,VIC,3108,-37.77549,145.104523,3,1,2,House,House,False,724,m2,False
2018184623,listing,/6-160-williamsons-road-doncaster-vic-3108-2018184623,385000,is-sold,Sold by private treaty 28 Nov 2022,20221128,6/160 Williamsons Road,DONCASTER,VIC,3108,-37.7744,145.127426,1,1,1,ApartmentUnitFlat,Apartment / Unit / Flat,False,0,m2,False
2018189904,listing,/8-stables-circuit-doncaster-vic-3108-2018189904,2250000,is-sold,Sold by private treaty 17 Nov 2022,20221117,8 Stables Circuit,DONCASTER,VIC,3108,-37.7861,145.11618,5,3,2,House,House,False,405,m2,False
2017778936,listing,/119-65-stables-circuit-doncaster-vic-3108-2017778936,600000,is-sold,Sold by private treaty 09 Nov 2022,20221109,119/65 Stables Circuit,DONCASTER,VIC,3108,-37.78677,145.115524,2,2,1,ApartmentUnitFlat,Apartment / Unit / Flat,False,0,m2,False
2017855020,listing,/22-philip-avenue-doncaster-vic-3108-2017855020,1530000,is-sold,Sold by private treaty 07 Nov 2022,20221107,22 Philip Avenue,DONCASTER,VIC,3108,-37.7745323,145.111053,3,1,2,House,House,False,857,m2,False
2017903482,listing,/111-ayr-street-doncaster-vic-3108-2017903482,1240000,is-sold,Sold by private treaty 31 Oct 2022,20221031,111 Ayr Street,DONCASTER,VIC,3108,-37.7773056,145.104324,4,2,2,House,House,False,655,m2,False
2017952126,listing,/4-zander-court-doncaster-vic-3108-2017952126,1088000,is-sold,Sold at auction 05 Nov 2022,20221105,4 Zander Court,DONCASTER,VIC,3108,-37.78604,145.136261,3,1,1,House,House,False,757,m2,False
2017954355,listing,/3-69-tram-road-doncaster-vic-3108-2017954355,,is-sold,Sold by private treaty 31 Oct 2022,20221031,3/69 Tram Road,DONCASTER,VIC,3108,-37.790905,145.125244,2,2,1,Townhouse,Townhouse,False,0,m2,False
2017993878,listing,/161-high-street-doncaster-vic-3108-2017993878,1055000,is-sold,Sold by private treaty 31 Oct 2022,20221031,161 High Street,DONCASTER,VIC,3108,-37.77649,145.113373,3,1,2,House,House,False,733,m2,False
2018050886,listing,/19-heritage-boulevard-doncaster-vic-3108-2018050886,2295000,is-sold,Sold at auction 05 Nov 2022,20221105,19 Heritage Boulevard,DONCASTER,VIC,3108,-37.78435,145.115768,5,2,2,House,House,False,420,m2,False
2018051024,listing,/221-632-doncaster-road-doncaster-vic-3108-2018051024,560000,is-sold,Sold by private treaty 01 Nov 2022,20221101,221/632 Doncaster Road,DONCASTER,VIC,3108,-37.78777,145.126511,2,2,2,ApartmentUnitFlat,Apartment / Unit / Flat,False,0,m2,False
2018083265,listing,/907-20-hepburn-road-doncaster-vic-3108-2018083265,443000,is-sold,Sold by private treaty 08 Nov 2022,20221108,907/20 Hepburn Road,DONCASTER,VIC,3108,-37.78826,145.1292,2,1,1,ApartmentUnitFlat,Apartment / Unit / Flat,False,0,m2,False
2018104256,listing,/24-hillingdon-crescent-doncaster-vic-3108-2018104256,2150300,is-sold,Sold by private treaty 29 Oct 2022,20221029,24 Hillingdon Crescent,DONCASTER,VIC,3108,-37.7839355,145.104584,4,4,2,House,House,False,774,m2,False
2018107355,listing,/10-waldau-court-doncaster-vic-3108-2018107355,3080000,is-sold,Sold by private treaty 04 Nov 2022,20221104,10 Waldau Court,DONCASTER,VIC,3108,-37.7791939,145.1428,3,1,4,House,House,False,4048,m2,False
2018109499,listing,/29-botanic-drive-doncaster-vic-3108-2018109499,1838888,is-sold,Sold at auction 04 Nov 2022,20221104,29 Botanic Drive,DONCASTER,VIC,3108,-37.7781525,145.135757,4,2,2,House,House,False,654,m2,False
2018112684,listing,/24-33-queens-avenue-doncaster-vic-3108-2018112684,620000,is-sold,Sold by private treaty 06 Nov 2022,20221106,24/33 Queens Avenue,DONCASTER,VIC,3108,-37.7874832,145.135452,2,2,1,ApartmentUnitFlat,Apartment / Unit / Flat,False,0,m2,False
2018124781,listing,/g09-8-berkeley-street-doncaster-vic-3108-2018124781,392500,is-sold,Sold by private treaty 30 Oct 2022,20221030,G09/8 Berkeley Street,DONCASTER,VIC,3108,-37.78564,145.128555,1,1,1,ApartmentUnitFlat,Apartment / Unit / Flat,False,0,m2,False
2018124791,listing,/3-15-robyn-street-doncaster-vic-3108-2018124791,1206000,is-sold,Sold at auction 05 Nov 2022,20221105,3/15 Robyn Street,DONCASTER,VIC,3108,-37.7838821,145.131332,4,3,2,Townhouse,Townhouse,False,0,m2,False
2018128798,listing,/107-65-stables-circuit-doncaster-vic-3108-2018128798,410000,is-sold,Sold by private treaty 08 Nov 2022,20221108,107/65 Stables Circuit,DONCASTER,VIC,3108,-37.78677,145.115524,1,1,1,ApartmentUnitFlat,Apartment / Unit / Flat,False,0,m2,False
2018129951,listing,/14-5-curlew-court-doncaster-vic-3108-2018129951,575000,is-sold,Sold by private treaty 02 Nov 2022,20221102,14/5 Curlew Court,DONCASTER,VIC,3108,-37.7858162,145.134415,2,2,2,ApartmentUnitFlat,Apartment / Unit / Flat,False,0,m2,False
2018145318,listing,/32-wetherby-road-doncaster-vic-3108-2018145318,967500,is-sold,Sold by private treaty 04 Nov 2022,20221104,32 Wetherby Road,DONCASTER,VIC,3108,-37.7895927,145.143555,3,2,1,House,House,False,0,m2,False
2018146804,listing,/15-claret-crescent-doncaster-vic-3108-2018146804,,is-sold,Sold by private treaty 04 Nov 2022,20221104,15 Claret crescent,DONCASTER,VIC,3108,-37.7865829,145.121033,,,,VacantLand,Vacant land,False,0,m2,False
2018188059,listing,/1-740-elgar-road-doncaster-vic-3108-2018188059,1070000,is-sold,Sold by private treaty 01 Nov 2022,20221101,1/740 Elgar Road,DONCASTER,VIC,3108,-37.7935524,145.121262,4,2,2,Townhouse,Townhouse,False,0,m2,False
2014968607,listing,/2-24-studley-street-doncaster-vic-3108-2014968607,1086000,is-sold,Sold by private treaty 27 Oct 2022,20221027,2/24 Studley Street,DONCASTER,VIC,3108,-37.7813873,145.113815,3,2,2,Townhouse,Townhouse,False,0,m2,False
2017688500,listing,/lg02-802-elgar-road-doncaster-vic-3108-2017688500,322000,is-sold,Sold by private treaty 14 Oct 2022,20221014,LG02/802 Elgar Road,DONCASTER,VIC,3108,-37.7895126,145.1236,1,1,1,ApartmentUnitFlat,Apartment / Unit / Flat,False,0,m2,False
2017904833,listing,/419-642-doncaster-road-doncaster-vic-3108-2017904833,,is-sold,Sold at auction 15 Oct 2022,20221015,419/642 Doncaster Road,DONCASTER,VIC,3108,-37.78772,145.127975,3,2,2,ApartmentUnitFlat,Apartment / Unit / Flat,False,0,m2,False
2017962654,listing,/513-642-doncaster-road-doncaster-vic-3108-2017962654,598000,is-sold,Sold by private treaty 16 Oct 2022,20221016,513/642 Doncaster Road,DONCASTER,VIC,3108,-37.78772,145.127975,2,2,1,ApartmentUnitFlat,Apartment / Unit / Flat,False,0,m2,False
2017979527,listing,/13-160-williamsons-road-doncaster-vic-3108-2017979527,710000,is-sold,Sold by private treaty 27 Oct 2022,20221027,13/160 Williamsons Road,DONCASTER,VIC,3108,-37.7744,145.127426,3,2,2,ApartmentUnitFlat,Apartment / Unit / Flat,False,0,m2,False
2018010518,listing,/101-20-hepburn-road-doncaster-vic-3108-2018010518,660000,is-sold,Sold by private treaty 15 Oct 2022,20221015,101/20 Hepburn Road,DONCASTER,VIC,3108,-37.78826,145.1292,3,2,2,ApartmentUnitFlat,Apartment / Unit / Flat,False,0,m2,False
2018017233,listing,/4-224-williamsons-road-doncaster-vic-3108-2018017233,792000,is-sold,Sold by private treaty 24 Oct 2022,20221024,4/224 Williamsons Road,DONCASTER,VIC,3108,-37.76806,145.131241,3,1,2,ApartmentUnitFlat,Apartment / Unit / Flat,False,309,m2,False
2018039669,listing,/117-8-hepburn-road-doncaster-vic-3108-2018039669,512300,is-sold,Sold by private treaty 12 Oct 2022,20221012,117/8 Hepburn Road,DONCASTER,VIC,3108,-37.78865,145.131042,2,2,1,ApartmentUnitFlat,Apartment / Unit / Flat,False,0,m2,False
2018079608,listing,/21-acheron-street-doncaster-vic-3108-2018079608,1605500,is-sold,Sold at auction 15 Oct 2022,20221015,21 Acheron Street,DONCASTER,VIC,3108,-37.788868,145.114761,4,2,3,House,House,False,774,m2,False
2018083452,listing,/37-caringal-avenue-doncaster-vic-3108-2018083452,1180000,is-sold,Sold prior to auction 18 Oct 2022,20221018,37 Caringal Avenue,DONCASTER,VIC,3108,-37.7906723,145.117172,3,1,1,House,House,False,725,m2,False
2018091642,listing,/11-thiele-street-doncaster-vic-3108-2018091642,1555000,is-sold,Sold at auction 22 Oct 2022,20221022,11 Thiele Street,DONCASTER,VIC,3108,-37.78456,145.1353,3,2,2,House,House,False,728,m2,False
2018092834,listing,/4-golden-court-doncaster-vic-3108-2018092834,1230000,is-sold,Sold by private treaty 25 Oct 2022,20221025,4 Golden Court,DONCASTER,VIC,3108,-37.7824745,145.139679,3,2,2,House,House,False,738,m2,False
2018096843,listing,/35-koolkuna-avenue-doncaster-vic-3108-2018096843,2041000,is-sold,Sold at auction 29 Oct 2022,20221029,35 Koolkuna Avenue,DONCASTER,VIC,3108,-37.78977,145.115585,4,2,2,House,House,False,837,m2,False
2018097446,listing,/7-75-77-tram-road-doncaster-vic-3108-2018097446,495000,is-sold,Sold by private treaty 21 Oct 2022,20221021,7/75-77 Tram Road,DONCASTER,VIC,3108,-37.79036,145.125122,2,1,1,ApartmentUnitFlat,Apartment / Unit / Flat,False,0,m2,False
2018098509,listing,/1-32-frederick-street-doncaster-vic-3108-2018098509,1368000,is-sold,Sold at auction 22 Oct 2022,20221022,1/32 Frederick Street,DONCASTER,VIC,3108,-37.79096,145.126358,4,2,2,House,House,False,0,m2,False
2018099487,listing,/13-windella-quadrant-doncaster-vic-3108-2018099487,1745000,is-sold,Sold at auction 29 Oct 2022,20221029,13 Windella Quadrant,DONCASTER,VIC,3108,-37.7935143,145.135025,4,2,2,House,House,False,0,m2,False
2018111995,listing,/213-1-grosvenor-street-doncaster-vic-3108-2018111995,325000,is-sold,Sold by private treaty 27 Oct 2022,20221027,213/1 Grosvenor Street,DONCASTER,VIC,3108,-37.7832146,145.127975,1,1,1,ApartmentUnitFlat,Apartment / Unit / Flat,False,0,m2,False
2018118647,listing,/5-old-orchard-way-doncaster-vic-3108-2018118647,1352000,is-sold,Sold by private treaty 18 Oct 2022,20221018,5 Old Orchard Way,DONCASTER,VIC,3108,-37.7803078,145.139755,4,2,2,House,House,False,670,m2,False
2018126725,listing,/502-59-stables-circuit-doncaster-vic-3108-2018126725,1385000,is-sold,Sold by private treaty 26 Oct 2022,20221026,502/59 Stables Circuit,DONCASTER,VIC,3108,-37.78729,145.115982,3,2,2,ApartmentUnitFlat,Apartment / Unit / Flat,False,0,m2,False
2018170183,listing,/4-55-williamsons-road-doncaster-vic-3108-2018170183,868888,is-sold,Sold by private treaty 27 Oct 2022,20221027,4/55 Williamsons Road,DONCASTER,VIC,3108,-37.78235,145.123383,3,2,2,Townhouse,Townhouse,False,120,m2,False
2017429390,listing,/5-5-saxon-street-doncaster-vic-3108-2017429390,,is-sold,Sold by private treaty 07 Oct 2022,20221007,5/5 Saxon Street,DONCASTER,VIC,3108,-37.7799339,145.128891,4,3,2,Townhouse,Townhouse,False,0,m2,False
2017804391,listing,/406-65-stables-circuit-doncaster-vic-3108-2017804391,1430000,is-sold,Sold by private treaty 10 Oct 2022,20221010,406/65 Stables Circuit,DONCASTER,VIC,3108,-37.78677,145.115524,3,2,2,ApartmentUnitFlat,Apartment / Unit / Flat,False,0,m2,False
2017913498,listing,/312-632-doncaster-road-doncaster-vic-3108-2017913498,291000,is-sold,Sold by private treaty 27 Sep 2022,20220927,312/632 Doncaster Road,DONCASTER,VIC,3108,-37.78777,145.126511,1,1,1,ApartmentUnitFlat,Apartment / Unit / Flat,False,0,m2,False
2017970623,listing,/10-outhwaite-avenue-doncaster-vic-3108-2017970623,1510000,is-sold,Sold by private treaty 28 Sep 2022,20220928,10 Outhwaite Avenue,DONCASTER,VIC,3108,-37.78307,145.101425,4,2,1,House,House,False,735,m2,False
2018011537,listing,/10-5-sovereign-point-court-doncaster-vic-3108-2018011537,510000,is-sold,Sold by private treaty 28 Sep 2022,20220928,10/5 Sovereign Point Court,DONCASTER,VIC,3108,-37.7830925,145.1235,2,2,1,ApartmentUnitFlat,Apartment / Unit / Flat,False,0,m2,False
2018013592,listing,/3-34-coolabah-street-doncaster-vic-3108-2018013592,950000,is-sold,Sold at auction 08 Oct 2022,20221008,3/34 Coolabah Street,DONCASTER,VIC,3108,-37.792263,145.138687,3,2,1,Townhouse,Townhouse,False,254,m2,False
2018023654,listing,/13-brendan-avenue-doncaster-vic-3108-2018023654,1290000,is-sold,Sold at auction 29 Sep 2022,20220929,13 Brendan Avenue,DONCASTER,VIC,3108,-37.7797356,145.120911,4,2,2,House,House,False,692,m2,False
2018023669,listing,/1-25-clay-drive-doncaster-vic-3108-2018023669,660000,is-sold,Sold by private treaty 29 Sep 2022,20220929,1/25 Clay Drive,DONCASTER,VIC,3108,-37.79013,145.127472,2,1,1,Townhouse,Townhouse,False,0,m2,False
2018043814,listing,/57-margot-avenue-doncaster-vic-3108-2018043814,1730000,is-sold,Sold at auction 01 Oct 2022,20221001,57 Margot Avenue,DONCASTER,VIC,3108,-37.7735939,145.1282,5,3,2,House,House,False,525,m2,False
2018045614,listing,/7-attunga-court-doncaster-vic-3108-2018045614,1290000,is-sold,Sold at auction 01 Oct 2022,20221001,7 Attunga Court,DONCASTER,VIC,3108,-37.7912521,145.119354,4,2,2,Townhouse,Townhouse,False,0,m2,False
2018046551,listing,/506-59-stables-circuit-doncaster-vic-3108-2018046551,1650000,is-sold,Sold by private treaty 04 Oct 2022,20221004,506/59 Stables Circuit,DONCASTER,VIC,3108,-37.78729,145.115982,3,2,2,ApartmentUnitFlat,Apartment / Unit / Flat,False,0,m2,False
2018051695,listing,/204-642-doncaster-road-doncaster-vic-3108-2018051695,550000,is-sold,Sold by private treaty 05 Oct 2022,20221005,204/642 Doncaster Road,DONCASTER,VIC,3108,-37.78772,145.127975,2,2,1,ApartmentUnitFlat,Apartment / Unit / Flat,False,0,m2,False
2018053811,listing,/67-rathmullen-quadrant-doncaster-vic-3108-2018053811,1325000,is-sold,Sold at auction 08 Oct 2022,20221008,67 Rathmullen Quadrant,DONCASTER,VIC,3108,-37.78434,145.12056,4,2,4,House,House,False,0,m2,False
2018056008,listing,/1-12-whittens-lane-doncaster-vic-3108-2018056008,1060000,is-sold,Sold by private treaty 06 Oct 2022,20221006,1/12 Whittens Lane,DONCASTER,VIC,3108,-37.7952957,145.127213,4,2,2,Townhouse,Townhouse,False,264,m2,False
2018059871,listing,/2-crouch-court-doncaster-vic-3108-2018059871,1205000,is-sold,Sold at auction 08 Oct 2022,20221008,2 Crouch Court,DONCASTER,VIC,3108,-37.7743874,145.13295,,,,VacantLand,Vacant land,False,520,m2,False
2018061237,listing,/28-dunoon-street-doncaster-vic-3108-2018061237,2188000,is-sold,Sold at auction 08 Oct 2022,20221008,28 Dunoon Street,DONCASTER,VIC,3108,-37.7939835,145.139114,4,4,2,House,House,False,430,m2,False
2018064172,listing,/11-burgundy-drive-doncaster-vic-3108-2018064172,1400000,is-sold,Sold by private treaty 27 Sep 2022,20220927,11 Burgundy Drive,DONCASTER,VIC,3108,-37.77888,145.120148,4,2,2,House,House,False,657,m2,False
2018066821,listing,/2-135-ayr-street-doncaster-vic-3108-2018066821,1411800,is-sold,Sold at auction 08 Oct 2022,20221008,2/135 Ayr Street,DONCASTER,VIC,3108,-37.77511,145.104691,3,3,2,Townhouse,Townhouse,False,0,m2,False
2018068867,listing,/12-9-13-wetherby-road-doncaster-vic-3108-2018068867,785500,is-sold,Sold prior to auction 30 Sep 2022,20220930,12/9-13 Wetherby Road,DONCASTER,VIC,3108,-37.78788,145.143173,2,1,2,Townhouse,Townhouse,False,0,m2,False
2018070627,listing,/36-outlook-drive-doncaster-vic-3108-2018070627,,is-sold,Sold by private treaty 09 Oct 2022,20221009,36 Outlook Drive,DONCASTER,VIC,3108,-37.78949,145.1338,3,1,3,House,House,False,723,m2,False
2017815471,listing,/204-5-curlew-court-doncaster-vic-3108-2017815471,630000,is-sold,Sold by private treaty 21 Sep 2022,20220921,204/5 Curlew Court,DONCASTER,VIC,3108,-37.7858162,145.134415,3,2,2,ApartmentUnitFlat,Apartment / Unit / Flat,False,0,m2,False
2017845460,listing,/7-5-curlew-court-doncaster-vic-3108-2017845460,380000,is-sold,Sold by private treaty 16 Sep 2022,20220916,7/5 Curlew Court,DONCASTER,VIC,3108,-37.7858162,145.134415,1,1,1,ApartmentUnitFlat,Apartment / Unit / Flat,False,0,m2,False
2017946455,listing,/4-32-firth-street-doncaster-vic-3108-2017946455,570000,is-sold,Sold by private treaty 14 Sep 2022,20220914,4/32 Firth Street,DONCASTER,VIC,3108,-37.7875061,145.120117,2,1,1,ApartmentUnitFlat,Apartment / Unit / Flat,False,104,m2,False
2017965799,listing,/20-tullamore-avenue-doncaster-vic-3108-2017965799,1950000,is-sold,Sold by private treaty 22 Sep 2022,20220922,20 Tullamore Avenue,DONCASTER,VIC,3108,-37.78487,145.109344,5,3,2,House,House,False,664,m2,False
2017970210,listing,/g04-65-stables-circuit-doncaster-vic-3108-2017970210,520000,is-sold,Sold by private treaty 20 Sep 2022,20220920,G04/65 Stables Circuit,DONCASTER,VIC,3108,-37.78677,145.115524,2,1,1,ApartmentUnitFlat,Apartment / Unit / Flat,False,0,m2,False
2017970821,listing,/5-fromhold-drive-doncaster-vic-3108-2017970821,1320000,is-sold,Sold by private treaty 10 Sep 2022,20220910,5 Fromhold Drive,DONCASTER,VIC,3108,-37.7813644,145.1397,3,3,2,Townhouse,Townhouse,False,341,m2,False
2017992301,listing,/9-foliage-way-doncaster-vic-3108-2017992301,2138888,is-sold,Sold by private treaty 21 Sep 2022,20220921,9 Foliage Way,DONCASTER,VIC,3108,-37.78375,145.115051,5,3,2,House,House,False,0,m2,False
2018005320,listing,/47-tram-road-doncaster-vic-3108-2018005320,1238888,is-sold,Sold at auction 10 Sep 2022,20220910,47 Tram Road,DONCASTER,VIC,3108,-37.7926178,145.12532,3,2,2,House,House,False,696,m2,False
2018006477,listing,/24-ballamore-crescent-doncaster-vic-3108-2018006477,1670000,is-sold,Sold at auction 10 Sep 2022,20220910,24 Ballamore Crescent,DONCASTER,VIC,3108,-37.7695961,145.132385,4,2,2,House,House,False,787,m2,False
2018012445,listing,/1-8-curlew-court-doncaster-vic-3108-2018012445,1205000,is-sold,Sold at auction 10 Sep 2022,20220910,1/8 Curlew Court,DONCASTER,VIC,3108,-37.78612,145.134109,4,2,2,Townhouse,Townhouse,False,303,m2,False
2018018173,listing,/9-stutt-avenue-doncaster-vic-3108-2018018173,1751000,is-sold,Sold at auction 17 Sep 2022,20220917,9 Stutt Avenue,DONCASTER,VIC,3108,-37.78597,145.108063,4,2,2,House,House,False,653,m2,False
2018021252,listing,/2-edith-court-doncaster-vic-3108-2018021252,1160000,is-sold,Sold at auction 17 Sep 2022,20220917,2 Edith Court,DONCASTER,VIC,3108,-37.7889748,145.11377,3,2,2,House,House,False,0,m2,False
2018023550,listing,/2-3-4-sovereign-point-court-doncaster-vic-3108-2018023550,,is-sold,Sold by private treaty 12 Sep 2022,20220912,2/3-4 Sovereign Point Court,DONCASTER,VIC,3108,-37.7830925,145.123459,2,1,1,ApartmentUnitFlat,Apartment / Unit / Flat,False,0,m2,False
2018027004,listing,/6-maple-court-doncaster-vic-3108-2018027004,1310000,is-sold,Sold at auction 17 Sep 2022,20220917,6 Maple Court,DONCASTER,VIC,3108,-37.7933846,145.130188,4,2,1,House,House,False,856,m2,False
2018032515,listing,/114-832-doncaster-road-doncaster-vic-3108-2018032515,382000,is-sold,Sold by private treaty 26 Sep 2022,20220926,114/832 Doncaster Road,DONCASTER,VIC,3108,-37.7871666,145.142868,1,1,1,ApartmentUnitFlat,Apartment / Unit / Flat,False,0,m2,False
2018037428,listing,/39-roseland-grove-doncaster-vic-3108-2018037428,1388000,is-sold,Sold by private treaty 19 Sep 2022,20220919,39 Roseland Grove,DONCASTER,VIC,3108,-37.7790947,145.133835,3,2,2,House,House,False,647,m2,False
2018041727,listing,/414-1-grosvenor-street-doncaster-vic-3108-2018041727,505000,is-sold,Sold by private treaty 26 Sep 2022,20220926,414/1 Grosvenor Street,DONCASTER,VIC,3108,-37.7832146,145.127975,2,1,1,ApartmentUnitFlat,Apartment / Unit / Flat,False,0,m2,False
2018065898,listing,/405-65-stables-circuit-doncaster-vic-3108-2018065898,461000,is-sold,Sold by private treaty 22 Sep 2022,20220922,405/65 Stables Circuit,DONCASTER,VIC,3108,-37.78677,145.115524,1,1,1,ApartmentUnitFlat,Apartment / Unit / Flat,False,0,m2,False
2018068629,listing,/29-stables-circuit-doncaster-vic-3108-2018068629,1200000,is-sold,Sold by private treaty 23 Sep 2022,20220923,29 Stables Circuit,DONCASTER,VIC,3108,-37.7864342,145.117737,3,2,2,Townhouse,Townhouse,False,198,m2,False
2018092748,listing,/g04-9-11-williamsons-road-doncaster-vic-3108-2018092748,880000,is-sold,Sold by private treaty 27 Sep 2022,20220927,G04/9-11 Williamsons Road,DONCASTER,VIC,3108,-37.7859039,145.124329,1,1,1,ApartmentUnitFlat,Apartment / Unit / Flat,False,0,m2,False
2017647365,listing,/102-721-elgar-road-doncaster-vic-3108-2017647365,480000,is-sold,Sold by private treaty 05 Sep 2022,20220905,102/721 Elgar Road,DONCASTER,VIC,3108,-37.79501,145.118988,2,1,1,ApartmentUnitFlat,Apartment / Unit / Flat,False,0,m2,False
2017865414,listing,/1-63-council-street-doncaster-vic-3108-2017865414,,is-sold,Sold by private treaty 26 Aug 2022,20220826,1/63 Council Street,DONCASTER,VIC,3108,-37.78114,145.130188,4,4,2,Townhouse,Townhouse,False,0,m2,False
2017897478,listing,/1-731-elgar-road-doncaster-vic-3108-2017897478,1015000,is-sold,Sold at auction 27 Aug 2022,20220827,1/731 Elgar Road,DONCASTER,VIC,3108,-37.7943726,145.1198,3,2,2,Townhouse,Townhouse,False,0,m2,False
2017899068,listing,/1-85-tram-road-doncaster-vic-3108-2017899068,475000,is-sold,Sold by private treaty 01 Sep 2022,20220901,1/85 Tram Road,DONCASTER,VIC,3108,-37.7896156,145.125,2,2,1,ApartmentUnitFlat,Apartment / Unit / Flat,False,0,m2,False
2017947080,listing,/49-hampshire-road-doncaster-vic-3108-2017947080,1250000,is-sold,Sold by private treaty 02 Sep 2022,20220902,49 Hampshire Road,DONCASTER,VIC,3108,-37.7958,145.140274,4,2,2,House,House,False,785,m2,False
2017956546,listing,/303-101-tram-road-doncaster-vic-3108-2017956546,390000,is-sold,Sold by private treaty 23 Aug 2022,20220823,303/101 Tram Road,DONCASTER,VIC,3108,-37.78801,145.1245,2,1,1,ApartmentUnitFlat,Apartment / Unit / Flat,False,0,m2,False
2017960470,listing,/6-11-firth-street-doncaster-vic-3108-2017960470,540000,is-sold,Sold at auction 27 Aug 2022,20220827,6/11 Firth Street,DONCASTER,VIC,3108,-37.78612,145.12236,3,1,2,ApartmentUnitFlat,Apartment / Unit / Flat,False,0,m2,False
2017968578,listing,/11-hillingdon-crescent-doncaster-vic-3108-2017968578,1351000,is-sold,Sold at auction 27 Aug 2022,20220827,11 Hillingdon Crescent,DONCASTER,VIC,3108,-37.78369,145.10611,3,2,2,Townhouse,Townhouse,False,0,m2,False
2017969914,listing,/6-gregory-court-doncaster-vic-3108-2017969914,960000,is-sold,Sold at auction 27 Aug 2022,20220827,6 Gregory Court,DONCASTER,VIC,3108,-37.78601,145.101318,4,2,2,House,House,False,677,m2,False
2017970760,listing,/55-winston-drive-doncaster-vic-3108-2017970760,1250000,is-sold,Sold at auction 27 Aug 2022,20220827,55 Winston Drive,DONCASTER,VIC,3108,-37.77914,145.13002,4,2,3,House,House,False,654,m2,False
2017976726,listing,/41-timber-ridge-doncaster-vic-3108-2017976726,1382000,is-sold,Sold at auction 27 Aug 2022,20220827,41 Timber Ridge,DONCASTER,VIC,3108,-37.7771645,145.108826,4,2,1,House,House,False,753,m2,False
2017977368,listing,/116-1-grosvenor-street-doncaster-vic-3108-2017977368,455000,is-sold,Sold by private treaty 23 Aug 2022,20220823,116/1 Grosvenor Street,DONCASTER,VIC,3108,-37.7832146,145.127975,2,1,1,ApartmentUnitFlat,Apartment / Unit / Flat,False,0,m2,False
2017978580,listing,/9-arnold-grove-doncaster-vic-3108-2017978580,1461000,is-sold,Sold at auction 27 Aug 2022,20220827,9 Arnold Grove,DONCASTER,VIC,3108,-37.78668,145.118332,3,1,1,House,House,False,797,m2,False
2017980672,listing,/3-1-arnold-grove-doncaster-vic-3108-2017980672,1000000,is-sold,Sold prior to auction 26 Aug 2022,20220826,3/1 Arnold Grove,DONCASTER,VIC,3108,-37.7873459,145.118378,3,2,2,Townhouse,Townhouse,False,221,m2,False
2017990041,listing,/2-1-westfield-drive-doncaster-vic-3108-2017990041,415000,is-sold,Sold by private treaty 03 Sep 2022,20220903,2/1 Westfield Drive,DONCASTER,VIC,3108,-37.7819061,145.124176,1,1,1,ApartmentUnitFlat,Apartment / Unit / Flat,False,0,m2,False
2017992250,listing,/4-gilmore-road-doncaster-vic-3108-2017992250,2880000,is-sold,Sold at auction 09 Sep 2022,20220909,4 Gilmore Road,DONCASTER,VIC,3108,-37.7901573,145.131256,5,4,2,House,House,False,725,m2,False
2018004764,listing,/3-3-grosvenor-street-doncaster-vic-3108-2018004764,526000,is-sold,Sold by private treaty 27 Aug 2022,20220827,3/3 Grosvenor Street,DONCASTER,VIC,3108,-37.7826576,145.128143,2,2,1,ApartmentUnitFlat,Apartment / Unit / Flat,False,0,m2,False
2018008839,listing,/68-wilsons-road-doncaster-vic-3108-2018008839,,is-sold,Sold at auction 10 Sep 2022,20220910,68 Wilsons Road,DONCASTER,VIC,3108,-37.7918243,145.113983,4,2,2,House,House,False,726,m2,False
2018025587,listing,/5-gilmore-road-doncaster-vic-3108-2018025587,3185000,is-sold,Sold by private treaty 24 Aug 2022,20220824,5 Gilmore Road,DONCASTER,VIC,3108,-37.7901955,145.1307,5,5,2,House,House,False,725,m2,False
2018033312,listing,/36a-timber-ridge-doncaster-vic-3108-2018033312,1800049,is-sold,Sold by private treaty 08 Sep 2022,20220908,36A Timber Ridge,DONCASTER,VIC,3108,-37.77766,145.109009,4,4,2,Townhouse,Townhouse,False,340,m2,False
2016652493,listing,/619-101-105-tram-road-doncaster-vic-3108-2016652493,405000,is-sold,Sold by private treaty 13 Aug 2022,20220813,619/101-105 Tram Road,DONCASTER,VIC,3108,-37.7883263,145.12468,2,2,1,ApartmentUnitFlat,Apartment / Unit / Flat,False,74,m2,False
2017487249,listing,/204-65-stables-circuit-doncaster-vic-3108-2017487249,730000,is-sold,Sold by private treaty 08 Aug 2022,20220808,204/65 Stables Circuit,DONCASTER,VIC,3108,-37.7867851,145.115524,2,2,2,ApartmentUnitFlat,Apartment / Unit / Flat,False,0,m2,False
2017767688,listing,/134a-ayr-street-doncaster-vic-3108-2017767688,,is-sold,Sold by private treaty 12 Aug 2022,20220812,134a Ayr Street,DONCASTER,VIC,3108,-37.77646,145.103775,3,2,3,ApartmentUnitFlat,Apartment / Unit / Flat,False,210,m2,False
2017843817,listing,/614-600-doncaster-road-doncaster-vic-3108-2017843817,500000,is-sold,Sold by private treaty 03 Aug 2022,20220803,614/600 Doncaster Road,DONCASTER,VIC,3108,-37.7879524,145.124008,2,2,1,ApartmentUnitFlat,Apartment / Unit / Flat,False,0,m2,False
2017879030,listing,/301-91-tram-road-doncaster-vic-3108-2017879030,,is-sold,Sold by private treaty 22 Aug 2022,20220822,301/91 Tram Road,DONCASTER,VIC,3108,-37.7890739,145.124664,2,1,1,ApartmentUnitFlat,Apartment / Unit / Flat,False,0,m2,False
2017898957,listing,/307-8-hepburn-road-doncaster-vic-3108-2017898957,477000,is-sold,Sold by private treaty 17 Aug 2022,20220817,307/8 Hepburn Road,DONCASTER,VIC,3108,-37.78865,145.131042,2,2,1,ApartmentUnitFlat,Apartment / Unit / Flat,False,0,m2,False
2017902824,listing,/316-7-11-berkeley-street-doncaster-vic-3108-2017902824,565000,is-sold,Sold by private treaty 09 Aug 2022,20220809,316/7-11 Berkeley Street,DONCASTER,VIC,3108,-37.78601,145.128769,2,2,1,ApartmentUnitFlat,Apartment / Unit / Flat,False,0,m2,False
2017903283,listing,/412-5-sovereign-point-court-doncaster-vic-3108-2017903283,550000,is-sold,Sold by private treaty 18 Aug 2022,20220818,412/5 Sovereign Point Court,DONCASTER,VIC,3108,-37.7830925,145.1235,2,2,1,ApartmentUnitFlat,Apartment / Unit / Flat,False,0,m2,False
2017904806,listing,/108-1-pettys-lane-doncaster-vic-3108-2017904806,559000,is-sold,Sold by private treaty 10 Aug 2022,20220810,108/1 Pettys Lane,DONCASTER,VIC,3108,-37.7879753,145.113251,2,2,1,ApartmentUnitFlat,Apartment / Unit / Flat,False,0,m2,False
2017925462,listing,/6-diosma-court-doncaster-vic-3108-2017925462,1390000,is-sold,Sold by private treaty 19 Aug 2022,20220819,6 Diosma Court,DONCASTER,VIC,3108,-37.7764473,145.1282,4,2,2,House,House,False,786,m2,False
2017926875,listing,/129a-ayr-street-doncaster-vic-3108-2017926875,969000,is-sold,Sold by private treaty 10 Aug 2022,20220810,129A Ayr Street,DONCASTER,VIC,3108,-37.77571,145.104446,3,2,2,House,House,False,396,m2,False
2017927949,listing,/6-katrina-street-doncaster-vic-3108-2017927949,,is-sold,Sold by private treaty 15 Aug 2022,20220815,6 Katrina Street,DONCASTER,VIC,3108,-37.79461,145.118332,4,3,2,House,House,False,796,m2,False
2017936545,listing,/12-walker-street-doncaster-vic-3108-2017936545,1440000,is-sold,Sold at auction 06 Aug 2022,20220806,12 Walker Street,DONCASTER,VIC,3108,-37.7917862,145.129242,3,2,3,House,House,False,728,m2,False
2017940652,listing,/2-louise-court-doncaster-vic-3108-2017940652,1190000,is-sold,Sold by private treaty 20 Aug 2022,20220820,2 Louise Court,DONCASTER,VIC,3108,-37.78467,145.102859,3,1,1,House,House,False,830,m2,False
2017946035,listing,/518-101-tram-road-doncaster-vic-3108-2017946035,410000,is-sold,Sold by private treaty 10 Aug 2022,20220810,518/101 Tram Road,DONCASTER,VIC,3108,-37.78801,145.1245,2,2,1,ApartmentUnitFlat,Apartment / Unit / Flat,False,0,m2,False
2017949257,listing,/6-1-3-frank-street-doncaster-vic-3108-2017949257,1300000,is-sold,Sold by private treaty 09 Aug 2022,20220809,6/1-3 Frank Street,DONCASTER,VIC,3108,-37.7930031,145.126175,5,3,2,Townhouse,Townhouse,False,0,m2,False
2017949782,listing,/12-elm-tree-road-doncaster-vic-3108-2017949782,1300000,is-sold,Sold at auction 15 Aug 2022,20220815,12 Elm Tree Road,DONCASTER,VIC,3108,-37.7909355,145.1304,3,1,2,House,House,False,727,m2,False
2017955070,listing,/6-25-clay-drive-doncaster-vic-3108-2017955070,775000,is-sold,Sold by private treaty 17 Aug 2022,20220817,6/25 Clay Drive,DONCASTER,VIC,3108,-37.7898674,145.1275,3,2,1,Townhouse,Townhouse,False,0,m2,False
2017955269,listing,/45-rathmullen-quadrant-doncaster-vic-3108-2017955269,1410000,is-sold,Sold at auction 20 Aug 2022,20220820,45 Rathmullen Quadrant,DONCASTER,VIC,3108,-37.7832642,145.11937,5,3,2,House,House,False,654,m2,False
2017978973,listing,/506-5-sovereign-point-court-doncaster-vic-3108-2017978973,530000,is-sold,Sold by private treaty 17 Aug 2022,20220817,506/5 Sovereign Point Court,DONCASTER,VIC,3108,-37.7830925,145.1235,2,2,1,ApartmentUnitFlat,Apartment / Unit / Flat,False,0,m2,False
2016368686,listing,/713-642-doncaster-road-doncaster-vic-3108-2016368686,590000,is-sold,Sold by private treaty 31 Jul 2022,20220731,713/642 Doncaster Road,DONCASTER,VIC,3108,-37.78746,145.126984,2,2,1,ApartmentUnitFlat,Apartment / Unit / Flat,False,0,m2,False
2017448669,listing,/5-para-court-doncaster-vic-3108-2017448669,1792500,is-sold,Sold by private treaty 02 Aug 2022,20220802,5 Para Court,DONCASTER,VIC,3108,-37.7827454,145.121735,4,2,2,House,House,False,1459,m2,False
2017712866,listing,/516-642-doncaster-road-doncaster-vic-3108-2017712866,587000,is-sold,Sold by private treaty 26 Jul 2022,20220726,516/642 Doncaster Road,DONCASTER,VIC,3108,-37.78772,145.127975,2,2,1,ApartmentUnitFlat,Apartment / Unit / Flat,False,0,m2,False
2017722858,listing,/g05-19-frederick-street-doncaster-vic-3108-2017722858,,is-sold,Sold by private treaty 01 Aug 2022,20220801,G05/19 Frederick Street,DONCASTER,VIC,3108,-37.7894821,145.126236,1,1,1,ApartmentUnitFlat,Apartment / Unit / Flat,False,0,m2,False
2017826895,listing,/803-642-doncaster-road-doncaster-vic-3108-2017826895,570000,is-sold,Sold by private treaty 28 Jul 2022,20220728,803/642 Doncaster Road,DONCASTER,VIC,3108,-37.78772,145.127975,2,2,1,ApartmentUnitFlat,Apartment / Unit / Flat,False,0,m2,False
2017830750,listing,/206-83-tram-road-doncaster-vic-3108-2017830750,565000,is-sold,Sold by private treaty 17 Jul 2022,20220717,206/83 Tram Road,DONCASTER,VIC,3108,-37.7899437,145.1251,3,1,2,ApartmentUnitFlat,Apartment / Unit / Flat,False,96,m2,False
2017842028,listing,/105-18-berkeley-street-doncaster-vic-3108-2017842028,500000,is-sold,Sold by private treaty 16 Jul 2022,20220716,105/18 Berkeley Street,DONCASTER,VIC,3108,-37.78551,145.127975,2,2,1,ApartmentUnitFlat,Apartment / Unit / Flat,False,0,m2,False
2017873099,listing,/35-harvest-court-doncaster-vic-3108-2017873099,930000,is-sold,Sold by private treaty 29 Jul 2022,20220729,35 Harvest Court,DONCASTER,VIC,3108,-37.7742043,145.129379,3,2,1,Townhouse,Townhouse,False,0,m2,False
2017878156,listing,/2-12-whittens-lane-doncaster-vic-3108-2017878156,953500,is-sold,Sold at auction 13 Jul 2022,20220713,2/12 Whittens Lane,DONCASTER,VIC,3108,-37.7954,145.1274,3,2,2,Townhouse,Townhouse,False,0,m2,False
2017878862,listing,/103-1-sovereign-point-court-doncaster-vic-3108-2017878862,945000,is-sold,Sold by private treaty 26 Jul 2022,20220726,103/1 Sovereign Point Court,DONCASTER,VIC,3108,-37.78353,145.123718,3,2,1,ApartmentUnitFlat,Apartment / Unit / Flat,False,0,m2,False
2017888759,listing,/201-5-curlew-court-doncaster-vic-3108-2017888759,620000,is-sold,Sold by private treaty 25 Jul 2022,20220725,201/5 Curlew Court,DONCASTER,VIC,3108,-37.7858162,145.134415,3,2,1,ApartmentUnitFlat,Apartment / Unit / Flat,False,0,m2,False
2017893572,listing,/11-benton-court-doncaster-vic-3108-2017893572,1700000,is-sold,Sold at auction 23 Jul 2022,20220723,11 Benton Court,DONCASTER,VIC,3108,-37.7805176,145.131332,4,2,2,House,House,False,756,m2,False
2017893836,listing,/8-harvell-court-doncaster-vic-3108-2017893836,1780000,is-sold,Sold at auction 23 Jul 2022,20220723,8 Harvell Court,DONCASTER,VIC,3108,-37.7694,145.133987,4,2,2,House,House,False,754,m2,False
2017898740,listing,/28-rose-street-doncaster-vic-3108-2017898740,1400000,is-sold,Sold at auction 23 Jul 2022,20220723,28 Rose Street,DONCASTER,VIC,3108,-37.79054,145.122086,5,2,3,House,House,False,663,m2,False
2017903491,listing,/113-ayr-street-doncaster-vic-3108-2017903491,1400000,is-sold,Sold by private treaty 27 Jul 2022,20220727,113 Ayr Street,DONCASTER,VIC,3108,-37.77711,145.1043,4,2,2,House,House,False,641,m2,False
2017911770,listing,/1-8-mervyn-street-doncaster-vic-3108-2017911770,981000,is-sold,Sold at auction 30 Jul 2022,20220730,1/8 Mervyn Street,DONCASTER,VIC,3108,-37.7926826,145.120132,3,2,2,ApartmentUnitFlat,Apartment / Unit / Flat,False,427,m2,False
2017912158,listing,/11-harvell-court-doncaster-vic-3108-2017912158,1621000,is-sold,Sold at auction 30 Jul 2022,20220730,11 Harvell Court,DONCASTER,VIC,3108,-37.76946,145.133224,3,2,2,House,House,False,681,m2,False
2017915829,listing,/3-2-malcolm-crescent-doncaster-vic-3108-2017915829,840000,is-sold,Sold at auction 01 Aug 2022,20220801,3/2 Malcolm Crescent,DONCASTER,VIC,3108,-37.79574,145.120377,3,2,2,ApartmentUnitFlat,Apartment / Unit / Flat,False,214,m2,False
2017934242,listing,/1-10-clay-drive-doncaster-vic-3108-2017934242,898000,is-sold,Sold by private treaty 26 Jul 2022,20220726,1/10 Clay Drive,DONCASTER,VIC,3108,-37.7883072,145.128189,3,2,2,ApartmentUnitFlat,Apartment / Unit / Flat,False,0,m2,False
2017953074,listing,/2-34-queens-avenue-doncaster-vic-3108-2017953074,1230000,is-sold,Sold by private treaty 31 Jul 2022,20220731,2/34 Queens Avenue,DONCASTER,VIC,3108,-37.7878571,145.1368,3,2,2,Townhouse,Townhouse,False,0,m2,False
2016351592,listing,/unit-3-2-irene-court-doncaster-vic-3108-2016351592,1450000,is-sold,Sold by private treaty 05 Jul 2022,20220705,Unit 3/2 Irene Court,DONCASTER,VIC,3108,-37.79285,145.131454,4,3,2,Townhouse,Townhouse,False,0,m2,False
2017515797,listing,/511-101-tram-road-doncaster-vic-3108-2017515797,685000,is-sold,Sold by private treaty 01 Jul 2022,20220701,511/101 Tram Road,DONCASTER,VIC,3108,-37.7879944,145.124557,3,2,2,ApartmentUnitFlat,Apartment / Unit / Flat,False,0,m2,False
2017606070,listing,/20-high-street-doncaster-vic-3108-2017606070,808000,is-sold,Sold by private treaty 08 Jul 2022,20220708,20 High Street,DONCASTER,VIC,3108,-37.78627,145.106,3,3,2,Townhouse,Townhouse,False,0,m2,False
2017665604,listing,/205-642-doncaster-road-doncaster-vic-3108-2017665604,562500,is-sold,Sold by private treaty 05 Jul 2022,20220705,205/642 Doncaster Road,DONCASTER,VIC,3108,-37.78772,145.127975,2,2,1,ApartmentUnitFlat,Apartment / Unit / Flat,False,0,m2,False
2017698167,listing,/412-101-tram-road-doncaster-vic-3108-2017698167,400000,is-sold,Sold by private treaty 28 Jun 2022,20220628,412/101 Tram Road,DONCASTER,VIC,3108,-37.78795,145.124527,2,1,1,ApartmentUnitFlat,Apartment / Unit / Flat,False,0,m2,False
2017711896,listing,/2-14-fairway-road-doncaster-vic-3108-2017711896,1125000,is-sold,Sold at auction 29 Jun 2022,20220629,2/14 Fairway Road,DONCASTER,VIC,3108,-37.7833138,145.110748,3,2,2,Townhouse,Townhouse,False,0,m2,False
2017724031,listing,/211-18-berkeley-street-doncaster-vic-3108-2017724031,450000,is-sold,Sold by private treaty 27 Jun 2022,20220627,211/18 Berkeley Street,DONCASTER,VIC,3108,-37.78551,145.127975,2,1,1,ApartmentUnitFlat,Apartment / Unit / Flat,False,0,m2,False
2017736961,listing,/701-642-doncaster-road-doncaster-vic-3108-2017736961,411000,is-sold,Sold by private treaty 02 Jul 2022,20220702,701/642 Doncaster Road,DONCASTER,VIC,3108,-37.78772,145.127975,1,1,1,ApartmentUnitFlat,Apartment / Unit / Flat,False,0,m2,False
2017753504,listing,/8-1-westfield-drive-doncaster-vic-3108-2017753504,720000,is-sold,Sold by private treaty 29 Jun 2022,20220629,8/1 Westfield Drive,DONCASTER,VIC,3108,-37.7819061,145.124176,2,2,2,ApartmentUnitFlat,Apartment / Unit / Flat,False,0,m2,False
2017825300,listing,/212-8-berkeley-street-doncaster-vic-3108-2017825300,505000,is-sold,Sold by private treaty 01 Jul 2022,20220701,212/8 Berkeley Street,DONCASTER,VIC,3108,-37.78564,145.128555,2,1,1,ApartmentUnitFlat,Apartment / Unit / Flat,False,0,m2,False
2017834516,listing,/32-margot-avenue-doncaster-vic-3108-2017834516,1740000,is-sold,Sold at auction 25 Jun 2022,20220625,32 Margot Avenue,DONCASTER,VIC,3108,-37.7705879,145.131165,4,2,3,House,House,False,696,m2,False
2017837185,listing,/25-marilyn-street-doncaster-vic-3108-2017837185,1280000,is-sold,Sold by private treaty 01 Jul 2022,20220701,25 Marilyn Street,DONCASTER,VIC,3108,-37.77569,145.105057,4,1,2,House,House,False,853,m2,False
2017838692,listing,/4-2-mcleod-street-doncaster-vic-3108-2017838692,850000,is-sold,Sold by private treaty 27 Jun 2022,20220627,4/2 McLeod Street,DONCASTER,VIC,3108,-37.7913246,145.106873,3,2,2,Townhouse,Townhouse,False,0,m2,False
2017843424,listing,/4-ayr-street-doncaster-vic-3108-2017843424,1670000,is-sold,Sold at auction 03 Jul 2022,20220703,4 Ayr Street,DONCASTER,VIC,3108,-37.78626,145.10498,5,2,2,House,House,False,830,m2,False
2017843478,listing,/308-3-grosvenor-street-doncaster-vic-3108-2017843478,378000,is-sold,Sold by private treaty 01 Jul 2022,20220701,308/3 Grosvenor Street,DONCASTER,VIC,3108,-37.7826576,145.128143,1,1,1,ApartmentUnitFlat,Apartment / Unit / Flat,False,0,m2,False
2017844732,listing,/36-fairway-road-doncaster-vic-3108-2017844732,2950000,is-sold,Sold at auction 09 Jul 2022,20220709,36 Fairway Road,DONCASTER,VIC,3108,-37.7836342,145.113052,5,5,2,House,House,False,791,m2,False
2017847303,listing,/2-monaco-street-doncaster-vic-3108-2017847303,1650000,is-sold,Sold at auction 25 Jun 2022,20220625,2 Monaco Street,DONCASTER,VIC,3108,-37.78085,145.1107,4,4,2,House,House,False,0,m2,False
2017854311,listing,/38-rathmullen-quadrant-doncaster-vic-3108-2017854311,1373000,is-sold,Sold prior to auction 30 Jun 2022,20220630,38 Rathmullen Quadrant,DONCASTER,VIC,3108,-37.7829056,145.1215,3,2,2,House,House,False,657,m2,False
2017899584,listing,/31-bellara-street-doncaster-vic-3108-2017899584,1390000,is-sold,Sold prior to auction 08 Jul 2022,20220708,31 Bellara Street,DONCASTER,VIC,3108,-37.7926,145.139023,3,1,1,House,House,False,710,m2,False
2017899990,listing,/13-burilla-avenue-doncaster-vic-3108-2017899990,2450000,is-sold,Sold by private treaty 07 Jul 2022,20220707,13 Burilla Avenue,DONCASTER,VIC,3108,-37.7890968,145.13887,4,2,2,House,House,False,366,m2,False
2015756822,listing,/506-5-elgar-court-doncaster-vic-3108-2015756822,550000,is-sold,Sold by private treaty 16 Jun 2022,20220616,506/5 Elgar Court,DONCASTER,VIC,3108,-37.7887344,145.124268,2,2,1,ApartmentUnitFlat,Apartment / Unit / Flat,False,0,m2,False
2017575845,listing,/apartment-704-632-doncaster-road-doncaster-vic-3108-2017575845,,is-sold,Sold 25 Jun 2022,20220625,APARTMENT 704/632 DONCASTER ROAD,DONCASTER,VIC,3108,-37.78777,145.126511,1,1,1,ApartmentUnitFlat,Apartment / Unit / Flat,False,0,m2,False
2017617279,listing,/2-55-57-wetherby-road-doncaster-vic-3108-2017617279,750000,is-sold,Sold by private treaty 18 Jun 2022,20220618,2/55-57 Wetherby Road,DONCASTER,VIC,3108,-37.7917938,145.142487,2,1,1,Townhouse,Townhouse,False,121,m2,False
2017709675,listing,/704-632-doncaster-road-doncaster-vic-3108-2017709675,327000,is-sold,Sold by private treaty 18 Jun 2022,20220618,704/632 Doncaster Road,DONCASTER,VIC,3108,-37.78777,145.126511,,,1,ApartmentUnitFlat,Apartment / Unit / Flat,False,0,m2,False
2017728725,listing,/57-council-street-doncaster-vic-3108-2017728725,1350000,is-sold,Sold by private treaty 07 Jun 2022,20220607,57 Council Street,DONCASTER,VIC,3108,-37.7817078,145.13,4,2,2,House,House,False,649,m2,False
2017782767,listing,/304-20-hepburn-road-doncaster-vic-3108-2017782767,470000,is-sold,Sold by private treaty 14 Jun 2022,20220614,304/20 Hepburn Road,DONCASTER,VIC,3108,-37.78826,145.1292,2,1,1,ApartmentUnitFlat,Apartment / Unit / Flat,False,0,m2,False
2017786234,listing,/3-alma-court-doncaster-vic-3108-2017786234,1468000,is-sold,Sold by private treaty 17 Jun 2022,20220617,3 Alma Court,DONCASTER,VIC,3108,-37.78125,145.1379,4,2,2,House,House,False,819,m2,False
2017790703,listing,/124-high-street-doncaster-vic-3108-2017790703,1335000,is-sold,Sold by private treaty 11 Jun 2022,20220611,124 High Street,DONCASTER,VIC,3108,-37.7796745,145.1133,5,3,2,House,House,False,805,m2,False
2017794871,listing,/3-3-firth-street-doncaster-vic-3108-2017794871,665000,is-sold,Sold at auction 04 Jun 2022,20220604,3/3 Firth Street,DONCASTER,VIC,3108,-37.78616,145.123291,2,1,1,ApartmentUnitFlat,Apartment / Unit / Flat,False,0,m2,False
2017798311,listing,/65-wilsons-road-doncaster-vic-3108-2017798311,1520000,is-sold,Sold by private treaty 04 Jun 2022,20220604,65 Wilsons Road,DONCASTER,VIC,3108,-37.79138,145.114349,4,2,2,House,House,False,643,m2,False
2017812447,listing,/60-church-road-doncaster-vic-3108-2017812447,1303000,is-sold,Sold at auction 11 Jun 2022,20220611,60 Church Road,DONCASTER,VIC,3108,-37.79199,145.137222,4,2,2,House,House,False,658,m2,False
2017815473,listing,/25-coolabah-street-doncaster-vic-3108-2017815473,1280000,is-sold,Sold at auction 23 Jun 2022,20220623,25 Coolabah Street,DONCASTER,VIC,3108,-37.79175,145.139755,3,1,2,House,House,False,750,m2,False
2017821781,listing,/6-fairway-road-doncaster-vic-3108-2017821781,1380000,is-sold,Sold at auction 18 Jun 2022,20220618,6 Fairway Road,DONCASTER,VIC,3108,-37.7833061,145.10997,4,2,2,House,House,False,772,m2,False
2017822402,listing,/206-3-grosvenor-street-doncaster-vic-3108-2017822402,515000,is-sold,Sold by private treaty 14 Jun 2022,20220614,206/3 Grosvenor Street,DONCASTER,VIC,3108,-37.7826576,145.128143,2,2,1,ApartmentUnitFlat,Apartment / Unit / Flat,False,0,m2,False
2017832108,listing,/65-williamsons-road-doncaster-vic-3108-2017832108,1599000,is-sold,Sold at auction 18 Jun 2022,20220618,65 Williamsons Road,DONCASTER,VIC,3108,-37.7815132,145.12323,4,2,4,House,House,False,0,m2,False
2017835022,listing,/2b-elm-tree-road-doncaster-vic-3108-2017835022,1500000,is-sold,Sold by private treaty 08 Jun 2022,20220608,2B Elm Tree Road,DONCASTER,VIC,3108,-37.7918625,145.130234,4,3,2,House,House,False,0,m2,False
2017838357,listing,/1010-20-hepburn-road-doncaster-vic-3108-2017838357,465000,is-sold,Sold by private treaty 22 Jun 2022,20220622,1010/20 Hepburn Road,DONCASTER,VIC,3108,-37.78826,145.1292,2,1,1,ApartmentUnitFlat,Apartment / Unit / Flat,False,0,m2,False
2017838379,listing,/2-cecilie-court-doncaster-vic-3108-2017838379,1300000,is-sold,Sold at auction 25 Jun 2022,20220625,2 Cecilie Court,DONCASTER,VIC,3108,-37.7907257,145.10997,4,2,2,House,House,False,682,m2,False
2017839046,listing,/106-101-tram-road-doncaster-vic-3108-2017839046,455000,is-sold,Sold by private treaty 24 Jun 2022,20220624,106/101 Tram Road,DONCASTER,VIC,3108,-37.78801,145.1245,2,1,1,ApartmentUnitFlat,Apartment / Unit / Flat,False,0,m2,False
2017856349,listing,/15-brentvale-court-doncaster-vic-3108-2017856349,1418000,is-sold,Sold by private treaty 24 Jun 2022,20220624,15 Brentvale Court,DONCASTER,VIC,3108,-37.7689362,145.130814,3,2,4,House,House,False,730,m2,False
2017240498,listing,/22-frederick-street-doncaster-vic-3108-2017240498,2125000,is-sold,Sold by private treaty 31 May 2022,20220531,22 Frederick Street,DONCASTER,VIC,3108,-37.78966,145.12674,4,2,2,House,House,False,959,m2,False
2017560215,listing,/216-600-doncaster-road-doncaster-vic-3108-2017560215,555000,is-sold,Sold by private treaty 26 May 2022,20220526,216/600 Doncaster Road,DONCASTER,VIC,3108,-37.7879524,145.124008,2,2,1,ApartmentUnitFlat,Apartment / Unit / Flat,False,0,m2,False
2017599235,listing,/2-katrina-street-doncaster-vic-3108-2017599235,1680000,is-sold,Sold by private treaty 31 May 2022,20220531,2 Katrina Street,DONCASTER,VIC,3108,-37.79466,145.118927,5,2,2,House,House,False,976,m2,False
2017630768,listing,/4-7-11-darcy-street-doncaster-vic-3108-2017630768,595000,is-sold,Sold by private treaty 25 May 2022,20220525,4/7-11 Darcy Street,DONCASTER,VIC,3108,-37.7879868,145.142181,2,1,1,ApartmentUnitFlat,Apartment / Unit / Flat,False,0,m2,False
2017666443,listing,/8a-dion-street-doncaster-vic-3108-2017666443,2110000,is-sold,Sold by private treaty 23 May 2022,20220523,8A Dion Street,DONCASTER,VIC,3108,-37.776,145.112976,5,4,3,House,House,False,0,m2,False
2017671255,listing,/618-642-doncaster-road-doncaster-vic-3108-2017671255,645000,is-sold,Sold by private treaty 27 May 2022,20220527,618/642 Doncaster Road,DONCASTER,VIC,3108,-37.78772,145.127975,2,2,1,ApartmentUnitFlat,Apartment / Unit / Flat,False,0,m2,False
2017695249,listing,/101-5-curlew-court-doncaster-vic-3108-2017695249,630000,is-sold,Sold by private treaty 19 May 2022,20220519,101/5 Curlew Court,DONCASTER,VIC,3108,-37.7858162,145.134415,3,2,1,ApartmentUnitFlat,Apartment / Unit / Flat,False,0,m2,False
2017729335,listing,/119-1-grosvenor-street-doncaster-vic-3108-2017729335,340000,is-sold,Sold by private treaty 24 May 2022,20220524,119/1 Grosvenor Street,DONCASTER,VIC,3108,-37.7832146,145.127975,1,1,1,ApartmentUnitFlat,Apartment / Unit / Flat,False,0,m2,False
2017729775,listing,/7-765-767-doncaster-road-doncaster-vic-3108-2017729775,515000,is-sold,Sold at auction 28 May 2022,20220528,7/765-767 Doncaster Road,DONCASTER,VIC,3108,-37.78661,145.134964,2,1,1,ApartmentUnitFlat,Apartment / Unit / Flat,False,0,m2,False
2017754319,listing,/49-ayr-street-doncaster-vic-3108-2017754319,1980000,is-sold,Sold by private treaty 24 May 2022,20220524,49 Ayr Street,DONCASTER,VIC,3108,-37.7831955,145.103317,4,2,5,House,House,False,851,m2,False
2017761510,listing,/52-windella-quadrant-doncaster-vic-3108-2017761510,900000,is-sold,Sold at auction 21 May 2022,20220521,52 Windella Quadrant,DONCASTER,VIC,3108,-37.79531,145.134872,3,2,2,House,House,False,321,m2,False
2017767551,listing,/2-6-thiele-street-doncaster-vic-3108-2017767551,580000,is-sold,Sold by private treaty 27 May 2022,20220527,2/6 Thiele Street,DONCASTER,VIC,3108,-37.7857742,145.135574,3,2,2,ApartmentUnitFlat,Apartment / Unit / Flat,False,0,m2,False
2017770017,listing,/25-bordeaux-street-doncaster-vic-3108-2017770017,1640000,is-sold,Sold at auction 28 May 2022,20220528,25 Bordeaux Street,DONCASTER,VIC,3108,-37.7820549,145.120453,4,2,2,House,House,False,662,m2,False
2017775057,listing,/35-windella-quadrant-doncaster-vic-3108-2017775057,1345000,is-sold,Sold at auction 28 May 2022,20220528,35 Windella Quadrant,DONCASTER,VIC,3108,-37.79504,145.135757,3,2,2,House,House,False,667,m2,False
2017779744,listing,/14-316-manningham-road-doncaster-vic-3108-2017779744,513000,is-sold,Sold by private treaty 04 Jun 2022,20220604,14/316 Manningham Road,DONCASTER,VIC,3108,-37.7749367,145.115433,2,1,1,ApartmentUnitFlat,Apartment / Unit / Flat,False,0,m2,False
2017781030,listing,/3-margot-avenue-doncaster-vic-3108-2017781030,1500000,is-sold,Sold at auction 04 Jun 2022,20220604,3 Margot Avenue,DONCASTER,VIC,3108,-37.771492,145.1339,3,2,2,House,House,False,676,m2,False
2017791757,listing,/1002-632-doncaster-road-doncaster-vic-3108-2017791757,2000000,is-sold,Sold by private treaty 20 May 2022,20220520,1002/632 Doncaster Road,DONCASTER,VIC,3108,-37.78777,145.126511,3,2,4,ApartmentUnitFlat,Apartment / Unit / Flat,False,0,m2,False
2017801593,listing,/50-boyd-street-doncaster-vic-3108-2017801593,1030000,is-sold,Sold at auction 04 Jun 2022,20220604,50 Boyd Street,DONCASTER,VIC,3108,-37.7917938,145.12471,3,1,2,House,House,False,664,m2,False
2017802848,listing,/19-cockaigne-street-doncaster-vic-3108-2017802848,1635000,is-sold,Sold at auction 04 Jun 2022,20220604,19 Cockaigne Street,DONCASTER,VIC,3108,-37.78898,145.134949,6,3,3,House,House,False,677,m2,False
2017810474,listing,/303-721-elgar-road-doncaster-vic-3108-2017810474,330000,is-sold,Sold by private treaty 03 Jun 2022,20220603,303/721 Elgar Road,DONCASTER,VIC,3108,-37.79501,145.118988,1,1,1,ApartmentUnitFlat,Apartment / Unit / Flat,False,0,m2,False
2017002189,listing,/307-5-elgar-court-doncaster-vic-3108-2017002189,487000,is-sold,Sold by private treaty 17 May 2022,20220517,307/5 Elgar Court,DONCASTER,VIC,3108,-37.7887344,145.124268,2,2,1,ApartmentUnitFlat,Apartment / Unit / Flat,False,0,m2,False
2017597411,listing,/603-642-doncaster-road-doncaster-vic-3108-2017597411,520000,is-sold,Sold by private treaty 16 May 2022,20220516,603/642 Doncaster Road,DONCASTER,VIC,3108,-37.78772,145.127975,2,1,1,ApartmentUnitFlat,Apartment / Unit / Flat,False,0,m2,False
2017627529,listing,/18-meadowbank-avenue-doncaster-vic-3108-2017627529,1580000,is-sold,Sold by private treaty 16 May 2022,20220516,18 Meadowbank Avenue,DONCASTER,VIC,3108,-37.79427,145.134109,4,3,2,Townhouse,Townhouse,False,0,m2,False
2017639581,listing,/22-brendan-avenue-doncaster-vic-3108-2017639581,1375000,is-sold,Sold by private treaty 08 May 2022,20220508,22 Brendan Avenue,DONCASTER,VIC,3108,-37.77994,145.120361,4,2,2,House,House,False,652,m2,False
2017663161,listing,/30-somerville-street-doncaster-vic-3108-2017663161,1560000,is-sold,Sold by private treaty 07 May 2022,20220507,30 Somerville Street,DONCASTER,VIC,3108,-37.7784653,145.11702,3,2,4,House,House,False,683,m2,False
2017675263,listing,/2a-highview-drive-doncaster-vic-3108-2017675263,820000,is-sold,Sold by private treaty 16 May 2022,20220516,2A Highview Drive,DONCASTER,VIC,3108,-37.7930565,145.13028,2,1,1,Townhouse,Townhouse,False,160,m2,False
2017689085,listing,/1111-20-hepburn-road-doncaster-vic-3108-2017689085,460000,is-sold,Sold by private treaty 15 May 2022,20220515,1111/20 Hepburn Road,DONCASTER,VIC,3108,-37.78826,145.1292,2,1,1,ApartmentUnitFlat,Apartment / Unit / Flat,False,0,m2,False
2017695107,listing,/2-arthur-street-doncaster-vic-3108-2017695107,1456000,is-sold,Sold at auction 30 Apr 2022,20220430,2 Arthur Street,DONCASTER,VIC,3108,-37.79066,145.131866,3,1,2,House,House,False,790,m2,False
2017703570,listing,/2-5-hill-court-doncaster-vic-3108-2017703570,1050000,is-sold,Sold by private treaty 17 May 2022,20220517,2/5 Hill Court,DONCASTER,VIC,3108,-37.7797241,145.126877,4,3,2,Townhouse,Townhouse,False,0,m2,False
2017723221,listing,/3-19-outhwaite-avenue-doncaster-vic-3108-2017723221,1000000,is-sold,Sold at auction 14 May 2022,20220514,3/19 Outhwaite Avenue,DONCASTER,VIC,3108,-37.7824249,145.100754,3,2,2,Townhouse,Townhouse,False,0,m2,False
2017729359,listing,/70-margot-avenue-doncaster-vic-3108-2017729359,1260000,is-sold,Sold at auction 13 May 2022,20220513,70 Margot Avenue,DONCASTER,VIC,3108,-37.7734642,145.127792,4,2,2,House,House,False,343,m2,False
2017730598,listing,/25-765-767-doncaster-road-doncaster-vic-3108-2017730598,393000,is-sold,Sold by private treaty 16 May 2022,20220516,25/765-767 Doncaster Road,DONCASTER,VIC,3108,-37.78661,145.134964,1,1,1,ApartmentUnitFlat,Apartment / Unit / Flat,False,0,m2,False
2017731142,listing,/5-netley-rise-doncaster-vic-3108-2017731142,1545000,is-sold,Sold at auction 07 May 2022,20220507,5 Netley Rise,DONCASTER,VIC,3108,-37.77113,145.129669,4,2,2,House,House,False,695,m2,False
2017731143,listing,/1-9-morris-street-doncaster-vic-3108-2017731143,1559000,is-sold,Sold at auction 07 May 2022,20220507,1/9 Morris Street,DONCASTER,VIC,3108,-37.79317,145.117859,4,3,2,Townhouse,Townhouse,False,326,m2,False
2017738682,listing,/67-members-drive-doncaster-vic-3108-2017738682,1618888,is-sold,Sold at auction 14 May 2022,20220514,67 Members Drive,DONCASTER,VIC,3108,-37.78457,145.110825,4,3,2,House,House,False,0,m2,False
2017742664,listing,/304-632-doncaster-road-doncaster-vic-3108-2017742664,325000,is-sold,Sold by private treaty 11 May 2022,20220511,304/632 Doncaster Road,DONCASTER,VIC,3108,-37.78777,145.126511,1,1,1,ApartmentUnitFlat,Apartment / Unit / Flat,False,0,m2,False
2017751408,listing,/2-20-corella-street-doncaster-vic-3108-2017751408,830000,is-sold,Sold by private treaty 13 May 2022,20220513,2/20 Corella Street,DONCASTER,VIC,3108,-37.7828178,145.135284,3,2,1,Townhouse,Townhouse,False,0,m2,False
2017752698,listing,/1-wilton-way-doncaster-vic-3108-2017752698,1401000,is-sold,Sold prior to auction 09 May 2022,20220509,1 Wilton Way,DONCASTER,VIC,3108,-37.79572,145.1408,3,1,2,House,House,False,793,m2,False
2017763097,listing,/501-1-sovereign-point-court-doncaster-vic-3108-2017763097,1401000,is-sold,Sold by private treaty 11 May 2022,20220511,501/1 Sovereign Point Court,DONCASTER,VIC,3108,-37.78353,145.123718,4,2,2,ApartmentUnitFlat,Apartment / Unit / Flat,False,0,m2,False
2017764629,listing,/307-6-thiele-street-doncaster-vic-3108-2017764629,405000,is-sold,Sold by private treaty 06 May 2022,20220506,307/6 Thiele Street,DONCASTER,VIC,3108,-37.7857742,145.135574,1,1,1,ApartmentUnitFlat,Apartment / Unit / Flat,False,0,m2,False
2016710900,listing,/305-8-berkeley-street-doncaster-vic-3108-2016710900,453000,is-sold,Sold by private treaty 26 Apr 2022,20220426,305/8 Berkeley Street,DONCASTER,VIC,3108,-37.78564,145.128555,2,2,1,ApartmentUnitFlat,Apartment / Unit / Flat,False,0,m2,False
2017246672,listing,/9-11-clay-drive-doncaster-vic-3108-2017246672,,is-sold,Sold by private treaty 19 Apr 2022,20220419,9-11 Clay Drive,DONCASTER,VIC,3108,-37.788578,145.12764,8,4,4,House,House,False,1872,m2,False
2017403147,listing,/35-timber-ridge-doncaster-vic-3108-2017403147,1510000,is-sold,Sold prior to auction 26 Apr 2022,20220426,35 Timber Ridge,DONCASTER,VIC,3108,-37.77725,145.109451,4,3,2,House,House,False,766,m2,False
2017489495,listing,/218-6-thiele-street-doncaster-vic-3108-2017489495,299950,is-sold,Sold by private treaty 29 Apr 2022,20220429,218/6 Thiele Street,DONCASTER,VIC,3108,-37.7857742,145.135574,1,1,1,ApartmentUnitFlat,Apartment / Unit / Flat,False,0,m2,False
2017568439,listing,/213-65-stables-circuit-doncaster-vic-3108-2017568439,608888,is-sold,Sold by private treaty 23 Apr 2022,20220423,213/65 Stables Circuit,DONCASTER,VIC,3108,-37.7867851,145.115524,2,2,1,ApartmentUnitFlat,Apartment / Unit / Flat,False,0,m2,False
2017575843,listing,/8-798-elgar-road-doncaster-vic-3108-2017575843,765000,is-sold,Sold prior to auction 30 Apr 2022,20220430,8/798 Elgar Road,DONCASTER,VIC,3108,-37.7896919,145.123413,3,2,2,Townhouse,Townhouse,False,0,m2,False
2017627986,listing,/103-101-tram-road-doncaster-vic-3108-2017627986,413800,is-sold,Sold by private treaty 14 Apr 2022,20220414,103/101 Tram Road,DONCASTER,VIC,3108,-37.78801,145.1245,2,1,1,ApartmentUnitFlat,Apartment / Unit / Flat,False,0,m2,False
2017644289,listing,/16-800-elgar-road-doncaster-vic-3108-2017644289,400000,is-sold,Sold at auction 24 Apr 2022,20220424,16/800 Elgar Road,DONCASTER,VIC,3108,-37.7896919,145.123413,2,1,1,ApartmentUnitFlat,Apartment / Unit / Flat,False,0,m2,False
2017647878,listing,/530-532-doncaster-road-doncaster-vic-3108-2017647878,5500000,is-sold,Sold by private treaty 14 Apr 2022,20220414,530-532 Doncaster Road,DONCASTER,VIC,3108,-37.7881966,145.117691,10,3,22,House,House,False,1538,m2,False
2017656271,listing,/105-7-berkeley-street-doncaster-vic-3108-2017656271,545000,is-sold,Sold by private treaty 22 Apr 2022,20220422,105/7 Berkeley Street,DONCASTER,VIC,3108,-37.78601,145.128769,2,2,1,ApartmentUnitFlat,Apartment / Unit / Flat,False,0,m2,False
2017671851,listing,/25-finlayson-street-doncaster-vic-3108-2017671851,1550000,is-sold,Sold by private treaty 22 Apr 2022,20220422,25 Finlayson Street,DONCASTER,VIC,3108,-37.78866,145.1078,5,2,2,House,House,False,723,m2,False
2017691636,listing,/2-8-marshall-avenue-doncaster-vic-3108-2017691636,680000,is-sold,Sold by private treaty 26 Apr 2022,20220426,2/8 Marshall Avenue,DONCASTER,VIC,3108,-37.7929,145.1355,2,1,1,ApartmentUnitFlat,Apartment / Unit / Flat,False,0,m2,False
2017695355,listing,/2-745-elgar-road-doncaster-vic-3108-2017695355,735000,is-sold,Sold by private treaty 22 Apr 2022,20220422,2/745 Elgar Road,DONCASTER,VIC,3108,-37.7931252,145.120819,2,1,1,Townhouse,Townhouse,False,0,m2,False
2017700428,listing,/3-33-westfield-drive-doncaster-vic-3108-2017700428,865000,is-sold,Sold at auction 30 Apr 2022,20220430,3/33 Westfield Drive,DONCASTER,VIC,3108,-37.7821159,145.127563,3,2,1,Townhouse,Townhouse,False,212,m2,False
2017702741,listing,/16a-outhwaite-avenue-doncaster-vic-3108-2017702741,1020000,is-sold,Sold at auction 23 Apr 2022,20220423,16A Outhwaite Avenue,DONCASTER,VIC,3108,-37.7829552,145.100464,3,2,2,ApartmentUnitFlat,Apartment / Unit / Flat,False,419,m2,False
2017703119,listing,/12-curnola-avenue-doncaster-vic-3108-2017703119,1370000,is-sold,Sold at auction 30 Apr 2022,20220430,12 Curnola Avenue,DONCASTER,VIC,3108,-37.78094,145.109238,3,1,2,House,House,False,724,m2,False
2017709136,listing,/1-808-elgar-road-doncaster-vic-3108-2017709136,828000,is-sold,Sold at auction 30 Apr 2022,20220430,1/808 Elgar Road,DONCASTER,VIC,3108,-37.7891045,145.123779,3,2,2,ApartmentUnitFlat,Apartment / Unit / Flat,False,406,m2,False
2017710805,listing,/6-hardidge-court-doncaster-vic-3108-2017710805,1570000,is-sold,Sold at auction 23 Apr 2022,20220423,6 Hardidge court,DONCASTER,VIC,3108,-37.7944756,145.128983,4,3,2,House,House,False,655,m2,False
2017717709,listing,/410-1-grosvenor-street-doncaster-vic-3108-2017717709,550000,is-sold,Sold by private treaty 27 Apr 2022,20220427,410/1 Grosvenor Street,DONCASTER,VIC,3108,-37.7829666,145.127975,2,1,1,ApartmentUnitFlat,Apartment / Unit / Flat,False,0,m2,False
2017718406,listing,/76-church-road-doncaster-vic-3108-2017718406,1838000,is-sold,Sold at auction 22 Apr 2022,20220422,76 Church Road,DONCASTER,VIC,3108,-37.7906265,145.137375,5,2,2,House,House,False,726,m2,False
2016135722,listing,/13-old-orchard-way-doncaster-vic-3108-2016135722,1400000,is-sold,Sold at auction 30 Mar 2022,20220330,13 Old Orchard Way,DONCASTER,VIC,3108,-37.7809944,145.139633,3,1,2,House,House,False,0,m2,False
2017100872,listing,/16-33-queens-avenue-doncaster-vic-3108-2017100872,430000,is-sold,Sold by private treaty 13 Apr 2022,20220413,16/33 Queens Avenue,DONCASTER,VIC,3108,-37.7874832,145.135452,2,1,1,ApartmentUnitFlat,Apartment / Unit / Flat,False,0,m2,False
2017326920,listing,/409-632-doncaster-road-doncaster-vic-3108-2017326920,327000,is-sold,Sold by private treaty 29 Mar 2022,20220329,409/632 Doncaster Road,DONCASTER,VIC,3108,-37.78779,145.126572,1,1,1,ApartmentUnitFlat,Apartment / Unit / Flat,False,0,m2,False
2017437709,listing,/4-winston-drive-doncaster-vic-3108-2017437709,1550000,is-sold,Sold by private treaty 14 Apr 2022,20220414,4 Winston Drive,DONCASTER,VIC,3108,-37.7789764,145.124542,,,,NewLand,New land,False,661,m2,False
2017592916,listing,/22-33-queens-avenue-doncaster-vic-3108-2017592916,615000,is-sold,Sold by private treaty 14 Apr 2022,20220414,22/33 Queens Avenue,DONCASTER,VIC,3108,-37.7874832,145.135452,2,2,1,ApartmentUnitFlat,Apartment / Unit / Flat,False,0,m2,False
2017634357,listing,/102-5-curlew-court-doncaster-vic-3108-2017634357,385000,is-sold,Sold by private treaty 13 Apr 2022,20220413,102/5 Curlew Court,DONCASTER,VIC,3108,-37.78584,145.134415,1,1,1,ApartmentUnitFlat,Apartment / Unit / Flat,False,0,m2,False
2017643164,listing,/2a-alma-court-doncaster-vic-3108-2017643164,1352000,is-sold,Sold by private treaty 05 Apr 2022,20220405,2A Alma Court,DONCASTER,VIC,3108,-37.7811432,145.138153,3,1,2,House,House,False,535,m2,False
2017644421,listing,/320-101-tram-road-doncaster-vic-3108-2017644421,410000,is-sold,Sold by private treaty 12 Apr 2022,20220412,320/101 Tram Road,DONCASTER,VIC,3108,-37.78801,145.1245,2,2,1,ApartmentUnitFlat,Apartment / Unit / Flat,False,0,m2,False
2017651797,listing,/4-nauru-court-doncaster-vic-3108-2017651797,2710000,is-sold,Sold at auction 09 Apr 2022,20220409,4 Nauru Court,DONCASTER,VIC,3108,-37.7936668,145.12207,5,3,2,House,House,False,0,m2,False
2017652779,listing,/2-30-32-larkspur-avenue-doncaster-vic-3108-2017652779,951000,is-sold,Sold at auction 02 Apr 2022,20220402,2/30-32 Larkspur Avenue,DONCASTER,VIC,3108,-37.7945,145.131088,3,2,2,Townhouse,Townhouse,False,171,m2,False
2017657457,listing,/61-burgundy-drive-doncaster-vic-3108-2017657457,1720000,is-sold,Sold prior to auction 06 Apr 2022,20220406,61 Burgundy Drive,DONCASTER,VIC,3108,-37.7822,145.118317,4,3,2,House,House,False,0,m2,False
2017666446,listing,/11-dion-street-doncaster-vic-3108-2017666446,1500000,is-sold,Sold at auction 09 Apr 2022,20220409,11 Dion Street,DONCASTER,VIC,3108,-37.7756271,145.11235,4,1,2,House,House,False,728,m2,False
2017668119,listing,/52-winston-drive-doncaster-vic-3108-2017668119,1575000,is-sold,Sold at auction 09 Apr 2022,20220409,52 Winston Drive,DONCASTER,VIC,3108,-37.7796249,145.130142,4,2,2,House,House,False,712,m2,False
2017669239,listing,/21-eildon-street-doncaster-vic-3108-2017669239,1500000,is-sold,Sold at auction 09 Apr 2022,20220409,21 Eildon Street,DONCASTER,VIC,3108,-37.7942734,145.123291,4,2,5,House,House,False,745,m2,False
2017671734,listing,/3-23-firth-street-doncaster-vic-3108-2017671734,427000,is-sold,Sold at auction 09 Apr 2022,20220409,3/23 Firth Street,DONCASTER,VIC,3108,-37.7866478,145.1209,2,1,2,ApartmentUnitFlat,Apartment / Unit / Flat,False,0,m2,False
2017672065,listing,/34-dunoon-street-doncaster-vic-3108-2017672065,1440000,is-sold,Sold at auction 09 Apr 2022,20220409,34 Dunoon Street,DONCASTER,VIC,3108,-37.7939034,145.13855,4,1,1,House,House,False,687,m2,False
2017673050,listing,/doncaster-vic-3108-2017673050,1060000,is-sold,Sold by private treaty 02 Apr 2022,20220402,,DONCASTER,VIC,3108,-37.7865829,145.121033,3,2,2,Townhouse,Townhouse,False,238,m2,False
2017673354,listing,/2-burgundy-drive-doncaster-vic-3108-2017673354,1255000,is-sold,Sold at auction 09 Apr 2022,20220409,2 Burgundy Drive,DONCASTER,VIC,3108,-37.77804,145.11972,4,2,2,House,House,False,718,m2,False
2017687288,listing,/35-anthony-avenue-doncaster-vic-3108-2017687288,1580000,is-sold,Sold at auction 05 Apr 2022,20220405,35 Anthony Avenue,DONCASTER,VIC,3108,-37.7752037,145.110931,5,2,2,House,House,False,881,m2,False
2017752863,listing,/903-20-24-hepburn-road-doncaster-vic-3108-2017752863,488000,is-sold,Sold by private treaty 12 Apr 2022,20220412,903/20-24 Hepburn Road,DONCASTER,VIC,3108,-37.7884331,145.129547,2,1,1,ApartmentUnitFlat,Apartment / Unit / Flat,False,0,m2,False
2017362583,listing,/9a-sargent-street-doncaster-vic-3108-2017362583,715000,is-sold,Sold by private treaty 22 Mar 2022,20220322,9a Sargent Street,DONCASTER,VIC,3108,-37.7962456,145.120224,,,,VacantLand,Vacant land,False,386,m2,False
2017393326,listing,/48-ayr-street-doncaster-vic-3108-2017393326,,is-sold,Sold by private treaty 21 Mar 2022,20220321,48 Ayr Street,DONCASTER,VIC,3108,-37.7833748,145.102783,3,1,4,ApartmentUnitFlat,Apartment / Unit / Flat,False,210,m2,False
2017397870,listing,/6-tandara-avenue-doncaster-vic-3108-2017397870,1645000,is-sold,Sold at auction 19 Mar 2022,20220319,6 Tandara Avenue,DONCASTER,VIC,3108,-37.7904663,145.137909,4,2,2,House,House,False,787,m2,False
2017554003,listing,/103-19-frederick-street-doncaster-vic-3108-2017554003,760000,is-sold,Sold by private treaty 22 Mar 2022,20220322,103/19 Frederick Street,DONCASTER,VIC,3108,-37.7894821,145.126236,3,2,2,ApartmentUnitFlat,Apartment / Unit / Flat,False,0,m2,False
2017561360,listing,/202-632-doncaster-road-doncaster-vic-3108-2017561360,483000,is-sold,Sold by private treaty 23 Mar 2022,20220323,202/632 Doncaster Road,DONCASTER,VIC,3108,-37.78777,145.126511,2,2,2,ApartmentUnitFlat,Apartment / Unit / Flat,False,0,m2,False
2017568460,listing,/614-9-11-williamsons-road-doncaster-vic-3108-2017568460,550000,is-sold,Sold by private treaty 24 Mar 2022,20220324,614/9-11 Williamsons Road,DONCASTER,VIC,3108,-37.7859039,145.124329,2,2,1,ApartmentUnitFlat,Apartment / Unit / Flat,False,0,m2,False
2017568497,listing,/17-timber-ridge-doncaster-vic-3108-2017568497,1325000,is-sold,Sold by private treaty 29 Mar 2022,20220329,17 Timber Ridge,DONCASTER,VIC,3108,-37.7775574,145.111572,4,2,2,House,House,False,480,m2,False
2017576706,listing,/4-4-whittens-lane-doncaster-vic-3108-2017576706,1060000,is-sold,Sold by private treaty 19 Mar 2022,20220319,4/4 Whittens Lane,DONCASTER,VIC,3108,-37.7959175,145.126877,4,2,2,Townhouse,Townhouse,False,0,m2,False
2017605771,listing,/13a-curnola-avenue-doncaster-vic-3108-2017605771,1680000,is-sold,Sold by private treaty 23 Mar 2022,20220323,13A Curnola Avenue,DONCASTER,VIC,3108,-37.7804642,145.109451,4,3,2,Townhouse,Townhouse,False,0,m2,False
2017610233,listing,/3-toronto-avenue-doncaster-vic-3108-2017610233,2260000,is-sold,Sold at auction 19 Mar 2022,20220319,3 Toronto Avenue,DONCASTER,VIC,3108,-37.7926025,145.111526,4,4,2,House,House,False,0,m2,False
2017614649,listing,/41-caladenia-circuit-doncaster-vic-3108-2017614649,2537000,is-sold,Sold at auction 26 Mar 2022,20220326,41 Caladenia Circuit,DONCASTER,VIC,3108,-37.78517,145.1126,5,4,2,House,House,False,435,m2,False
2017619960,listing,/709-632-doncaster-road-doncaster-vic-3108-2017619960,355000,is-sold,Sold by private treaty 28 Mar 2022,20220328,709/632 Doncaster Road,DONCASTER,VIC,3108,-37.78777,145.126511,1,1,1,ApartmentUnitFlat,Apartment / Unit / Flat,False,0,m2,False
2017628552,listing,/103-5-curlew-court-doncaster-vic-3108-2017628552,375000,is-sold,Sold 28 Mar 2022,20220328,103/5 Curlew Court,DONCASTER,VIC,3108,-37.78584,145.134415,1,1,1,ApartmentUnitFlat,Apartment / Unit / Flat,False,0,m2,False
2017632017,listing,/15a-henry-street-doncaster-vic-3108-2017632017,991800,is-sold,Sold by private treaty 28 Mar 2022,20220328,15A Henry Street,DONCASTER,VIC,3108,-37.7750854,145.129089,3,2,2,Townhouse,Townhouse,False,0,m2,False
2017633245,listing,/61-stanton-street-doncaster-vic-3108-2017633245,1353888,is-sold,Sold at auction 26 Mar 2022,20220326,61 Stanton Street,DONCASTER,VIC,3108,-37.7933655,145.1101,4,2,1,House,House,False,0,m2,False
2017634163,listing,/2-4-6-blair-street-doncaster-vic-3108-2017634163,1100000,is-sold,Sold by private treaty 21 Mar 2022,20220321,2/4-6 Blair Street,DONCASTER,VIC,3108,-37.7882462,145.1343,4,2,2,Townhouse,Townhouse,False,0,m2,False
2017645507,listing,/210-20-hepburn-road-doncaster-vic-3108-2017645507,500000,is-sold,Sold by private treaty 25 Mar 2022,20220325,210/20 Hepburn Road,DONCASTER,VIC,3108,-37.78826,145.1292,2,1,1,ApartmentUnitFlat,Apartment / Unit / Flat,False,0,m2,False
2017647770,listing,/773-elgar-road-doncaster-vic-3108-2017647770,1550000,is-sold,Sold prior to auction 29 Mar 2022,20220329,773 Elgar Road,DONCASTER,VIC,3108,-37.7911949,145.122086,4,2,3,House,House,False,664,m2,False
2017651146,listing,/16-windella-quad-doncaster-vic-3108-2017651146,1375000,is-sold,Sold at auction 26 Mar 2022,20220326,16 Windella Quad,DONCASTER,VIC,3108,-37.7932243,145.135025,4,2,2,House,House,False,677,m2,False
2017670908,listing,/12-morris-street-doncaster-vic-3108-2017670908,1370000,is-sold,Sold by private treaty 28 Mar 2022,20220328,12 Morris Street,DONCASTER,VIC,3108,-37.79301,145.1184,3,1,1,House,House,False,877,m2,False
2015957536,listing,/408-20-hepburn-road-doncaster-vic-3108-2015957536,650000,is-sold,Sold by private treaty 08 Mar 2022,20220308,408/20 Hepburn Road,DONCASTER,VIC,3108,-37.78826,145.1292,3,2,2,ApartmentUnitFlat,Apartment / Unit / Flat,False,0,m2,False
2016928163,listing,/603-20-hepburn-road-doncaster-vic-3108-2016928163,475000,is-sold,Sold by private treaty 09 Mar 2022,20220309,603/20 Hepburn Road,DONCASTER,VIC,3108,-37.7884331,145.129547,2,1,1,ApartmentUnitFlat,Apartment / Unit / Flat,False,0,m2,False
2017296901,listing,/806-91-93-tram-road-doncaster-vic-3108-2017296901,500000,is-sold,Sold by private treaty 05 Mar 2022,20220305,806/91-93 Tram Road,DONCASTER,VIC,3108,-37.7890739,145.12468,2,2,1,ApartmentUnitFlat,Apartment / Unit / Flat,False,0,m2,False
2017396592,listing,/29-765-767-doncaster-road-doncaster-vic-3108-2017396592,500000,is-sold,Sold by private treaty 08 Mar 2022,20220308,29/765-767 Doncaster Road,DONCASTER,VIC,3108,-37.78661,145.134964,2,2,1,ApartmentUnitFlat,Apartment / Unit / Flat,False,0,m2,False
2017450605,listing,/33-marilyn-street-doncaster-vic-3108-2017450605,1570000,is-sold,Sold at auction 09 Mar 2022,20220309,33 Marilyn Street,DONCASTER,VIC,3108,-37.7762833,145.10498,4,3,,House,House,False,720,m2,False
2017550054,listing,/12-160-williamsons-road-doncaster-vic-3108-2017550054,380000,is-sold,Sold by private treaty 18 Mar 2022,20220318,12/160 Williamsons Road,DONCASTER,VIC,3108,-37.7744,145.127426,1,1,1,ApartmentUnitFlat,Apartment / Unit / Flat,False,0,m2,False
2017557353,listing,/2-terence-court-doncaster-vic-3108-2017557353,1545000,is-sold,Sold by private treaty 09 Mar 2022,20220309,2 Terence Court,DONCASTER,VIC,3108,-37.7796478,145.1214,4,3,2,House,House,False,656,m2,False
2017575251,listing,/37-finlayson-street-doncaster-vic-3108-2017575251,1867000,is-sold,Sold at auction 05 Mar 2022,20220305,37 Finlayson Street,DONCASTER,VIC,3108,-37.7885551,145.10907,4,3,2,Townhouse,Townhouse,False,360,m2,False
2017586055,listing,/38-bordeaux-street-doncaster-vic-3108-2017586055,1610000,is-sold,Sold at auction 05 Mar 2022,20220305,38 Bordeaux Street,DONCASTER,VIC,3108,-37.7823029,145.119125,3,2,2,House,House,False,655,m2,False
2017591555,listing,/32-koolkuna-avenue-doncaster-vic-3108-2017591555,1425000,is-sold,Sold at auction 12 Mar 2022,20220312,32 Koolkuna Avenue,DONCASTER,VIC,3108,-37.7901421,145.115845,4,3,2,House,House,False,740,m2,False
2017592176,listing,/3-712-elgar-road-doncaster-vic-3108-2017592176,874000,is-sold,Sold at auction 12 Mar 2022,20220312,3/712 Elgar Road,DONCASTER,VIC,3108,-37.7953072,145.119965,3,2,2,Townhouse,Townhouse,False,0,m2,False
2017592620,listing,/7-somerville-street-doncaster-vic-3108-2017592620,1520500,is-sold,Sold at auction 12 Mar 2022,20220312,7 Somerville Street,DONCASTER,VIC,3108,-37.7778168,145.1145,4,2,3,House,House,False,762,m2,False
2017594122,listing,/7-teak-court-doncaster-vic-3108-2017594122,1300000,is-sold,Sold at auction 05 Mar 2022,20220305,7 Teak Court,DONCASTER,VIC,3108,-37.7946167,145.135361,3,2,1,House,House,False,704,m2,False
2017600505,listing,/4-70-ayr-street-doncaster-vic-3108-2017600505,1006000,is-sold,Sold at auction 12 Mar 2022,20220312,4/70 Ayr Street,DONCASTER,VIC,3108,-37.78142,145.103119,4,2,2,Townhouse,Townhouse,False,279,m2,False
2017608998,listing,/2-57-baird-street-south-doncaster-vic-3108-2017608998,800000,is-sold,Sold at auction 19 Mar 2022,20220319,2/57 Baird Street South,DONCASTER,VIC,3108,-37.79242,145.131317,2,2,1,Villa,Villa,False,0,m2,False
2017609061,listing,/1-le-mans-court-doncaster-vic-3108-2017609061,3090000,is-sold,Sold by private treaty 17 Mar 2022,20220317,1 Le Mans Court,DONCASTER,VIC,3108,-37.7740364,145.1078,5,4,2,House,House,False,0,m2,False
2017609398,listing,/20-clancys-lane-doncaster-vic-3108-2017609398,1438000,is-sold,Sold at auction 16 Mar 2022,20220316,20 Clancys Lane,DONCASTER,VIC,3108,-37.7760544,145.1279,4,2,2,House,House,False,661,m2,False
2017619368,listing,/3-13-15-goodson-street-doncaster-vic-3108-2017619368,505000,is-sold,Sold by private treaty 04 Mar 2022,20220304,3/13-15 Goodson Street,DONCASTER,VIC,3108,-37.7851219,145.128189,2,1,1,ApartmentUnitFlat,Apartment / Unit / Flat,False,0,m2,False
2017621000,listing,/12-222-williamsons-road-doncaster-vic-3108-2017621000,712000,is-sold,Sold by private treaty 09 Mar 2022,20220309,12/222 Williamsons Road,DONCASTER,VIC,3108,-37.7683449,145.131042,2,2,1,Townhouse,Townhouse,False,0,m2,False
2017831692,listing,/901-632-doncaster-road-doncaster-vic-3108-2017831692,750000,is-sold,Sold by private treaty 15 Mar 2022,20220315,901/632 Doncaster Road,DONCASTER,VIC,3108,-37.78777,145.126511,2,2,2,ApartmentUnitFlat,Apartment / Unit / Flat,False,0,m2,False
2016704957,listing,/2-29-board-street-doncaster-vic-3108-2016704957,,is-sold,Sold by private treaty 02 Mar 2022,20220302,2/29 Board Street,DONCASTER,VIC,3108,-37.78063,145.135986,4,3,2,Townhouse,Townhouse,False,0,m2,False
2017302824,listing,/103-719-elgar-road-doncaster-vic-3108-2017302824,555000,is-sold,Sold by private treaty 01 Mar 2022,20220301,103/719 Elgar Road,DONCASTER,VIC,3108,-37.7952347,145.118835,2,2,1,ApartmentUnitFlat,Apartment / Unit / Flat,False,0,m2,False
2017328572,listing,/76-tram-road-doncaster-vic-3108-2017328572,1500000,is-sold,Sold by private treaty 25 Feb 2022,20220225,76 Tram Road,DONCASTER,VIC,3108,-37.79041,145.1257,3,2,2,House,House,False,712,m2,False
2017354714,listing,/308-8-berkeley-street-doncaster-vic-3108-2017354714,405000,is-sold,Sold by private treaty 04 Mar 2022,20220304,308/8 Berkeley Street,DONCASTER,VIC,3108,-37.78564,145.128555,1,1,1,ApartmentUnitFlat,Apartment / Unit / Flat,False,0,m2,False
2017412503,listing,/203-8-hepburn-road-doncaster-vic-3108-2017412503,665000,is-sold,Sold by private treaty 24 Feb 2022,20220224,203/8 Hepburn Road,DONCASTER,VIC,3108,-37.78865,145.131042,3,2,2,ApartmentUnitFlat,Apartment / Unit / Flat,False,0,m2,False
2017462527,listing,/114-8-berkeley-street-doncaster-vic-3108-2017462527,507000,is-sold,Sold by private treaty 25 Feb 2022,20220225,114/8 Berkeley Street,DONCASTER,VIC,3108,-37.78564,145.128555,2,1,1,ApartmentUnitFlat,Apartment / Unit / Flat,False,0,m2,False
2017535915,listing,/1b-winters-way-doncaster-vic-3108-2017535915,1980000,is-sold,Sold by private treaty 26 Feb 2022,20220226,1B Winters Way,DONCASTER,VIC,3108,-37.77899,145.1125,5,3,2,House,House,False,0,m2,False
2017536441,listing,/5-philip-avenue-doncaster-vic-3108-2017536441,1470000,is-sold,Sold at auction 19 Feb 2022,20220219,5 Philip Avenue,DONCASTER,VIC,3108,-37.7743568,145.113022,3,1,2,House,House,False,749,m2,False
2017543064,listing,/22-fromhold-drive-doncaster-vic-3108-2017543064,1630000,is-sold,Sold at auction 19 Feb 2022,20220219,22 Fromhold Drive,DONCASTER,VIC,3108,-37.78256,145.141663,3,1,2,House,House,False,664,m2,False
2017548417,listing,/66-board-street-doncaster-vic-3108-2017548417,1741000,is-sold,Sold at auction 18 Feb 2022,20220218,66 Board Street,DONCASTER,VIC,3108,-37.7797966,145.1326,6,2,2,House,House,False,660,m2,False
2017554986,listing,/37-rathmullen-quadrant-doncaster-vic-3108-2017554986,1555000,is-sold,Sold at auction 24 Feb 2022,20220224,37 Rathmullen Quadrant,DONCASTER,VIC,3108,-37.7833,145.12001,4,2,2,House,House,False,654,m2,False
2017557498,listing,/76-whittens-lane-doncaster-vic-3108-2017557498,1540000,is-sold,Sold at auction 24 Feb 2022,20220224,76 Whittens Lane,DONCASTER,VIC,3108,-37.7906532,145.132324,4,2,2,House,House,False,653,m2,False
2017558394,listing,/2-gray-street-doncaster-vic-3108-2017558394,1461000,is-sold,Sold at auction 26 Feb 2022,20220226,2 Gray Street,DONCASTER,VIC,3108,-37.7900848,145.106628,4,2,2,House,House,False,476,m2,False
2017558786,listing,/510-20-hepburn-road-doncaster-vic-3108-2017558786,515000,is-sold,Sold by private treaty 23 Feb 2022,20220223,510/20 Hepburn Road,DONCASTER,VIC,3108,-37.78826,145.1292,2,1,1,ApartmentUnitFlat,Apartment / Unit / Flat,False,0,m2,False
2017560312,listing,/159-ayr-street-doncaster-vic-3108-2017560312,1350000,is-sold,Sold at auction 26 Feb 2022,20220226,159 Ayr Street,DONCASTER,VIC,3108,-37.7730865,145.104935,3,1,1,House,House,False,653,m2,False
2017573204,listing,/43-botanic-drive-doncaster-vic-3108-2017573204,1670000,is-sold,Sold at auction 26 Feb 2022,20220226,43 Botanic Drive,DONCASTER,VIC,3108,-37.7782974,145.137039,4,2,4,House,House,False,656,m2,False
2017578431,listing,/9-auburn-crescent-doncaster-vic-3108-2017578431,1260000,is-sold,Sold by private treaty 21 Feb 2022,20220221,9 Auburn Crescent,DONCASTER,VIC,3108,-37.78444,145.116745,3,2,2,House,House,False,0,m2,False
2017584470,listing,/13-33-queens-avenue-doncaster-vic-3108-2017584470,395000,is-sold,Sold by private treaty 02 Mar 2022,20220302,13/33 Queens Avenue,DONCASTER,VIC,3108,-37.7874832,145.135452,1,1,1,ApartmentUnitFlat,Apartment / Unit / Flat,False,0,m2,False
2017586184,listing,/20-village-avenue-doncaster-vic-3108-2017586184,1410000,is-sold,Sold prior to auction 23 Feb 2022,20220223,20 Village Avenue,DONCASTER,VIC,3108,-37.7822647,145.107651,4,1,2,House,House,False,730,m2,False
2017611519,listing,/3-747-elgar-road-doncaster-vic-3108-2017611519,780000,is-sold,Sold by private treaty 04 Mar 2022,20220304,3/747 Elgar Road,DONCASTER,VIC,3108,-37.7927,145.120758,2,1,1,ApartmentUnitFlat,Apartment / Unit / Flat,False,235,m2,False
2016899704,listing,/6-736-doncaster-road-doncaster-vic-3108-2016899704,722000,is-sold,Sold by private treaty 16 Feb 2022,20220216,6/736 Doncaster Road,DONCASTER,VIC,3108,-37.7870178,145.134872,2,2,1,Townhouse,Townhouse,False,0,m2,False
2016980260,listing,/402-632-doncaster-road-doncaster-vic-3108-2016980260,490000,is-sold,Sold by private treaty 11 Feb 2022,20220211,402/632 Doncaster Road,DONCASTER,VIC,3108,-37.78779,145.126572,2,2,2,ApartmentUnitFlat,Apartment / Unit / Flat,False,0,m2,False
