id,listingType,url,price,tagClassName,tagText,date,street,suburb,state,postcode,lat,lng,beds,baths,parking,propertyType,propertyTypeFormatted,isRural,landSize,landUnit,isRetirement
2018094732,listing,/21-lexton-road-box-hill-north-vic-3129-2018094732,1370000,is-sold,Sold by private treaty 02 Feb 2023,20230202,21 Lexton Road,BOX HILL NORTH,VIC,3129,-37.811718,145.1347,4,4,4,House,House,False,0,m2,False
2018140891,listing,/104-771-station-street-box-hill-north-vic-3129-2018140891,323000,is-sold,Sold by private treaty 02 Feb 2023,20230202,104/771 Station Street,BOX HILL NORTH,VIC,3129,-37.8132248,145.12468,1,1,1,ApartmentUnitFlat,Apartment / Unit / Flat,False,0,m2,False
2018182049,listing,/9-hawkins-avenue-mont-albert-north-vic-3129-2018182049,,is-sold,Sold by private treaty 14 Feb 2023,20230214,9 Hawkins Avenue,MONT ALBERT NORTH,VIC,3129,-37.8085747,145.11348,4,4,4,Townhouse,Townhouse,False,300,m2,False
2018191858,listing,/17-arnott-street-mont-albert-north-vic-3129-2018191858,,is-sold,Sold by private treaty 30 Jan 2023,20230130,17 Arnott Street,MONT ALBERT NORTH,VIC,3129,-37.802227,145.1133,5,5,5,House,House,False,574,m2,False
2018193208,listing,/34-dunloe-avenue-mont-albert-north-vic-3129-2018193208,2000000,is-sold,Sold by private treaty 13 Feb 2023,20230213,34 Dunloe Avenue,MONT ALBERT NORTH,VIC,3129,-37.80905,145.11322,4,4,4,House,House,False,0,m2,False
2018212822,listing,/1-33-francesca-street-mont-albert-north-vic-3129-2018212822,,is-sold,Sold by private treaty 30 Jan 2023,20230130,1/33 Francesca Street,MONT ALBERT NORTH,VIC,3129,-37.8036156,145.105713,3,3,3,ApartmentUnitFlat,Apartment / Unit / Flat,False,0,m2,False
2018249738,listing,/20a-loddon-street-box-hill-north-vic-3129-2018249738,1060000,is-sold,Sold at auction 11 Feb 2023,20230211,20A Loddon Street,BOX HILL NORTH,VIC,3129,-37.8078575,145.130417,3,3,3,Villa,Villa,False,0,m2,False
2018284763,listing,/35-bundoran-parade-mont-albert-north-vic-3129-2018284763,2141000,is-sold,Sold at auction 11 Feb 2023,20230211,35 Bundoran Parade,MONT ALBERT NORTH,VIC,3129,-37.8095131,145.107819,4,4,4,House,House,False,724,m2,False
2018289196,listing,/967-station-street-box-hill-north-vic-3129-2018289196,,is-sold,Sold at auction 18 Feb 2023,20230218,967 Station Street,BOX HILL NORTH,VIC,3129,-37.7999954,145.126968,3,3,3,House,House,False,753,m2,False
2018295758,listing,/1-102-104-dorking-road-box-hill-north-vic-3129-2018295758,850000,is-sold,Sold at auction 11 Feb 2023,20230211,1/102-104 Dorking Road,BOX HILL NORTH,VIC,3129,-37.81243,145.132111,3,3,3,ApartmentUnitFlat,Apartment / Unit / Flat,False,259,m2,False
2018296555,listing,/4-67-severn-street-box-hill-north-vic-3129-2018296555,736000,is-sold,Sold at auction 11 Feb 2023,20230211,4/67 Severn Street,BOX HILL NORTH,VIC,3129,-37.8128624,145.123154,2,2,2,ApartmentUnitFlat,Apartment / Unit / Flat,False,0,m2,False
2018303415,listing,/44-kerrimuir-street-box-hill-north-vic-3129-2018303415,1022000,is-sold,Sold at auction 11 Feb 2023,20230211,44 Kerrimuir Street,BOX HILL NORTH,VIC,3129,-37.80481,145.13678,3,3,3,House,House,False,278,m2,False
2018303444,listing,/15-medway-street-box-hill-north-vic-3129-2018303444,,is-sold,Sold prior to auction 02 Feb 2023,20230202,15 Medway Street,BOX HILL NORTH,VIC,3129,-37.8122368,145.129776,3,3,3,House,House,False,0,m2,False
2018308193,listing,/38-olympiad-crescent-box-hill-north-vic-3129-2018308193,,is-sold,Sold at auction 18 Feb 2023,20230218,38 Olympiad Crescent,BOX HILL NORTH,VIC,3129,-37.8066559,145.11998,3,3,3,House,House,False,696,m2,False
2018312803,listing,/54-eram-road-box-hill-north-vic-3129-2018312803,915000,is-sold,Sold at auction 25 Feb 2023,20230225,54 Eram Road,BOX HILL NORTH,VIC,3129,-37.7985954,145.1369,4,4,4,House,House,False,0,m2,False
2018318033,listing,/14-dunloe-avenue-mont-albert-north-vic-3129-2018318033,1703000,is-sold,Sold at auction 25 Feb 2023,20230225,14 Dunloe Avenue,MONT ALBERT NORTH,VIC,3129,-37.809185,145.1147,4,4,4,House,House,False,646,m2,False
2018318062,listing,/2-37-boondara-road-mont-albert-north-vic-3129-2018318062,,is-sold,Sold at auction 25 Feb 2023,20230225,2/37 Boondara Road,MONT ALBERT NORTH,VIC,3129,-37.8030739,145.110229,4,4,4,House,House,False,0,m2,False
2018319412,listing,/5-779-station-street-box-hill-north-vic-3129-2018319412,525000,is-sold,Sold at auction 18 Feb 2023,20230218,5/779 Station Street,BOX HILL NORTH,VIC,3129,-37.8123856,145.124741,3,3,3,ApartmentUnitFlat,Apartment / Unit / Flat,False,0,m2,False
2018322880,listing,/5-102-104-dorking-road-box-hill-north-vic-3129-2018322880,703000,is-sold,Sold at auction 25 Feb 2023,20230225,5/102-104 Dorking Road,BOX HILL NORTH,VIC,3129,-37.81223,145.132217,2,2,2,ApartmentUnitFlat,Apartment / Unit / Flat,False,0,m2,False
2018356261,listing,/34-box-hill-crescent-mont-albert-north-vic-3129-2018356261,,is-sold,Sold prior to auction 27 Feb 2023,20230227,34 Box Hill Crescent,MONT ALBERT NORTH,VIC,3129,-37.8048553,145.115234,3,3,3,House,House,False,401,m2,False
2017467802,listing,/b207-771-station-street-box-hill-north-vic-3129-2017467802,400000,is-sold,Sold by private treaty 18 Jan 2023,20230118,B207/771 Station Street,BOX HILL NORTH,VIC,3129,-37.8132248,145.12468,1,1,1,ApartmentUnitFlat,Apartment / Unit / Flat,False,0,m2,False
2017909552,listing,/box-hill-north-vic-3129-2017909552,1070000,is-sold,Sold by private treaty 07 Dec 2022,20221207,,BOX HILL NORTH,VIC,3129,-37.80176,145.126846,3,3,3,House,House,False,713,m2,False
2018069571,listing,/1-47-packham-street-box-hill-north-vic-3129-2018069571,600000,is-sold,Sold at auction 03 Dec 2022,20221203,1/47 Packham Street,BOX HILL NORTH,VIC,3129,-37.80781,145.134857,2,2,2,ApartmentUnitFlat,Apartment / Unit / Flat,False,0,m2,False
2018090399,listing,/1-516-elgar-road-box-hill-north-vic-3129-2018090399,595000,is-sold,Sold by private treaty 22 Dec 2022,20221222,1/516 Elgar Road,BOX HILL NORTH,VIC,3129,-37.8103447,145.116516,2,2,2,ApartmentUnitFlat,Apartment / Unit / Flat,False,0,m2,False
2018131346,listing,/1-60-watts-street-box-hill-north-vic-3129-2018131346,1260000,is-sold,Sold at auction 04 Dec 2022,20221204,1/60 Watts Street,BOX HILL NORTH,VIC,3129,-37.8135033,145.126358,4,4,4,Townhouse,Townhouse,False,296,m2,False
2018156025,listing,/2-32-severn-street-box-hill-north-vic-3129-2018156025,706000,is-sold,Sold at auction 03 Dec 2022,20221203,2/32 Severn Street,BOX HILL NORTH,VIC,3129,-37.8128,145.1292,2,2,2,ApartmentUnitFlat,Apartment / Unit / Flat,False,148,m2,False
2018165795,listing,/33-werder-street-box-hill-north-vic-3129-2018165795,1950000,is-sold,Sold by private treaty 08 Dec 2022,20221208,33 Werder Street,BOX HILL NORTH,VIC,3129,-37.80706,145.137192,5,5,5,House,House,False,677,m2,False
2018171697,listing,/2-12-aspinall-road-box-hill-north-vic-3129-2018171697,1020000,is-sold,Sold at auction 03 Dec 2022,20221203,2/12 Aspinall Road,BOX HILL NORTH,VIC,3129,-37.8012962,145.131592,3,3,3,ApartmentUnitFlat,Apartment / Unit / Flat,False,400,m2,False
2018177784,listing,/23-berry-street-box-hill-north-vic-3129-2018177784,,is-sold,Sold at auction 03 Dec 2022,20221203,23 Berry Street,BOX HILL NORTH,VIC,3129,-37.80484,145.1192,5,5,5,House,House,False,0,m2,False
2018189094,listing,/21-kneale-drive-box-hill-north-vic-3129-2018189094,1411000,is-sold,Sold at auction 03 Dec 2022,20221203,21 Kneale Drive,BOX HILL NORTH,VIC,3129,-37.8061142,145.131088,3,3,3,House,House,False,719,m2,False
2018197357,listing,/9-orchard-crescent-mont-albert-north-vic-3129-2018197357,1800000,is-sold,Sold at auction 10 Dec 2022,20221210,9 Orchard Crescent,MONT ALBERT NORTH,VIC,3129,-37.79946,145.104462,5,5,5,House,House,False,585,m2,False
2018202783,listing,/2-60-watts-street-box-hill-north-vic-3129-2018202783,,is-sold,Sold by private treaty 12 Dec 2022,20221212,2/60 Watts Street,BOX HILL NORTH,VIC,3129,-37.8135033,145.126358,4,4,4,Townhouse,Townhouse,False,0,m2,False
2018203011,listing,/31-toogoods-rise-box-hill-north-vic-3129-2018203011,,is-sold,Sold by private treaty 19 Dec 2022,20221219,31 Toogoods Rise,BOX HILL NORTH,VIC,3129,-37.80134,145.137741,3,3,3,House,House,False,586,m2,False
2018207497,listing,/1-18-lawford-street-box-hill-north-vic-3129-2018207497,,is-sold,Sold at auction 10 Dec 2022,20221210,1/18 Lawford Street,BOX HILL NORTH,VIC,3129,-37.7997551,145.12616,5,5,5,Townhouse,Townhouse,False,0,m2,False
2018219722,listing,/6-melrose-street-mont-albert-north-vic-3129-2018219722,,is-sold,Sold at auction 11 Dec 2022,20221211,6 Melrose Street,MONT ALBERT NORTH,VIC,3129,-37.81078,145.109634,3,3,3,House,House,False,944,m2,False
2018220938,listing,/7-anthony-crescent-box-hill-north-vic-3129-2018220938,1416000,is-sold,Sold at auction 17 Dec 2022,20221217,7 Anthony Crescent,BOX HILL NORTH,VIC,3129,-37.8004341,145.119247,4,4,4,House,House,False,738,m2,False
2018223546,listing,/34-williamson-road-mont-albert-north-vic-3129-2018223546,,is-sold,Sold by private treaty 20 Dec 2022,20221220,34 Williamson Road,MONT ALBERT NORTH,VIC,3129,-37.79954,145.1124,4,4,4,Townhouse,Townhouse,False,0,m2,False
2018227126,listing,/2-29-boondara-road-mont-albert-north-vic-3129-2018227126,679000,is-sold,Sold at auction 17 Dec 2022,20221217,2/29 Boondara Road,MONT ALBERT NORTH,VIC,3129,-37.80376,145.110062,2,2,2,ApartmentUnitFlat,Apartment / Unit / Flat,False,0,m2,False
2018228962,listing,/1-773-station-street-box-hill-north-vic-3129-2018228962,,is-sold,Sold by private treaty 20 Dec 2022,20221220,1/773 Station Street,BOX HILL NORTH,VIC,3129,-37.8130035,145.124542,3,3,3,Townhouse,Townhouse,False,0,m2,False
2018248541,listing,/926-station-street-box-hill-north-vic-3129-2018248541,,is-sold,Sold by private treaty 14 Dec 2022,20221214,926 Station Street,BOX HILL NORTH,VIC,3129,-37.80269,145.127,3,3,3,House,House,False,537,m2,False
2017986296,listing,/517-belmore-road-mont-albert-north-vic-3129-2017986296,,is-sold,Sold by private treaty 08 Nov 2022,20221108,517 Belmore Road,MONT ALBERT NORTH,VIC,3129,-37.80008,145.1155,3,3,3,House,House,False,614,m2,False
2018035224,listing,/34-toogoods-rise-box-hill-north-vic-3129-2018035224,1220000,is-sold,Sold by private treaty 06 Nov 2022,20221106,34 Toogoods Rise,BOX HILL NORTH,VIC,3129,-37.8009071,145.137436,3,3,3,House,House,False,592,m2,False
2018105508,listing,/15-19-paul-avenue-box-hill-north-vic-3129-2018105508,729000,is-sold,Sold at auction 05 Nov 2022,20221105,15/19 Paul Avenue,BOX HILL NORTH,VIC,3129,-37.7988129,145.121918,3,3,3,ApartmentUnitFlat,Apartment / Unit / Flat,False,300,m2,False
2018115388,listing,/33-moselle-street-mont-albert-north-vic-3129-2018115388,2135000,is-sold,Sold at auction 06 Nov 2022,20221106,33 Moselle Street,MONT ALBERT NORTH,VIC,3129,-37.80406,145.108826,4,4,4,House,House,False,1023,m2,False
2018130663,listing,/110-clyde-street-box-hill-north-vic-3129-2018130663,1566000,is-sold,Sold at auction 12 Nov 2022,20221112,110 Clyde Street,BOX HILL NORTH,VIC,3129,-37.8086624,145.122025,2,2,2,House,House,False,766,m2,False
2018131792,listing,/229-dorking-road-box-hill-north-vic-3129-2018131792,1370000,is-sold,Sold at auction 12 Nov 2022,20221112,229 Dorking Road,BOX HILL NORTH,VIC,3129,-37.79919,145.134216,4,4,4,House,House,False,558,m2,False
2018135102,listing,/46-heathfield-rise-box-hill-north-vic-3129-2018135102,1081000,is-sold,Sold at auction 19 Nov 2022,20221119,46 Heathfield Rise,BOX HILL NORTH,VIC,3129,-37.8024864,145.136917,3,3,3,House,House,False,594,m2,False
2018138726,listing,/29-boxleigh-grove-box-hill-north-vic-3129-2018138726,1100000,is-sold,Sold at auction 12 Nov 2022,20221112,29 Boxleigh Grove,BOX HILL NORTH,VIC,3129,-37.79918,145.1308,5,5,5,House,House,False,579,m2,False
2018138972,listing,/48-clyde-street-box-hill-north-vic-3129-2018138972,,is-sold,Sold at auction 12 Nov 2022,20221112,48 Clyde Street,BOX HILL NORTH,VIC,3129,-37.80924,145.12677,4,4,4,House,House,False,893,m2,False
2018144272,listing,/12-mitta-street-box-hill-north-vic-3129-2018144272,1190000,is-sold,Sold at auction 19 Nov 2022,20221119,12 Mitta Street,BOX HILL NORTH,VIC,3129,-37.8060837,145.122986,3,3,3,House,House,False,589,m2,False
2018149049,listing,/5-140-thames-street-box-hill-north-vic-3129-2018149049,630495,is-sold,Sold by private treaty 09 Nov 2022,20221109,5/140 Thames Street,BOX HILL NORTH,VIC,3129,-37.81236,145.117142,2,2,2,Townhouse,Townhouse,False,0,m2,False
2018150877,listing,/73-orchard-crescent-mont-albert-north-vic-3129-2018150877,,is-sold,Sold by private treaty 22 Nov 2022,20221122,73 Orchard Crescent,MONT ALBERT NORTH,VIC,3129,-37.7953262,145.108765,4,4,4,House,House,False,846,m2,False
2018151720,listing,/1-third-avenue-box-hill-north-vic-3129-2018151720,1100000,is-sold,Sold by private treaty 23 Nov 2022,20221123,1 Third Avenue,BOX HILL NORTH,VIC,3129,-37.7995529,145.138733,3,3,3,House,House,False,732,m2,False
2018154298,listing,/17-clyde-street-box-hill-north-vic-3129-2018154298,1340000,is-sold,Sold at auction 19 Nov 2022,20221119,17 Clyde Street,BOX HILL NORTH,VIC,3129,-37.8100929,145.130478,3,3,3,House,House,False,274,m2,False
2018154659,listing,/42-mersey-street-box-hill-north-vic-3129-2018154659,1003000,is-sold,Sold at auction 19 Nov 2022,20221119,42 Mersey Street,BOX HILL NORTH,VIC,3129,-37.81019,145.131271,3,3,3,House,House,False,385,m2,False
2018172458,listing,/103-clyde-street-box-hill-north-vic-3129-2018172458,1560000,is-sold,Sold at auction 26 Nov 2022,20221126,103 Clyde Street,BOX HILL NORTH,VIC,3129,-37.809288,145.122726,2,2,2,House,House,False,755,m2,False
2018174018,listing,/834-station-street-box-hill-north-vic-3129-2018174018,1640000,is-sold,Sold at auction 26 Nov 2022,20221126,834 Station Street,BOX HILL NORTH,VIC,3129,-37.8098679,145.1257,5,5,5,House,House,False,750,m2,False
2018175351,listing,/2-140-nelson-road-box-hill-north-vic-3129-2018175351,692000,is-sold,Sold at auction 26 Nov 2022,20221126,2/140 Nelson Road,BOX HILL NORTH,VIC,3129,-37.8079758,145.121445,2,2,2,ApartmentUnitFlat,Apartment / Unit / Flat,False,0,m2,False
2018188001,listing,/8-mayfair-mont-albert-north-vic-3129-2018188001,973000,is-sold,Sold at auction 01 Dec 2022,20221201,8 Mayfair,MONT ALBERT NORTH,VIC,3129,-37.80085,145.109787,3,3,3,House,House,False,0,m2,False
2018211695,listing,/box-hill-north-vic-3129-2018211695,,is-sold,Sold by private treaty 15 Nov 2022,20221115,,BOX HILL NORTH,VIC,3129,-37.80176,145.126846,3,3,3,ApartmentUnitFlat,Apartment / Unit / Flat,False,263,m2,False
2017879471,listing,/101-shannon-street-box-hill-north-vic-3129-2017879471,2550000,is-sold,Sold by private treaty 18 Oct 2022,20221018,101 Shannon Street,BOX HILL NORTH,VIC,3129,-37.8077927,145.119278,5,5,5,House,House,False,689,m2,False
2018038636,listing,/4-112-dorking-road-box-hill-north-vic-3129-2018038636,748000,is-sold,Sold by private treaty 11 Oct 2022,20221011,4/112 Dorking Road,BOX HILL NORTH,VIC,3129,-37.81155,145.132538,3,3,3,ApartmentUnitFlat,Apartment / Unit / Flat,False,0,m2,False
2018056114,listing,/53-tyne-street-box-hill-north-vic-3129-2018056114,3050000,is-sold,Sold at auction 08 Oct 2022,20221008,53 Tyne Street,BOX HILL NORTH,VIC,3129,-37.81062,145.124344,5,5,5,House,House,False,819,m2,False
2018059789,listing,/32-arnott-street-mont-albert-north-vic-3129-2018059789,1450000,is-sold,Sold by private treaty 24 Oct 2022,20221024,32 Arnott Street,MONT ALBERT NORTH,VIC,3129,-37.80234,145.114792,4,4,4,House,House,False,696,m2,False
2018060862,listing,/3-872-station-street-box-hill-north-vic-3129-2018060862,730000,is-sold,Sold at auction 08 Oct 2022,20221008,3/872 Station Street,BOX HILL NORTH,VIC,3129,-37.8077621,145.126465,2,2,2,ApartmentUnitFlat,Apartment / Unit / Flat,False,290,m2,False
2018060962,listing,/14-kneale-drive-box-hill-north-vic-3129-2018060962,775000,is-sold,Sold by private treaty 13 Oct 2022,20221013,14 Kneale Drive,BOX HILL NORTH,VIC,3129,-37.8061829,145.129456,3,3,3,House,House,False,282,m2,False
2018063171,listing,/19-mckean-street-box-hill-north-vic-3129-2018063171,1720000,is-sold,Sold at auction 15 Oct 2022,20221015,19 McKean Street,BOX HILL NORTH,VIC,3129,-37.81326,145.134064,4,4,4,House,House,False,712,m2,False
2018072494,listing,/2-10-rye-street-box-hill-north-vic-3129-2018072494,922000,is-sold,Sold at auction 15 Oct 2022,20221015,2/10 Rye Street,BOX HILL NORTH,VIC,3129,-37.8005,145.132339,3,3,3,ApartmentUnitFlat,Apartment / Unit / Flat,False,290,m2,False
2018076472,listing,/3-20-orchard-crescent-mont-albert-north-vic-3129-2018076472,1200000,is-sold,Sold prior to auction 14 Oct 2022,20221014,3/20 Orchard Crescent,MONT ALBERT NORTH,VIC,3129,-37.79849,145.1056,3,3,3,ApartmentUnitFlat,Apartment / Unit / Flat,False,0,m2,False
2018089843,listing,/3-milne-road-mont-albert-north-vic-3129-2018089843,2400000,is-sold,Sold at auction 22 Oct 2022,20221022,3 Milne Road,MONT ALBERT NORTH,VIC,3129,-37.799675,145.111,4,4,4,House,House,False,636,m2,False
2018095559,listing,/22-berry-street-box-hill-north-vic-3129-2018095559,1310000,is-sold,Sold at auction 22 Oct 2022,20221022,22 Berry Street,BOX HILL NORTH,VIC,3129,-37.8044167,145.119461,3,3,3,House,House,False,565,m2,False
2018097168,listing,/2-22-horfield-avenue-box-hill-north-vic-3129-2018097168,1070000,is-sold,Sold at auction 24 Oct 2022,20221024,2/22 Horfield Avenue,BOX HILL NORTH,VIC,3129,-37.80177,145.120361,3,3,3,ApartmentUnitFlat,Apartment / Unit / Flat,False,275,m2,False
2018101456,listing,/2-9-narallah-grove-box-hill-north-vic-3129-2018101456,1170000,is-sold,Sold at auction 29 Oct 2022,20221029,2/9 Narallah Grove,BOX HILL NORTH,VIC,3129,-37.7996521,145.128723,3,3,3,ApartmentUnitFlat,Apartment / Unit / Flat,False,319,m2,False
2018104043,listing,/41-saxton-street-box-hill-north-vic-3129-2018104043,1261000,is-sold,Sold at auction 23 Oct 2022,20221023,41 Saxton Street,BOX HILL NORTH,VIC,3129,-37.8042068,145.121872,3,3,3,House,House,False,589,m2,False
2018104162,listing,/47b-boondara-road-mont-albert-north-vic-3129-2018104162,1135000,is-sold,Sold at auction 29 Oct 2022,20221029,47B Boondara Road,MONT ALBERT NORTH,VIC,3129,-37.80159,145.110657,3,3,3,House,House,False,381,m2,False
2018108381,listing,/4a-tyne-street-box-hill-north-vic-3129-2018108381,,is-sold,Sold by private treaty 18 Oct 2022,20221018,4A Tyne Street,BOX HILL NORTH,VIC,3129,-37.8107872,145.130539,3,3,3,House,House,False,269,m2,False
2018112059,listing,/10-roycliff-court-box-hill-north-vic-3129-2018112059,1593000,is-sold,Sold at auction 05 Nov 2022,20221105,10 Roycliff Court,BOX HILL NORTH,VIC,3129,-37.8055573,145.118073,4,4,4,House,House,False,652,m2,False
2018112307,listing,/7c-wimmera-street-box-hill-north-vic-3129-2018112307,917000,is-sold,Sold at auction 05 Nov 2022,20221105,7C Wimmera Street,BOX HILL NORTH,VIC,3129,-37.8066826,145.127335,3,3,3,House,House,False,335,m2,False
2018114860,listing,/14-werder-street-box-hill-north-vic-3129-2018114860,1555000,is-sold,Sold at auction 05 Nov 2022,20221105,14 Werder Street,BOX HILL NORTH,VIC,3129,-37.8067665,145.1392,4,4,4,House,House,False,0,m2,False
2018166651,listing,/53-tyne-street-box-hill-north-vic-3129-2018166651,3050000,is-sold,Sold at auction 08 Oct 2022,20221008,53 Tyne Street,BOX HILL NORTH,VIC,3129,-37.81062,145.124344,5,5,5,House,House,False,819,m2,False
2017789858,listing,/49-trawool-street-box-hill-north-vic-3129-2017789858,1400000,is-sold,Sold by private treaty 04 Oct 2022,20221004,49 Trawool Street,BOX HILL NORTH,VIC,3129,-37.8062973,145.135666,3,3,3,House,House,False,606,m2,False
2017865219,listing,/879-station-street-box-hill-north-vic-3129-2017865219,,is-sold,Sold by private treaty 26 Sep 2022,20220926,879 Station Street,BOX HILL NORTH,VIC,3129,-37.8074875,145.125641,3,3,3,House,House,False,1011,m2,False
2017926366,listing,/3-573-elgar-road-mont-albert-north-vic-3129-2017926366,802500,is-sold,Sold by private treaty 13 Sep 2022,20220913,3/573 Elgar Road,MONT ALBERT NORTH,VIC,3129,-37.8057976,145.11647,2,2,2,Townhouse,Townhouse,False,277,m2,False
2017927705,listing,/16-twyford-street-box-hill-north-vic-3129-2017927705,1170000,is-sold,Sold by private treaty 13 Sep 2022,20220913,16 Twyford Street,BOX HILL NORTH,VIC,3129,-37.80587,145.139023,3,3,3,House,House,False,649,m2,False
2017948029,listing,/72-melrose-street-mont-albert-north-vic-3129-2017948029,1100000,is-sold,Sold by private treaty 13 Sep 2022,20220913,72 Melrose Street,MONT ALBERT NORTH,VIC,3129,-37.81144,145.115585,3,3,3,Townhouse,Townhouse,False,0,m2,False
2017991082,listing,/1-38a-thames-street-box-hill-north-vic-3129-2017991082,701288,is-sold,Sold by private treaty 06 Sep 2022,20220906,1/38A Thames Street,BOX HILL NORTH,VIC,3129,-37.81383,145.1278,2,2,2,ApartmentUnitFlat,Apartment / Unit / Flat,False,0,m2,False
2017991529,listing,/68-peter-street-box-hill-north-vic-3129-2017991529,1695000,is-sold,Sold by private treaty 29 Sep 2022,20220929,68 Peter Street,BOX HILL NORTH,VIC,3129,-37.7994423,145.126266,4,4,4,House,House,False,740,m2,False
2017991799,listing,/5-41-43-peter-street-box-hill-north-vic-3129-2017991799,730000,is-sold,Sold at auction 07 Sep 2022,20220907,5/41-43 Peter Street,BOX HILL NORTH,VIC,3129,-37.79944,145.122772,3,3,3,ApartmentUnitFlat,Apartment / Unit / Flat,False,0,m2,False
2017992464,listing,/117-woodhouse-grove-box-hill-north-vic-3129-2017992464,1532000,is-sold,Sold at auction 03 Sep 2022,20220903,117 Woodhouse Grove,BOX HILL NORTH,VIC,3129,-37.801815,145.128632,4,4,4,House,House,False,718,m2,False
2017994019,listing,/3-15-ashley-street-box-hill-north-vic-3129-2017994019,1075000,is-sold,Sold at auction 10 Sep 2022,20220910,3/15 Ashley Street,BOX HILL NORTH,VIC,3129,-37.8107529,145.137909,4,4,4,Townhouse,Townhouse,False,0,m2,False
2018000128,listing,/3-50-severn-street-box-hill-north-vic-3129-2018000128,1150000,is-sold,Sold at auction 10 Sep 2022,20220910,3/50 Severn Street,BOX HILL NORTH,VIC,3129,-37.8124,145.1273,4,4,4,Townhouse,Townhouse,False,0,m2,False
2018011718,listing,/14-19-paul-avenue-box-hill-north-vic-3129-2018011718,893000,is-sold,Sold at auction 17 Sep 2022,20220917,14/19 Paul Avenue,BOX HILL NORTH,VIC,3129,-37.79871,145.122238,3,3,3,ApartmentUnitFlat,Apartment / Unit / Flat,False,290,m2,False
2018012785,listing,/9-bundoran-parade-mont-albert-north-vic-3129-2018012785,2100000,is-sold,Sold at auction 10 Sep 2022,20220910,9 Bundoran Parade,MONT ALBERT NORTH,VIC,3129,-37.80912,145.1045,4,4,4,House,House,False,650,m2,False
2018016958,listing,/2-jackson-avenue-mont-albert-north-vic-3129-2018016958,1525000,is-sold,Sold by private treaty 01 Oct 2022,20221001,2 Jackson Avenue,MONT ALBERT NORTH,VIC,3129,-37.79877,145.109268,4,4,4,House,House,False,580,m2,False
2018018304,listing,/19-heathfield-rise-box-hill-north-vic-3129-2018018304,1251000,is-sold,Sold at auction 17 Sep 2022,20220917,19 Heathfield Rise,BOX HILL NORTH,VIC,3129,-37.8030853,145.138687,3,3,3,House,House,False,620,m2,False
2018035495,listing,/36-twyford-street-box-hill-north-vic-3129-2018035495,1231000,is-sold,Sold at auction 01 Oct 2022,20221001,36 Twyford Street,BOX HILL NORTH,VIC,3129,-37.8055954,145.136917,3,3,3,House,House,False,635,m2,False
2018037911,listing,/29-mitta-street-box-hill-north-vic-3129-2018037911,1517000,is-sold,Sold at auction 01 Oct 2022,20221001,29 Mitta Street,BOX HILL NORTH,VIC,3129,-37.80521,145.12262,3,3,3,House,House,False,682,m2,False
2018065312,listing,/2-2-cole-court-box-hill-north-vic-3129-2018065312,1216000,is-sold,Sold by private treaty 22 Sep 2022,20220922,2/2 Cole Court,BOX HILL NORTH,VIC,3129,-37.8030472,145.123718,4,4,4,Townhouse,Townhouse,False,0,m2,False
2018068041,listing,/19-toogoods-rise-box-hill-north-vic-3129-2018068041,1215000,is-sold,Sold by private treaty 27 Sep 2022,20220927,19 Toogoods Rise,BOX HILL NORTH,VIC,3129,-37.8014832,145.138809,3,3,3,House,House,False,589,m2,False
2018076863,listing,/20-lyndhurst-crescent-box-hill-north-vic-3129-2018076863,1755000,is-sold,Sold at auction 03 Oct 2022,20221003,20 Lyndhurst Crescent,BOX HILL NORTH,VIC,3129,-37.7985077,145.132248,4,4,4,House,House,False,330,m2,False
2017370345,listing,/109-761-station-street-box-hill-north-vic-3129-2017370345,345000,is-sold,Sold by private treaty 18 Aug 2022,20220818,109/761 Station Street,BOX HILL NORTH,VIC,3129,-37.81343,145.124557,1,1,1,ApartmentUnitFlat,Apartment / Unit / Flat,False,0,m2,False
2017506659,listing,/3-2b-derwent-street-box-hill-north-vic-3129-2017506659,910600,is-sold,Sold by private treaty 30 Aug 2022,20220830,3/2B Derwent Street,BOX HILL NORTH,VIC,3129,-37.80613,145.1173,3,3,3,Townhouse,Townhouse,False,0,m2,False
2017838694,listing,/1-231-dorking-road-box-hill-north-vic-3129-2017838694,900000,is-sold,Sold by private treaty 02 Sep 2022,20220902,1/231 Dorking Road,BOX HILL NORTH,VIC,3129,-37.7991447,145.134476,4,4,4,Townhouse,Townhouse,False,222,m2,False
2017921195,listing,/40-springfield-road-box-hill-north-vic-3129-2017921195,1265000,is-sold,Sold by private treaty 11 Aug 2022,20220811,40 Springfield Road,BOX HILL NORTH,VIC,3129,-37.80895,145.13678,4,4,4,House,House,False,655,m2,False
2017927883,listing,/15-regan-street-box-hill-north-vic-3129-2017927883,1700000,is-sold,Sold at auction 13 Aug 2022,20220813,15 Regan Street,BOX HILL NORTH,VIC,3129,-37.813488,145.13269,3,3,3,House,House,False,807,m2,False
2017935785,listing,/2a-luther-street-box-hill-north-vic-3129-2017935785,1005500,is-sold,Sold at auction 06 Aug 2022,20220806,2A Luther Street,BOX HILL NORTH,VIC,3129,-37.801857,145.138733,3,3,3,House,House,False,214,m2,False
2017940755,listing,/1-36-clyde-street-box-hill-north-vic-3129-2017940755,950000,is-sold,Sold by private treaty 09 Aug 2022,20220809,1/36 Clyde Street,BOX HILL NORTH,VIC,3129,-37.8095169,145.12822,3,3,3,Townhouse,Townhouse,False,0,m2,False
2017940997,listing,/1-10-strabane-avenue-mont-albert-north-vic-3129-2017940997,1320000,is-sold,Sold by private treaty 31 Aug 2022,20220831,1/10 Strabane Avenue,MONT ALBERT NORTH,VIC,3129,-37.8071671,145.113922,4,4,4,Townhouse,Townhouse,False,0,m2,False
2017942775,listing,/14a-kneale-drive-box-hill-north-vic-3129-2017942775,1195000,is-sold,Sold at auction 12 Aug 2022,20220812,14a Kneale Drive,BOX HILL NORTH,VIC,3129,-37.8061829,145.129456,3,3,3,Townhouse,Townhouse,False,354,m2,False
2017955699,listing,/52-twyford-street-box-hill-north-vic-3129-2017955699,1468000,is-sold,Sold at auction 29 Aug 2022,20220829,52 Twyford Street,BOX HILL NORTH,VIC,3129,-37.8053551,145.134521,5,5,5,House,House,False,652,m2,False
2017957289,listing,/2-eram-road-box-hill-north-vic-3129-2017957289,1580000,is-sold,Sold at auction 27 Aug 2022,20220827,2 Eram Road,BOX HILL NORTH,VIC,3129,-37.7991371,145.141678,5,5,5,House,House,False,660,m2,False
2017961425,listing,/18-martin-street-box-hill-north-vic-3129-2017961425,1196000,is-sold,Sold at auction 20 Aug 2022,20220820,18 Martin Street,BOX HILL NORTH,VIC,3129,-37.8017273,145.135971,3,3,3,House,House,False,605,m2,False
2017964462,listing,/1-2-40-peter-street-box-hill-north-vic-3129-2017964462,1269000,is-sold,Sold at auction 20 Aug 2022,20220820,1-2/40 Peter Street,BOX HILL NORTH,VIC,3129,-37.7997551,145.122437,5,5,5,House,House,False,710,m2,False
2017964638,listing,/2-20-medway-street-box-hill-north-vic-3129-2017964638,1051000,is-sold,Sold at auction 20 Aug 2022,20220820,2/20 Medway Street,BOX HILL NORTH,VIC,3129,-37.8117638,145.129532,3,3,3,ApartmentUnitFlat,Apartment / Unit / Flat,False,374,m2,False
2017965443,listing,/43a-springfield-road-box-hill-north-vic-3129-2017965443,1201000,is-sold,Sold at auction 27 Aug 2022,20220827,43A Springfield Road,BOX HILL NORTH,VIC,3129,-37.80864,145.137848,3,3,3,House,House,False,457,m2,False
2017974378,listing,/1a-caroline-street-box-hill-north-vic-3129-2017974378,1197000,is-sold,Sold at auction 03 Sep 2022,20220903,1A Caroline Street,BOX HILL NORTH,VIC,3129,-37.80918,145.137482,3,3,3,House,House,False,358,m2,False
2017977249,listing,/5-second-avenue-box-hill-north-vic-3129-2017977249,1211388,is-sold,Sold at auction 27 Aug 2022,20220827,5 Second Avenue,BOX HILL NORTH,VIC,3129,-37.7999763,145.1399,3,3,3,House,House,False,716,m2,False
2017980169,listing,/11-narallah-grove-box-hill-north-vic-3129-2017980169,1906000,is-sold,Sold at auction 03 Sep 2022,20220903,11 Narallah Grove,BOX HILL NORTH,VIC,3129,-37.79988,145.128922,3,3,3,Townhouse,Townhouse,False,432,m2,False
2017984078,listing,/12-inglis-street-box-hill-north-vic-3129-2017984078,825000,is-sold,Sold at auction 27 Aug 2022,20220827,12 Inglis Street,BOX HILL NORTH,VIC,3129,-37.8030853,145.124924,3,3,3,ApartmentUnitFlat,Apartment / Unit / Flat,False,207,m2,False
2018014960,listing,/2-99-kenmare-street-mont-albert-north-vic-3129-2018014960,1900000,is-sold,Sold by private treaty 31 Aug 2022,20220831,2/99 Kenmare Street,MONT ALBERT NORTH,VIC,3129,-37.8119774,145.113846,5,5,5,Townhouse,Townhouse,False,323,m2,False
2017792525,listing,/5-378-belmore-road-mont-albert-north-vic-3129-2017792525,1010000,is-sold,Sold by private treaty 22 Jul 2022,20220722,5/378 Belmore Road,MONT ALBERT NORTH,VIC,3129,-37.8024864,145.105148,3,3,3,ApartmentUnitFlat,Apartment / Unit / Flat,False,0,m2,False
2017816423,listing,/2a-courbrant-court-mont-albert-north-vic-3129-2017816423,,is-sold,Sold by private treaty 30 Jul 2022,20220730,2A Courbrant Court,MONT ALBERT NORTH,VIC,3129,-37.8020248,145.112015,3,3,3,Townhouse,Townhouse,False,519,m2,False
2017827866,listing,/5-4-amaroo-court-box-hill-north-vic-3129-2017827866,905000,is-sold,Sold by private treaty 04 Aug 2022,20220804,5/4 Amaroo Court,BOX HILL NORTH,VIC,3129,-37.7977676,145.130051,3,3,3,Townhouse,Townhouse,False,0,m2,False
2017843314,listing,/1-5-peter-street-box-hill-north-vic-3129-2017843314,1045000,is-sold,Sold at auction 25 Jul 2022,20220725,1/5 Peter Street,BOX HILL NORTH,VIC,3129,-37.79915,145.119278,4,4,4,Townhouse,Townhouse,False,271,m2,False
2017844635,listing,/7-horfield-avenue-box-hill-north-vic-3129-2017844635,1460000,is-sold,Sold by private treaty 16 Jul 2022,20220716,7 Horfield Avenue,BOX HILL NORTH,VIC,3129,-37.8013458,145.119034,4,4,4,House,House,False,0,m2,False
2017854358,listing,/4-clyde-street-box-hill-north-vic-3129-2017854358,1275000,is-sold,Sold by private treaty 01 Aug 2022,20220801,4 Clyde Street,BOX HILL NORTH,VIC,3129,-37.80991,145.131714,4,4,4,House,House,False,0,m2,False
2017890996,listing,/57-peter-street-box-hill-north-vic-3129-2017890996,1076500,is-sold,Sold at auction 23 Jul 2022,20220723,57 Peter Street,BOX HILL NORTH,VIC,3129,-37.7995644,145.124237,3,3,3,House,House,False,0,m2,False
2017905577,listing,/3-1-kinsale-crescent-mont-albert-north-vic-3129-2017905577,680000,is-sold,Sold at auction 30 Jul 2022,20220730,3/1 Kinsale Crescent,MONT ALBERT NORTH,VIC,3129,-37.8096962,145.1034,2,2,2,ApartmentUnitFlat,Apartment / Unit / Flat,False,0,m2,False
2017906446,listing,/208-dorking-road-box-hill-north-vic-3129-2017906446,1523000,is-sold,Sold at auction 23 Jul 2022,20220723,208 Dorking Road,BOX HILL NORTH,VIC,3129,-37.80055,145.134415,3,3,3,House,House,False,604,m2,False
2017906858,listing,/4-2-fortune-street-box-hill-north-vic-3129-2017906858,1010000,is-sold,Sold at auction 30 Jul 2022,20220730,4/2 Fortune Street,BOX HILL NORTH,VIC,3129,-37.80941,145.138626,3,3,3,Townhouse,Townhouse,False,202,m2,False
2017906927,listing,/2a-tyne-street-box-hill-north-vic-3129-2017906927,1436000,is-sold,Sold at auction 30 Jul 2022,20220730,2A Tyne Street,BOX HILL NORTH,VIC,3129,-37.8108826,145.131348,3,3,3,House,House,False,0,m2,False
2017908484,listing,/2a-belgravia-avenue-mont-albert-north-vic-3129-2017908484,1188000,is-sold,Sold by private treaty 27 Jul 2022,20220727,2A Belgravia Avenue,MONT ALBERT NORTH,VIC,3129,-37.80127,145.106354,3,3,3,House,House,False,382,m2,False
2017911600,listing,/1-12-box-hill-crescent-mont-albert-north-vic-3129-2017911600,890000,is-sold,Sold by private treaty 03 Aug 2022,20220803,1/12 Box Hill Crescent,MONT ALBERT NORTH,VIC,3129,-37.80713,145.115112,3,3,3,ApartmentUnitFlat,Apartment / Unit / Flat,False,0,m2,False
2017912740,listing,/3-29-boondara-road-mont-albert-north-vic-3129-2017912740,720000,is-sold,Sold by private treaty 04 Aug 2022,20220804,3/29 Boondara Road,MONT ALBERT NORTH,VIC,3129,-37.80376,145.109863,2,2,2,ApartmentUnitFlat,Apartment / Unit / Flat,False,0,m2,False
2017915667,listing,/36-box-hill-crescent-mont-albert-north-vic-3129-2017915667,1250000,is-sold,Sold by private treaty 28 Jul 2022,20220728,36 Box Hill Crescent,MONT ALBERT NORTH,VIC,3129,-37.8047371,145.115326,3,3,3,House,House,False,784,m2,False
2017924044,listing,/8-halifax-street-mont-albert-north-vic-3129-2017924044,4390000,is-sold,Sold by private treaty 29 Jul 2022,20220729,8 Halifax Street,MONT ALBERT NORTH,VIC,3129,-37.80793,145.110489,5,5,5,House,House,False,662,m2,False
2017925353,listing,/4-10-fortune-street-box-hill-north-vic-3129-2017925353,990000,is-sold,Sold at auction 06 Aug 2022,20220806,4/10 Fortune Street,BOX HILL NORTH,VIC,3129,-37.8102,145.13829,3,3,3,Townhouse,Townhouse,False,0,m2,False
2017927031,listing,/22-garden-street-box-hill-north-vic-3129-2017927031,1380000,is-sold,Sold by private treaty 20 Jul 2022,20220720,22 Garden Street,BOX HILL NORTH,VIC,3129,-37.8038979,145.12886,3,3,3,House,House,False,622,m2,False
2017937499,listing,/2-12-francesca-street-mont-albert-north-vic-3129-2017937499,1400000,is-sold,Sold by private treaty 01 Aug 2022,20220801,2/12 Francesca Street,MONT ALBERT NORTH,VIC,3129,-37.8058624,145.106155,4,4,4,Townhouse,Townhouse,False,0,m2,False
2017940415,listing,/141-dorking-road-box-hill-north-vic-3129-2017940415,1140000,is-sold,Sold at auction 06 Aug 2022,20220806,141 Dorking Road,BOX HILL NORTH,VIC,3129,-37.8066139,145.132492,3,3,3,House,House,False,625,m2,False
2017617832,listing,/59-mckean-street-box-hill-north-vic-3129-2017617832,,is-sold,Sold by private treaty 22 Jun 2022,20220622,59 McKean Street,BOX HILL NORTH,VIC,3129,-37.8136635,145.137436,3,3,3,House,House,False,699,m2,False
2017740189,listing,/5-41-shannon-street-box-hill-north-vic-3129-2017740189,950000,is-sold,Sold by private treaty 16 Jul 2022,20220716,5/41 Shannon Street,BOX HILL NORTH,VIC,3129,-37.80866,145.1269,4,4,4,Townhouse,Townhouse,False,0,m2,False
2017815202,listing,/45a-springfield-road-box-hill-north-vic-3129-2017815202,,is-sold,Sold by private treaty 12 Jul 2022,20220712,45A Springfield Road,BOX HILL NORTH,VIC,3129,-37.8086243,145.13797,3,3,3,House,House,False,381,m2,False
2017817964,listing,/61-kerrimuir-street-box-hill-north-vic-3129-2017817964,1090000,is-sold,Sold at auction 18 Jun 2022,20220618,61 Kerrimuir Street,BOX HILL NORTH,VIC,3129,-37.80354,145.136566,3,3,3,House,House,False,585,m2,False
2017822140,listing,/2-57-orchard-crescent-mont-albert-north-vic-3129-2017822140,1768888,is-sold,Sold by private treaty 01 Jul 2022,20220701,2/57 Orchard Crescent,MONT ALBERT NORTH,VIC,3129,-37.79576,145.107,4,4,4,House,House,False,0,m2,False
2017823580,listing,/21-twyford-street-box-hill-north-vic-3129-2017823580,1301000,is-sold,Sold at auction 25 Jun 2022,20220625,21 Twyford Street,BOX HILL NORTH,VIC,3129,-37.8062057,145.1385,3,3,3,House,House,False,692,m2,False
2017834721,listing,/69-orchard-crescent-mont-albert-north-vic-3129-2017834721,1550000,is-sold,Sold at auction 25 Jun 2022,20220625,69 Orchard Crescent,MONT ALBERT NORTH,VIC,3129,-37.79526,145.108246,5,5,5,House,House,False,0,m2,False
2017837110,listing,/2-103-shannon-street-box-hill-north-vic-3129-2017837110,1130000,is-sold,Sold at auction 25 Jun 2022,20220625,2/103 Shannon Street,BOX HILL NORTH,VIC,3129,-37.8079453,145.11911,3,3,3,Townhouse,Townhouse,False,0,m2,False
2017837583,listing,/6-41-shannon-street-box-hill-north-vic-3129-2017837583,1033000,is-sold,Sold at auction 25 Jun 2022,20220625,6/41 Shannon Street,BOX HILL NORTH,VIC,3129,-37.80866,145.1269,4,4,4,Townhouse,Townhouse,False,0,m2,False
2017837968,listing,/3-92-relowe-crescent-mont-albert-north-vic-3129-2017837968,1300000,is-sold,Sold at auction 24 Jun 2022,20220624,3/92 Relowe Crescent,MONT ALBERT NORTH,VIC,3129,-37.8021736,145.1101,3,3,3,ApartmentUnitFlat,Apartment / Unit / Flat,False,0,m2,False
2017840854,listing,/1-16-dunloe-avenue-mont-albert-north-vic-3129-2017840854,880000,is-sold,Sold by private treaty 14 Jul 2022,20220714,1/16 Dunloe Avenue,MONT ALBERT NORTH,VIC,3129,-37.8091431,145.114365,2,2,2,ApartmentUnitFlat,Apartment / Unit / Flat,False,0,m2,False
2017847088,listing,/7-74-thames-street-box-hill-north-vic-3129-2017847088,295000,is-sold,Sold by private treaty 23 Jun 2022,20220623,7/74 Thames Street,BOX HILL NORTH,VIC,3129,-37.813324,145.123413,1,1,1,ApartmentUnitFlat,Apartment / Unit / Flat,False,0,m2,False
2017852017,listing,/2-2-leach-avenue-box-hill-north-vic-3129-2017852017,965000,is-sold,Sold by private treaty 05 Jul 2022,20220705,2/2 Leach Avenue,BOX HILL NORTH,VIC,3129,-37.8128357,145.133575,3,3,3,ApartmentUnitFlat,Apartment / Unit / Flat,False,0,m2,False
2017855261,listing,/25-maude-street-box-hill-north-vic-3129-2017855261,1221500,is-sold,Sold at auction 09 Jul 2022,20220709,25 Maude Street,BOX HILL NORTH,VIC,3129,-37.8045158,145.130356,3,3,3,House,House,False,640,m2,False
2017855828,listing,/25-second-avenue-box-hill-north-vic-3129-2017855828,1301500,is-sold,Sold at auction 25 Jun 2022,20220625,25 Second Avenue,BOX HILL NORTH,VIC,3129,-37.8018761,145.139542,3,3,3,House,House,False,705,m2,False
2017859051,listing,/6-trainor-street-box-hill-north-vic-3129-2017859051,845000,is-sold,Sold by private treaty 13 Jul 2022,20220713,6 Trainor Street,BOX HILL NORTH,VIC,3129,-37.80383,145.1201,2,2,2,House,House,False,0,m2,False
2017859199,listing,/4-2-allison-road-mont-albert-north-vic-3129-2017859199,590000,is-sold,Sold prior to auction 01 Jul 2022,20220701,4/2 Allison Road,MONT ALBERT NORTH,VIC,3129,-37.80595,145.116379,2,2,2,ApartmentUnitFlat,Apartment / Unit / Flat,False,110,m2,False
2017860871,listing,/23-milne-road-mont-albert-north-vic-3129-2017860871,1800000,is-sold,Sold by private treaty 25 Jun 2022,20220625,23 Milne Road,MONT ALBERT NORTH,VIC,3129,-37.7973976,145.111221,4,4,4,House,House,False,594,m2,False
2017867526,listing,/10-richard-street-box-hill-north-vic-3129-2017867526,2250000,is-sold,Sold at auction 09 Jul 2022,20220709,10 Richard Street,BOX HILL NORTH,VIC,3129,-37.8047,145.127777,5,5,5,House,House,False,654,m2,False
2017875341,listing,/29b-manniche-avenue-mont-albert-north-vic-3129-2017875341,1320000,is-sold,Sold at auction 21 Jun 2022,20220621,29B Manniche Avenue,MONT ALBERT NORTH,VIC,3129,-37.7988968,145.107956,4,4,4,House,House,False,0,m2,False
2017151705,listing,/3-1a-evelina-street-mont-albert-north-vic-3129-2017151705,,is-sold,Sold by private treaty 07 Jun 2022,20220607,3/1A Evelina Street,MONT ALBERT NORTH,VIC,3129,-37.802536,145.104584,4,4,4,Townhouse,Townhouse,False,0,m2,False
2017446914,listing,/1-1-williamson-road-mont-albert-north-vic-3129-2017446914,2178000,is-sold,Sold by private treaty 17 Jun 2022,20220617,1/1 Williamson Road,MONT ALBERT NORTH,VIC,3129,-37.79861,145.107178,4,4,4,House,House,False,0,m2,False
2017658590,listing,/4-24-severn-street-box-hill-north-vic-3129-2017658590,702000,is-sold,Sold by private treaty 08 Jun 2022,20220608,4/24 Severn Street,BOX HILL NORTH,VIC,3129,-37.8126526,145.1297,2,2,2,ApartmentUnitFlat,Apartment / Unit / Flat,False,0,m2,False
2017777792,listing,/3-47-packham-street-box-hill-north-vic-3129-2017777792,650000,is-sold,Sold at auction 04 Jun 2022,20220604,3/47 Packham Street,BOX HILL NORTH,VIC,3129,-37.80781,145.134857,2,2,2,ApartmentUnitFlat,Apartment / Unit / Flat,False,101,m2,False
2017786943,listing,/105-546-elgar-road-box-hill-north-vic-3129-2017786943,432000,is-sold,Sold by private treaty 08 Jun 2022,20220608,105/546 Elgar Road,BOX HILL NORTH,VIC,3129,-37.80785,145.11702,2,2,2,ApartmentUnitFlat,Apartment / Unit / Flat,False,0,m2,False
2017788705,listing,/3-8-barwon-street-box-hill-north-vic-3129-2017788705,655000,is-sold,Sold at auction 04 Jun 2022,20220604,3/8 Barwon Street,BOX HILL NORTH,VIC,3129,-37.8110428,145.117523,2,2,2,ApartmentUnitFlat,Apartment / Unit / Flat,False,0,m2,False
2017790074,listing,/3-30-francesca-street-mont-albert-north-vic-3129-2017790074,1365000,is-sold,Sold at auction 04 Jun 2022,20220604,3/30 Francesca Street,MONT ALBERT NORTH,VIC,3129,-37.804142,145.106766,3,3,3,Townhouse,Townhouse,False,0,m2,False
2017790359,listing,/537-elgar-road-mont-albert-north-vic-3129-2017790359,1080000,is-sold,Sold at auction 04 Jun 2022,20220604,537 Elgar Road,MONT ALBERT NORTH,VIC,3129,-37.8087463,145.116272,3,3,3,House,House,False,600,m2,False
2017794878,listing,/73-harrison-street-box-hill-north-vic-3129-2017794878,1400000,is-sold,Sold by private treaty 04 Jun 2022,20220604,73 Harrison Street,BOX HILL NORTH,VIC,3129,-37.8008652,145.132645,4,4,4,House,House,False,627,m2,False
2017796294,listing,/54a-rostrevor-parade-mont-albert-north-vic-3129-2017796294,2020000,is-sold,Sold at auction 04 Jun 2022,20220604,54A Rostrevor Parade,MONT ALBERT NORTH,VIC,3129,-37.80697,145.107452,4,4,4,House,House,False,660,m2,False
2017798216,listing,/1-59-severn-street-box-hill-north-vic-3129-2017798216,685000,is-sold,Sold at auction 11 Jun 2022,20220611,1/59 Severn Street,BOX HILL NORTH,VIC,3129,-37.8126945,145.124084,2,2,2,ApartmentUnitFlat,Apartment / Unit / Flat,False,121,m2,False
2017798583,listing,/3-1-fortune-street-box-hill-north-vic-3129-2017798583,997000,is-sold,Sold at auction 11 Jun 2022,20220611,3/1 Fortune Street,BOX HILL NORTH,VIC,3129,-37.8096123,145.139435,3,3,3,ApartmentUnitFlat,Apartment / Unit / Flat,False,0,m2,False
2017798837,listing,/837-station-street-box-hill-north-vic-3129-2017798837,1560000,is-sold,Sold at auction 04 Jun 2022,20220604,837 Station Street,BOX HILL NORTH,VIC,3129,-37.8096657,145.125214,5,5,5,House,House,False,702,m2,False
2017802929,listing,/3-507-middleborough-road-box-hill-north-vic-3129-2017802929,640000,is-sold,Sold prior to auction 16 Jun 2022,20220616,3/507 Middleborough Road,BOX HILL NORTH,VIC,3129,-37.8096275,145.139984,2,2,2,ApartmentUnitFlat,Apartment / Unit / Flat,False,0,m2,False
2017813562,listing,/4-4-amaroo-court-box-hill-north-vic-3129-2017813562,740000,is-sold,Sold at auction 13 Jun 2022,20220613,4/4 Amaroo Court,BOX HILL NORTH,VIC,3129,-37.79788,145.13002,2,2,2,Townhouse,Townhouse,False,0,m2,False
2017813900,listing,/1-32-karen-street-box-hill-north-vic-3129-2017813900,882000,is-sold,Sold by private treaty 16 Jun 2022,20220616,1/32 Karen Street,BOX HILL NORTH,VIC,3129,-37.8034859,145.138245,3,3,3,ApartmentUnitFlat,Apartment / Unit / Flat,False,301,m2,False
2017823033,listing,/4-marama-street-box-hill-north-vic-3129-2017823033,1330000,is-sold,Sold at auction 18 Jun 2022,20220618,4 Marama Street,BOX HILL NORTH,VIC,3129,-37.804985,145.134674,3,3,3,House,House,False,615,m2,False
2017825605,listing,/53b-strabane-avenue-mont-albert-north-vic-3129-2017825605,1431000,is-sold,Sold at auction 18 Jun 2022,20220618,53B Strabane Avenue,MONT ALBERT NORTH,VIC,3129,-37.8072472,145.1096,4,4,4,House,House,False,785,m2,False
2017827577,listing,/2-42-mitchell-road-mont-albert-north-vic-3129-2017827577,1250000,is-sold,Sold at auction 10 Jun 2022,20220610,2/42 Mitchell Road,MONT ALBERT NORTH,VIC,3129,-37.8041573,145.110977,3,3,3,Townhouse,Townhouse,False,0,m2,False
2018066226,listing,/3-1-fortune-street-box-hill-north-vic-3129-2018066226,997000,is-sold,Sold at auction 11 Jun 2022,20220611,3/1 Fortune Street,BOX HILL NORTH,VIC,3129,-37.8096123,145.139435,3,3,3,ApartmentUnitFlat,Apartment / Unit / Flat,False,0,m2,False
2017518595,listing,/1-501-middleborough-road-box-hill-north-vic-3129-2017518595,638000,is-sold,Sold by private treaty 03 Jun 2022,20220603,1/501 Middleborough Road,BOX HILL NORTH,VIC,3129,-37.8103523,145.140091,2,2,2,ApartmentUnitFlat,Apartment / Unit / Flat,False,187,m2,False
2017711824,listing,/28-werder-street-box-hill-north-vic-3129-2017711824,1980000,is-sold,Sold at auction 28 May 2022,20220528,28 Werder Street,BOX HILL NORTH,VIC,3129,-37.8066444,145.137863,5,5,5,House,House,False,795,m2,False
2017732157,listing,/1-33-ashley-street-box-hill-north-vic-3129-2017732157,1372000,is-sold,Sold at auction 14 May 2022,20220514,1/33 Ashley Street,BOX HILL NORTH,VIC,3129,-37.8106232,145.136017,4,4,4,Townhouse,Townhouse,False,318,m2,False
2017735220,listing,/6-mersey-street-box-hill-north-vic-3129-2017735220,2787000,is-sold,Sold at auction 28 May 2022,20220528,6 Mersey Street,BOX HILL NORTH,VIC,3129,-37.81387,145.130585,5,5,5,House,House,False,717,m2,False
2017736765,listing,/6-mitta-street-box-hill-north-vic-3129-2017736765,1244000,is-sold,Sold at auction 14 May 2022,20220514,6 Mitta Street,BOX HILL NORTH,VIC,3129,-37.80657,145.12291,2,2,2,House,House,False,592,m2,False
2017736875,listing,/131-woodhouse-grove-box-hill-north-vic-3129-2017736875,1275000,is-sold,Sold at auction 14 May 2022,20220514,131 Woodhouse Grove,BOX HILL NORTH,VIC,3129,-37.8020172,145.1301,3,3,3,House,House,False,604,m2,False
2017743762,listing,/4-392-belmore-road-mont-albert-north-vic-3129-2017743762,808000,is-sold,Sold at auction 28 May 2022,20220528,4/392 Belmore Road,MONT ALBERT NORTH,VIC,3129,-37.80184,145.106979,2,2,2,Townhouse,Townhouse,False,0,m2,False
2017745511,listing,/49-relowe-crescent-mont-albert-north-vic-3129-2017745511,1990000,is-sold,Sold at auction 14 May 2022,20220514,49 Relowe Crescent,MONT ALBERT NORTH,VIC,3129,-37.8032646,145.105179,3,3,3,House,House,False,1130,m2,False
2017746716,listing,/49-margaret-street-box-hill-north-vic-3129-2017746716,1266000,is-sold,Sold at auction 14 May 2022,20220514,49 Margaret Street,BOX HILL NORTH,VIC,3129,-37.8150024,145.137177,3,3,3,Townhouse,Townhouse,False,0,m2,False
2017753933,listing,/7-tynong-street-box-hill-north-vic-3129-2017753933,1280000,is-sold,Sold at auction 21 May 2022,20220521,7 Tynong Street,BOX HILL NORTH,VIC,3129,-37.8067436,145.1337,4,4,4,House,House,False,247,m2,False
2017758333,listing,/3-38-thames-street-box-hill-north-vic-3129-2017758333,723000,is-sold,Sold at auction 21 May 2022,20220521,3/38 Thames Street,BOX HILL NORTH,VIC,3129,-37.81361,145.127533,2,2,2,ApartmentUnitFlat,Apartment / Unit / Flat,False,0,m2,False
2017759151,listing,/89-woodhouse-grove-box-hill-north-vic-3129-2017759151,895000,is-sold,Sold at auction 28 May 2022,20220528,89 Woodhouse Grove,BOX HILL NORTH,VIC,3129,-37.801403,145.12558,2,2,2,House,House,False,372,m2,False
2017767984,listing,/103-woodhouse-grove-box-hill-north-vic-3129-2017767984,805000,is-sold,Sold at auction 28 May 2022,20220528,103 Woodhouse Grove,BOX HILL NORTH,VIC,3129,-37.8016777,145.127258,2,2,2,Townhouse,Townhouse,False,178,m2,False
2017770040,listing,/36-peter-street-box-hill-north-vic-3129-2017770040,1660000,is-sold,Sold at auction 28 May 2022,20220528,36 Peter Street,BOX HILL NORTH,VIC,3129,-37.7998238,145.122086,4,4,4,House,House,False,711,m2,False
2017773192,listing,/14-lichfield-grove-mont-albert-north-vic-3129-2017773192,2330000,is-sold,Sold at auction 28 May 2022,20220528,14 Lichfield Grove,MONT ALBERT NORTH,VIC,3129,-37.8013649,145.1054,4,4,4,House,House,False,0,m2,False
2017775464,listing,/8-42-strabane-avenue-mont-albert-north-vic-3129-2017775464,635000,is-sold,Sold at auction 28 May 2022,20220528,8/42 Strabane Avenue,MONT ALBERT NORTH,VIC,3129,-37.8064651,145.111343,2,2,2,ApartmentUnitFlat,Apartment / Unit / Flat,False,97,m2,False
2017785493,listing,/15-berry-street-box-hill-north-vic-3129-2017785493,1281000,is-sold,Sold at auction 28 May 2022,20220528,15 Berry Street,BOX HILL NORTH,VIC,3129,-37.8049278,145.119888,3,3,3,House,House,False,0,m2,False
2017791525,listing,/7-paisley-street-box-hill-north-vic-3129-2017791525,1200888,is-sold,Sold by private treaty 17 May 2022,20220517,7 Paisley Street,BOX HILL NORTH,VIC,3129,-37.8048439,145.123917,3,3,3,House,House,False,680,m2,False
2017803829,listing,/3-382-belmore-road-mont-albert-north-vic-3129-2017803829,978000,is-sold,Sold prior to auction 01 Jun 2022,20220601,3/382 Belmore Road,MONT ALBERT NORTH,VIC,3129,-37.8023643,145.105865,3,3,3,ApartmentUnitFlat,Apartment / Unit / Flat,False,326,m2,False
2017851520,listing,/18-boondara-road-mont-albert-north-vic-3129-2017851520,1626000,is-sold,Sold at auction 04 Jun 2022,20220604,18 Boondara Road,MONT ALBERT NORTH,VIC,3129,-37.80526,145.110413,3,3,3,House,House,False,627,m2,False
2017326636,listing,/2-30-shannon-street-box-hill-north-vic-3129-2017326636,836000,is-sold,Sold by private treaty 03 May 2022,20220503,2/30 Shannon Street,BOX HILL NORTH,VIC,3129,-37.80843,145.12886,2,2,2,ApartmentUnitFlat,Apartment / Unit / Flat,False,242,m2,False
2017396414,listing,/3-787-station-street-box-hill-north-vic-3129-2017396414,1093000,is-sold,Sold by private treaty 02 May 2022,20220502,3/787 Station Street,BOX HILL NORTH,VIC,3129,-37.81196,145.1248,4,4,4,Townhouse,Townhouse,False,0,m2,False
2017642530,listing,/9-cameron-road-box-hill-north-vic-3129-2017642530,1521000,is-sold,Sold at auction 23 Apr 2022,20220423,9 Cameron Road,BOX HILL NORTH,VIC,3129,-37.80989,145.135788,4,4,4,House,House,False,610,m2,False
2017671688,listing,/2-23-ashley-street-box-hill-north-vic-3129-2017671688,780000,is-sold,Sold by private treaty 28 Apr 2022,20220428,2/23 Ashley Street,BOX HILL NORTH,VIC,3129,-37.8109322,145.137024,3,3,3,ApartmentUnitFlat,Apartment / Unit / Flat,False,0,m2,False
2017690127,listing,/3-roselea-street-box-hill-north-vic-3129-2017690127,1602000,is-sold,Sold at auction 23 Apr 2022,20220423,3 Roselea Street,BOX HILL NORTH,VIC,3129,-37.802002,145.13472,5,5,5,House,House,False,756,m2,False
2017699596,listing,/585-elgar-road-mont-albert-north-vic-3129-2017699596,1162000,is-sold,Sold at auction 07 May 2022,20220507,585 Elgar Road,MONT ALBERT NORTH,VIC,3129,-37.80454,145.117065,3,3,3,House,House,False,583,m2,False
2017706087,listing,/35-kenmare-street-mont-albert-north-vic-3129-2017706087,2355000,is-sold,Sold at auction 29 Apr 2022,20220429,35 Kenmare Street,MONT ALBERT NORTH,VIC,3129,-37.8111839,145.108032,3,3,3,House,House,False,1166,m2,False
2017708180,listing,/31-wimmera-street-box-hill-north-vic-3129-2017708180,910000,is-sold,Sold at auction 30 Apr 2022,20220430,31 Wimmera Street,BOX HILL NORTH,VIC,3129,-37.807,145.129745,3,3,3,House,House,False,386,m2,False
2017710625,listing,/2-54-tyne-street-box-hill-north-vic-3129-2017710625,,is-sold,Sold at auction 30 Apr 2022,20220430,2/54 Tyne Street,BOX HILL NORTH,VIC,3129,-37.81003,145.124573,2,2,2,ApartmentUnitFlat,Apartment / Unit / Flat,False,0,m2,False
2017711828,listing,/2-39-moselle-street-mont-albert-north-vic-3129-2017711828,1110000,is-sold,Sold at auction 30 Apr 2022,20220430,2/39 Moselle Street,MONT ALBERT NORTH,VIC,3129,-37.80347,145.108871,3,3,3,House,House,False,0,m2,False
2017712443,listing,/2-8-first-avenue-box-hill-north-vic-3129-2017712443,1288000,is-sold,Sold by private treaty 06 May 2022,20220506,2/8 First Avenue,BOX HILL NORTH,VIC,3129,-37.80017,145.140579,4,4,4,Townhouse,Townhouse,False,0,m2,False
2017712958,listing,/3-18-orchard-crescent-mont-albert-north-vic-3129-2017712958,1135000,is-sold,Sold at auction 28 Apr 2022,20220428,3/18 Orchard Crescent,MONT ALBERT NORTH,VIC,3129,-37.7986565,145.105484,3,3,3,ApartmentUnitFlat,Apartment / Unit / Flat,False,0,m2,False
2017715135,listing,/9-paisley-street-box-hill-north-vic-3129-2017715135,1250000,is-sold,Sold at auction 30 Apr 2022,20220430,9 Paisley Street,BOX HILL NORTH,VIC,3129,-37.80488,145.124069,3,3,3,House,House,False,674,m2,False
2017715924,listing,/1-14-tyne-street-box-hill-north-vic-3129-2017715924,1250000,is-sold,Sold at auction 07 May 2022,20220507,1/14 Tyne Street,BOX HILL NORTH,VIC,3129,-37.8107643,145.129547,3,3,3,Townhouse,Townhouse,False,291,m2,False
2017716654,listing,/23-mccoll-road-mont-albert-north-vic-3129-2017716654,1428000,is-sold,Sold by private treaty 05 May 2022,20220505,23 Mccoll Road,MONT ALBERT NORTH,VIC,3129,-37.79936,145.109192,4,4,4,Townhouse,Townhouse,False,0,m2,False
2017719370,listing,/1-62-relowe-crescent-mont-albert-north-vic-3129-2017719370,1862000,is-sold,Sold at auction 30 Apr 2022,20220430,1/62 Relowe Crescent,MONT ALBERT NORTH,VIC,3129,-37.8027725,145.106216,4,4,4,Townhouse,Townhouse,False,409,m2,False
2017725463,listing,/2-19-peter-street-box-hill-north-vic-3129-2017725463,836000,is-sold,Sold at auction 30 Apr 2022,20220430,2/19 Peter Street,BOX HILL NORTH,VIC,3129,-37.7990952,145.1207,3,3,3,House,House,False,297,m2,False
2017741961,listing,/26-eram-road-box-hill-north-vic-3129-2017741961,1250000,is-sold,Sold at auction 02 May 2022,20220502,26 Eram Road,BOX HILL NORTH,VIC,3129,-37.7988548,145.139526,4,4,4,House,House,False,665,m2,False
2017747781,listing,/5-33-francesca-street-mont-albert-north-vic-3129-2017747781,1256000,is-sold,Sold at auction 14 May 2022,20220514,5/33 Francesca Street,MONT ALBERT NORTH,VIC,3129,-37.80389,145.1058,3,3,3,ApartmentUnitFlat,Apartment / Unit / Flat,False,241,m2,False
2017969324,listing,/23-mccoll-road-mont-albert-north-vic-3129-2017969324,1428000,is-sold,Sold prior to auction 05 May 2022,20220505,23 Mccoll Road,MONT ALBERT NORTH,VIC,3129,-37.79935,145.109146,4,4,4,Townhouse,Townhouse,False,0,m2,False
2017261434,listing,/4-12-francesca-street-mont-albert-north-vic-3129-2017261434,1480000,is-sold,Sold prior to auction 16 Apr 2022,20220416,4/12 Francesca Street,MONT ALBERT NORTH,VIC,3129,-37.8058624,145.106155,4,4,4,Townhouse,Townhouse,False,0,m2,False
2017423917,listing,/861-station-street-box-hill-north-vic-3129-2017423917,1025000,is-sold,Sold by private treaty 07 Apr 2022,20220407,861 Station Street,BOX HILL NORTH,VIC,3129,-37.8091736,145.125336,3,3,3,House,House,False,520,m2,False
2017529386,listing,/32-jackson-avenue-mont-albert-north-vic-3129-2017529386,1433000,is-sold,Sold by private treaty 16 Apr 2022,20220416,32 Jackson Avenue,MONT ALBERT NORTH,VIC,3129,-37.79639,145.109329,6,6,6,House,House,False,0,m2,False
2017585969,listing,/1-7-leach-avenue-box-hill-north-vic-3129-2017585969,,is-sold,Sold by private treaty 12 Apr 2022,20220412,1/7 Leach Avenue,BOX HILL NORTH,VIC,3129,-37.8123665,145.133072,4,4,4,Townhouse,Townhouse,False,0,m2,False
2017625611,listing,/8-kerry-parade-mont-albert-north-vic-3129-2017625611,1725000,is-sold,Sold by private treaty 11 Apr 2022,20220411,8 Kerry Parade,MONT ALBERT NORTH,VIC,3129,-37.8083534,145.104,3,3,3,House,House,False,722,m2,False
2017630093,listing,/1-packham-street-box-hill-north-vic-3129-2017630093,1050000,is-sold,Sold by private treaty 11 Apr 2022,20220411,1 Packham Street,BOX HILL NORTH,VIC,3129,-37.8081856,145.139755,3,3,3,House,House,False,398,m2,False
2017640082,listing,/1-52-linda-ave-box-hill-north-vic-3129-2017640082,955000,is-sold,Sold at auction 02 Apr 2022,20220402,1/52 Linda Ave,BOX HILL NORTH,VIC,3129,-37.80579,145.127548,3,3,3,ApartmentUnitFlat,Apartment / Unit / Flat,False,294,m2,False
2017645384,listing,/1-simmons-street-box-hill-north-vic-3129-2017645384,1311000,is-sold,Sold at auction 09 Apr 2022,20220409,1 Simmons Street,BOX HILL NORTH,VIC,3129,-37.807415,145.123245,2,2,2,House,House,False,763,m2,False
2017647054,listing,/15-marama-street-box-hill-north-vic-3129-2017647054,1403000,is-sold,Sold at auction 02 Apr 2022,20220402,15 Marama Street,BOX HILL NORTH,VIC,3129,-37.8039169,145.134323,3,3,3,House,House,False,654,m2,False
2017647376,listing,/8-twyford-street-box-hill-north-vic-3129-2017647376,1390000,is-sold,Sold at auction 02 Apr 2022,20220402,8 Twyford Street,BOX HILL NORTH,VIC,3129,-37.8059959,145.139664,3,3,3,House,House,False,641,m2,False
2017651215,listing,/18-harrison-street-box-hill-north-vic-3129-2017651215,1503000,is-sold,Sold at auction 09 Apr 2022,20220409,18 Harrison Street,BOX HILL NORTH,VIC,3129,-37.806076,145.132156,3,3,3,House,House,False,632,m2,False
2017651383,listing,/22-kneale-drive-box-hill-north-vic-3129-2017651383,1200000,is-sold,Sold at auction 10 Apr 2022,20220410,22 Kneale Drive,BOX HILL NORTH,VIC,3129,-37.80634,145.130157,3,3,3,House,House,False,601,m2,False
2017652958,listing,/3-65-rostrevor-parade-mont-albert-north-vic-3129-2017652958,1520000,is-sold,Sold at auction 02 Apr 2022,20220402,3/65 Rostrevor Parade,MONT ALBERT NORTH,VIC,3129,-37.80673,145.106613,3,3,3,Townhouse,Townhouse,False,0,m2,False
2017654056,listing,/26a-medway-street-box-hill-north-vic-3129-2017654056,1345000,is-sold,Sold at auction 02 Apr 2022,20220402,26A Medway Street,BOX HILL NORTH,VIC,3129,-37.81178,145.128891,4,4,4,Townhouse,Townhouse,False,0,m2,False
2017667104,listing,/38-mitchell-road-mont-albert-north-vic-3129-2017667104,1840000,is-sold,Sold at auction 10 Apr 2022,20220410,38 Mitchell Road,MONT ALBERT NORTH,VIC,3129,-37.8043823,145.111572,3,3,3,House,House,False,629,m2,False
2017669284,listing,/1-8-third-avenue-box-hill-north-vic-3129-2017669284,1250000,is-sold,Sold at auction 15 Apr 2022,20220415,1/8 Third Avenue,BOX HILL NORTH,VIC,3129,-37.7998848,145.138077,4,4,4,Townhouse,Townhouse,False,0,m2,False
2017673052,listing,/61-mckean-street-box-hill-north-vic-3129-2017673052,1300000,is-sold,Sold prior to auction 08 Apr 2022,20220408,61 McKean Street,BOX HILL NORTH,VIC,3129,-37.81375,145.137634,2,2,2,House,House,False,697,m2,False
2017706222,listing,/32-heathfield-rise-box-hill-north-vic-3129-2017706222,1150000,is-sold,Sold prior to auction 21 Apr 2022,20220421,32 Heathfield Rise,BOX HILL NORTH,VIC,3129,-37.8026276,145.138214,3,3,3,House,House,False,598,m2,False
2017723678,listing,/1-37-kerrimuir-street-box-hill-north-vic-3129-2017723678,1325000,is-sold,Sold by private treaty 14 Apr 2022,20220414,1/37 Kerrimuir Street,BOX HILL NORTH,VIC,3129,-37.80532,145.136154,5,5,5,Townhouse,Townhouse,False,0,m2,False
2017969809,listing,/1-52-linda-avenue-box-hill-north-vic-3129-2017969809,955000,is-sold,Sold at auction 02 Apr 2022,20220402,1/52 Linda Avenue,BOX HILL NORTH,VIC,3129,-37.80579,145.127548,3,3,3,ApartmentUnitFlat,Apartment / Unit / Flat,False,294,m2,False
2017372744,listing,/35-orchard-crescent-mont-albert-north-vic-3129-2017372744,2290000,is-sold,Sold by private treaty 31 Mar 2022,20220331,35 Orchard Crescent,MONT ALBERT NORTH,VIC,3129,-37.7973633,145.104523,5,5,5,House,House,False,1307,m2,False
2017455987,listing,/645-middleborough-road-box-hill-north-vic-3129-2017455987,1260000,is-sold,Sold by private treaty 01 Apr 2022,20220401,645 Middleborough Road,BOX HILL NORTH,VIC,3129,-37.7999077,145.141983,3,3,3,House,House,False,730,m2,False
2017558073,listing,/9-lincoln-avenue-mont-albert-north-vic-3129-2017558073,1750000,is-sold,Sold by private treaty 30 Mar 2022,20220330,9 Lincoln Avenue,MONT ALBERT NORTH,VIC,3129,-37.797863,145.109955,4,4,4,House,House,False,584,m2,False
2017576705,listing,/2-10-sutton-parade-mont-albert-north-vic-3129-2017576705,1300000,is-sold,Sold by private treaty 22 Mar 2022,20220322,2/10 Sutton Parade,MONT ALBERT NORTH,VIC,3129,-37.8083839,145.105667,3,3,3,Townhouse,Townhouse,False,0,m2,False
2017606168,listing,/2-5-leach-avenue-box-hill-north-vic-3129-2017606168,1170000,is-sold,Sold at auction 19 Mar 2022,20220319,2/5 Leach Avenue,BOX HILL NORTH,VIC,3129,-37.8124542,145.132721,3,3,3,ApartmentUnitFlat,Apartment / Unit / Flat,False,365,m2,False
2017607627,listing,/3-1-peter-street-box-hill-north-vic-3129-2017607627,880000,is-sold,Sold by private treaty 22 Mar 2022,20220322,3/1 Peter Street,BOX HILL NORTH,VIC,3129,-37.799118,145.118683,3,3,3,Townhouse,Townhouse,False,0,m2,False
2017608072,listing,/109-clyde-street-box-hill-north-vic-3129-2017608072,3180000,is-sold,Sold by private treaty 23 Mar 2022,20220323,109 Clyde Street,BOX HILL NORTH,VIC,3129,-37.80916,145.122208,4,4,4,House,House,False,829,m2,False
2017611243,listing,/10-berry-street-box-hill-north-vic-3129-2017611243,1505000,is-sold,Sold at auction 26 Mar 2022,20220326,10 Berry Street,BOX HILL NORTH,VIC,3129,-37.8047638,145.121628,4,4,4,House,House,False,341,m2,False
2017611296,listing,/2-76-woodhouse-grove-box-hill-north-vic-3129-2017611296,1040000,is-sold,Sold at auction 19 Mar 2022,20220319,2/76 Woodhouse Grove,BOX HILL NORTH,VIC,3129,-37.8018379,145.124557,3,3,3,House,House,False,0,m2,False
2017611838,listing,/36-karen-street-box-hill-north-vic-3129-2017611838,1240000,is-sold,Sold at auction 20 Mar 2022,20220320,36 Karen Street,BOX HILL NORTH,VIC,3129,-37.8034172,145.137878,3,3,3,House,House,False,676,m2,False
2017626033,listing,/122-severn-street-box-hill-north-vic-3129-2017626033,1470000,is-sold,Sold by private treaty 26 Mar 2022,20220326,122 Severn Street,BOX HILL NORTH,VIC,3129,-37.8114433,145.116791,3,3,3,House,House,False,606,m2,False
2017627181,listing,/10-chessell-street-mont-albert-north-vic-3129-2017627181,1735000,is-sold,Sold at auction 26 Mar 2022,20220326,10 Chessell Street,MONT ALBERT NORTH,VIC,3129,-37.79809,145.112869,3,3,3,House,House,False,604,m2,False
2017630227,listing,/104-woodhouse-grove-box-hill-north-vic-3129-2017630227,2250000,is-sold,Sold at auction 26 Mar 2022,20220326,104 Woodhouse Grove,BOX HILL NORTH,VIC,3129,-37.802166,145.127945,5,5,5,House,House,False,604,m2,False
2017630520,listing,/2-37-kerrimuir-street-box-hill-north-vic-3129-2017630520,1300000,is-sold,Sold by private treaty 25 Mar 2022,20220325,2/37 Kerrimuir Street,BOX HILL NORTH,VIC,3129,-37.80532,145.136154,5,5,5,Townhouse,Townhouse,False,0,m2,False
2017633884,listing,/501-belmore-road-mont-albert-north-vic-3129-2017633884,1230000,is-sold,Sold at auction 26 Mar 2022,20220326,501 Belmore Road,MONT ALBERT NORTH,VIC,3129,-37.8004532,145.113358,3,3,3,House,House,False,0,m2,False
2017637327,listing,/17-chessell-street-mont-albert-north-vic-3129-2017637327,1603000,is-sold,Sold by private treaty 27 Mar 2022,20220327,17 Chessell Street,MONT ALBERT NORTH,VIC,3129,-37.7978859,145.1135,4,4,4,House,House,False,627,m2,False
2017640997,listing,/58-springfield-road-box-hill-north-vic-3129-2017640997,1452000,is-sold,Sold by private treaty 29 Mar 2022,20220329,58 Springfield Road,BOX HILL NORTH,VIC,3129,-37.809124,145.13858,4,4,4,House,House,False,605,m2,False
2017642317,listing,/1a-richard-street-box-hill-north-vic-3129-2017642317,865000,is-sold,Sold at auction 26 Mar 2022,20220326,1a Richard Street,BOX HILL NORTH,VIC,3129,-37.8042068,145.126953,3,3,3,House,House,False,233,m2,False
2017644804,listing,/31-cairo-road-mont-albert-north-vic-3129-2017644804,1660000,is-sold,Sold at auction 22 Mar 2022,20220322,31 Cairo Road,MONT ALBERT NORTH,VIC,3129,-37.8037262,145.113,3,3,3,House,House,False,593,m2,False
2017652729,listing,/7-mary-street-box-hill-north-vic-3129-2017652729,1750000,is-sold,Sold by private treaty 26 Mar 2022,20220326,7 Mary Street,BOX HILL NORTH,VIC,3129,-37.8141823,145.1339,2,2,2,House,House,False,785,m2,False
2017370335,listing,/108-761-station-street-box-hill-north-vic-3129-2017370335,510000,is-sold,Sold by private treaty 18 Mar 2022,20220318,108/761 Station Street,BOX HILL NORTH,VIC,3129,-37.81343,145.124557,2,2,2,ApartmentUnitFlat,Apartment / Unit / Flat,False,0,m2,False
2017414541,listing,/1-28-melrose-street-mont-albert-north-vic-3129-2017414541,1565000,is-sold,Sold at auction 19 Mar 2022,20220319,1/28 Melrose Street,MONT ALBERT NORTH,VIC,3129,-37.8109665,145.1117,5,5,5,Townhouse,Townhouse,False,400,m2,False
2017446745,listing,/3-75-tyne-street-box-hill-north-vic-3129-2017446745,790000,is-sold,Sold by private treaty 09 Mar 2022,20220309,3/75 Tyne Street,BOX HILL NORTH,VIC,3129,-37.810463,145.122025,2,2,2,ApartmentUnitFlat,Apartment / Unit / Flat,False,0,m2,False
2017460722,listing,/12-lawford-street-box-hill-north-vic-3129-2017460722,1345000,is-sold,Sold by private treaty 10 Mar 2022,20220310,12 Lawford Street,BOX HILL NORTH,VIC,3129,-37.8002434,145.126175,3,3,3,House,House,False,356,m2,False
2017485825,listing,/403-761-station-street-box-hill-north-vic-3129-2017485825,315000,is-sold,Sold by private treaty 18 Mar 2022,20220318,403/761 Station Street,BOX HILL NORTH,VIC,3129,-37.8134346,145.124557,1,1,1,ApartmentUnitFlat,Apartment / Unit / Flat,False,0,m2,False
2017557313,listing,/51-tyne-street-box-hill-north-vic-3129-2017557313,1733000,is-sold,Sold at auction 05 Mar 2022,20220305,51 Tyne Street,BOX HILL NORTH,VIC,3129,-37.81054,145.124542,3,3,3,House,House,False,896,m2,False
2017571233,listing,/21-ovens-street-box-hill-north-vic-3129-2017571233,1422000,is-sold,Sold at auction 05 Mar 2022,20220305,21 Ovens Street,BOX HILL NORTH,VIC,3129,-37.8060951,145.124527,4,4,4,House,House,False,618,m2,False
2017575165,listing,/9-warwick-street-box-hill-north-vic-3129-2017575165,818000,is-sold,Sold by private treaty 10 Mar 2022,20220310,9 Warwick Street,BOX HILL NORTH,VIC,3129,-37.8041458,145.138809,2,2,2,House,House,False,211,m2,False
2017576483,listing,/17-woodhouse-grove-box-hill-north-vic-3129-2017576483,1187000,is-sold,Sold at auction 05 Mar 2022,20220305,17 Woodhouse Grove,BOX HILL NORTH,VIC,3129,-37.80333,145.1198,3,3,3,ApartmentUnitFlat,Apartment / Unit / Flat,False,0,m2,False
2017585884,listing,/3-102-104-dorking-road-box-hill-north-vic-3129-2017585884,765000,is-sold,Sold by private treaty 12 Mar 2022,20220312,3/102-104 Dorking Road,BOX HILL NORTH,VIC,3129,-37.81228,145.1325,2,2,2,ApartmentUnitFlat,Apartment / Unit / Flat,False,0,m2,False
2017588207,listing,/26-tyrrell-street-mont-albert-north-vic-3129-2017588207,1400000,is-sold,Sold by private treaty 19 Mar 2022,20220319,26 Tyrrell Street,MONT ALBERT NORTH,VIC,3129,-37.8015251,145.113037,4,4,4,House,House,False,225,m2,False
2017588236,listing,/20-peter-street-box-hill-north-vic-3129-2017588236,2233000,is-sold,Sold by private treaty 11 Mar 2022,20220311,20 Peter Street,BOX HILL NORTH,VIC,3129,-37.7996,145.120453,4,4,4,House,House,False,621,m2,False
2017588456,listing,/1-23-severn-street-box-hill-north-vic-3129-2017588456,732500,is-sold,Sold at auction 12 Mar 2022,20220312,1/23 Severn Street,BOX HILL NORTH,VIC,3129,-37.81333,145.1294,2,2,2,ApartmentUnitFlat,Apartment / Unit / Flat,False,0,m2,False
2017594298,listing,/27-chessell-street-mont-albert-north-vic-3129-2017594298,1723000,is-sold,Sold by private treaty 13 Mar 2022,20220313,27 Chessell Street,MONT ALBERT NORTH,VIC,3129,-37.79865,145.113571,4,4,4,House,House,False,592,m2,False
2017594326,listing,/7-eram-road-box-hill-north-vic-3129-2017594326,1215000,is-sold,Sold at auction 19 Mar 2022,20220319,7 Eram Road,BOX HILL NORTH,VIC,3129,-37.79952,145.1408,4,4,4,House,House,False,394,m2,False
2017604614,listing,/495-middleborough-road-box-hill-north-vic-3129-2017604614,1240000,is-sold,Sold at auction 19 Mar 2022,20220319,495 Middleborough Road,BOX HILL NORTH,VIC,3129,-37.8110466,145.14,3,3,3,House,House,False,616,m2,False
2017604816,listing,/3-28-francesca-street-mont-albert-north-vic-3129-2017604816,1102000,is-sold,Sold by private treaty 19 Mar 2022,20220319,3/28 Francesca Street,MONT ALBERT NORTH,VIC,3129,-37.8043022,145.10675,3,3,3,Townhouse,Townhouse,False,0,m2,False
2017616528,listing,/2-7-campaspe-street-box-hill-north-vic-3129-2017616528,1100000,is-sold,Sold prior to auction 13 Mar 2022,20220313,2/7 Campaspe Street,BOX HILL NORTH,VIC,3129,-37.8076,145.128326,3,3,3,Townhouse,Townhouse,False,0,m2,False
2017626326,listing,/593-middleborough-road-box-hill-north-vic-3129-2017626326,1146000,is-sold,Sold at auction 18 Mar 2022,20220318,593 Middleborough Road,BOX HILL NORTH,VIC,3129,-37.8033638,145.141388,3,3,3,House,House,False,606,m2,False
2017979937,listing,/1-28-melrose-street-mont-albert-north-vic-3129-2017979937,1565000,is-sold,Sold at auction 19 Mar 2022,20220319,1/28 Melrose Street,MONT ALBERT NORTH,VIC,3129,-37.81106,145.111649,5,5,5,Townhouse,Townhouse,False,400,m2,False
2017520455,listing,/5-100-thames-street-box-hill-north-vic-3129-2017520455,888000,is-sold,Sold at auction 03 Mar 2022,20220303,5/100 Thames Street,BOX HILL NORTH,VIC,3129,-37.81312,145.121475,4,4,4,Townhouse,Townhouse,False,0,m2,False
2017535334,listing,/1-88-thames-street-box-hill-north-vic-3129-2017535334,838000,is-sold,Sold by private treaty 28 Feb 2022,20220228,1/88 Thames Street,BOX HILL NORTH,VIC,3129,-37.8132248,145.1224,2,2,2,Townhouse,Townhouse,False,180,m2,False
2017542860,listing,/77-rostrevor-parade-mont-albert-north-vic-3129-2017542860,2700000,is-sold,Sold at auction 26 Feb 2022,20220226,77 Rostrevor Parade,MONT ALBERT NORTH,VIC,3129,-37.80559,145.107269,4,4,4,House,House,False,1309,m2,False
2017544078,listing,/10-clyde-street-box-hill-north-vic-3129-2017544078,1250000,is-sold,Sold at auction 26 Feb 2022,20220226,10 Clyde Street,BOX HILL NORTH,VIC,3129,-37.80984,145.131241,3,3,3,House,House,False,423,m2,False
2017544119,listing,/4-bell-street-box-hill-north-vic-3129-2017544119,1425000,is-sold,Sold at auction 26 Feb 2022,20220226,4 Bell Street,BOX HILL NORTH,VIC,3129,-37.80391,145.1273,3,3,3,House,House,False,651,m2,False
2017544212,listing,/46-heathfield-rise-box-hill-north-vic-3129-2017544212,1160000,is-sold,Sold at auction 19 Feb 2022,20220219,46 Heathfield Rise,BOX HILL NORTH,VIC,3129,-37.80254,145.136917,3,3,3,House,House,False,594,m2,False
2017544673,listing,/195-dorking-road-box-hill-north-vic-3129-2017544673,2400000,is-sold,Sold at auction 19 Feb 2022,20220219,195 Dorking Road,BOX HILL NORTH,VIC,3129,-37.80183,145.13356,5,5,5,House,House,False,598,m2,False
2017544772,listing,/2-648-elgar-road-box-hill-north-vic-3129-2017544772,1100000,is-sold,Sold by private treaty 21 Feb 2022,20220221,2/648 Elgar Road,BOX HILL NORTH,VIC,3129,-37.7996178,145.1184,3,3,3,House,House,False,596,m2,False
2017544893,listing,/2a-cherry-orchard-rise-box-hill-north-vic-3129-2017544893,900000,is-sold,Sold by private treaty 19 Feb 2022,20220219,2A Cherry Orchard Rise,BOX HILL NORTH,VIC,3129,-37.8006439,145.141647,3,3,3,House,House,False,216,m2,False
2017545936,listing,/17-linda-avenue-box-hill-north-vic-3129-2017545936,1650000,is-sold,Sold at auction 21 Feb 2022,20220221,17 Linda Avenue,BOX HILL NORTH,VIC,3129,-37.8032722,145.1284,4,4,4,House,House,False,653,m2,False
2017553369,listing,/2-114-shannon-street-box-hill-north-vic-3129-2017553369,852500,is-sold,Sold at auction 26 Feb 2022,20220226,2/114 Shannon Street,BOX HILL NORTH,VIC,3129,-37.8070831,145.118332,3,3,3,ApartmentUnitFlat,Apartment / Unit / Flat,False,0,m2,False
2017558497,listing,/69-shannon-street-box-hill-north-vic-3129-2017558497,1815000,is-sold,Sold at auction 26 Feb 2022,20220226,69 Shannon Street,BOX HILL NORTH,VIC,3129,-37.8084335,145.123077,4,4,4,House,House,False,1011,m2,False
2017560459,listing,/4-kneale-drive-box-hill-north-vic-3129-2017560459,1801000,is-sold,Sold at auction 26 Feb 2022,20220226,4 Kneale Drive,BOX HILL NORTH,VIC,3129,-37.8059769,145.128571,5,5,5,House,House,False,694,m2,False
2017563686,listing,/1-20-karen-street-box-hill-north-vic-3129-2017563686,959000,is-sold,Sold by private treaty 28 Feb 2022,20220228,1/20 Karen Street,BOX HILL NORTH,VIC,3129,-37.8037071,145.139481,3,3,3,ApartmentUnitFlat,Apartment / Unit / Flat,False,314,m2,False
2017565184,listing,/16-hillside-parade-box-hill-north-vic-3129-2017565184,1559000,is-sold,Sold at auction 26 Feb 2022,20220226,16 Hillside Parade,BOX HILL NORTH,VIC,3129,-37.8090439,145.118774,4,4,4,House,House,False,697,m2,False
2017573427,listing,/1-1-richard-street-box-hill-north-vic-3129-2017573427,1190000,is-sold,Sold at auction 05 Mar 2022,20220305,1/1 Richard Street,BOX HILL NORTH,VIC,3129,-37.8040276,145.127151,4,4,4,Townhouse,Townhouse,False,255,m2,False
2017574030,listing,/41-belgravia-avenue-mont-albert-north-vic-3129-2017574030,1838000,is-sold,Sold at auction 24 Feb 2022,20220224,41 Belgravia Avenue,MONT ALBERT NORTH,VIC,3129,-37.7974663,145.106415,4,4,4,House,House,False,925,m2,False
2017582839,listing,/3-38a-thames-street-box-hill-north-vic-3129-2017582839,640000,is-sold,Sold prior to auction 04 Mar 2022,20220304,3/38A Thames Street,BOX HILL NORTH,VIC,3129,-37.813652,145.127838,2,2,2,ApartmentUnitFlat,Apartment / Unit / Flat,False,0,m2,False
2017599659,listing,/864a-station-street-box-hill-north-vic-3129-2017599659,880000,is-sold,Sold by private treaty 28 Feb 2022,20220228,864A Station Street,BOX HILL NORTH,VIC,3129,-37.8087273,145.125885,2,2,2,House,House,False,494,m2,False
2017609138,listing,/24-bundoran-parade-mont-albert-north-vic-3129-2017609138,2900000,is-sold,Sold at auction 02 Mar 2022,20220302,24 Bundoran Parade,MONT ALBERT NORTH,VIC,3129,-37.8099,145.10556,5,5,5,House,House,False,1160,m2,False
2017213884,listing,/7-463-belmore-road-mont-albert-north-vic-3129-2017213884,631000,is-sold,Sold by private treaty 29 Jan 2022,20220129,7/463 Belmore Road,MONT ALBERT NORTH,VIC,3129,-37.80093,145.110474,2,2,2,Townhouse,Townhouse,False,0,m2,False
2017381521,listing,/628-elgar-road-box-hill-north-vic-3129-2017381521,1150000,is-sold,Sold by private treaty 11 Feb 2022,20220211,628 Elgar Road,BOX HILL NORTH,VIC,3129,-37.80135,145.118164,3,3,3,House,House,False,611,m2,False
2017447184,listing,/22-rostrevor-parade-mont-albert-north-vic-3129-2017447184,3120000,is-sold,Sold by private treaty 25 Jan 2022,20220125,22 Rostrevor Parade,MONT ALBERT NORTH,VIC,3129,-37.8103867,145.106827,4,4,4,House,House,False,836,m2,False
2017448685,listing,/1-408-belmore-road-mont-albert-north-vic-3129-2017448685,1140000,is-sold,Sold by private treaty 18 Feb 2022,20220218,1/408 Belmore Road,MONT ALBERT NORTH,VIC,3129,-37.80151,145.108932,3,3,3,ApartmentUnitFlat,Apartment / Unit / Flat,False,0,m2,False
2017465873,listing,/5-111-kenmare-street-mont-albert-north-vic-3129-2017465873,710000,is-sold,Sold by private treaty 15 Feb 2022,20220215,5/111 Kenmare Street,MONT ALBERT NORTH,VIC,3129,-37.8120155,145.11499,2,2,2,ApartmentUnitFlat,Apartment / Unit / Flat,False,0,m2,False
2017506555,listing,/36-belgravia-avenue-mont-albert-north-vic-3129-2017506555,1350000,is-sold,Sold at auction 29 Jan 2022,20220129,36 Belgravia Avenue,MONT ALBERT NORTH,VIC,3129,-37.798336,145.106689,4,4,4,House,House,False,641,m2,False
2017515644,listing,/14-simmons-street-box-hill-north-vic-3129-2017515644,1466000,is-sold,Sold at auction 12 Feb 2022,20220212,14 Simmons Street,BOX HILL NORTH,VIC,3129,-37.8065376,145.1239,4,4,4,House,House,False,542,m2,False
2017523485,listing,/3-23-ashley-street-box-hill-north-vic-3129-2017523485,772000,is-sold,Sold at auction 05 Feb 2022,20220205,3/23 Ashley Street,BOX HILL NORTH,VIC,3129,-37.81091,145.136841,2,2,2,ApartmentUnitFlat,Apartment / Unit / Flat,False,0,m2,False
2017523511,listing,/29-mckean-street-box-hill-north-vic-3129-2017523511,1520000,is-sold,Sold at auction 12 Feb 2022,20220212,29 McKean Street,BOX HILL NORTH,VIC,3129,-37.8133621,145.134933,3,3,3,House,House,False,694,m2,False
2017529009,listing,/105-kenmare-street-mont-albert-north-vic-3129-2017529009,2330000,is-sold,Sold at auction 12 Feb 2022,20220212,105 Kenmare Street,MONT ALBERT NORTH,VIC,3129,-37.8121071,145.114258,6,6,6,House,House,False,865,m2,False
2017533667,listing,/2-2a-tyrrell-street-mont-albert-north-vic-3129-2017533667,1108800,is-sold,Sold by private treaty 10 Feb 2022,20220210,2/2A Tyrrell Street,MONT ALBERT NORTH,VIC,3129,-37.8028679,145.112961,3,3,3,ApartmentUnitFlat,Apartment / Unit / Flat,False,0,m2,False
2017541978,listing,/449-belmore-road-mont-albert-north-vic-3129-2017541978,3210000,is-sold,Sold at auction 11 Feb 2022,20220211,449 Belmore Road,MONT ALBERT NORTH,VIC,3129,-37.8011131,145.1084,5,5,5,House,House,False,0,m2,False
2017543486,listing,/588-elgar-road-box-hill-north-vic-3129-2017543486,1300000,is-sold,Sold at auction 11 Feb 2022,20220211,588 Elgar Road,BOX HILL NORTH,VIC,3129,-37.804348,145.1176,3,3,3,House,House,False,702,m2,False
2017543631,listing,/3-7-dunloe-avenue-mont-albert-north-vic-3129-2017543631,804000,is-sold,Sold by private treaty 11 Feb 2022,20220211,3/7 Dunloe Avenue,MONT ALBERT NORTH,VIC,3129,-37.8100471,145.115311,2,2,2,ApartmentUnitFlat,Apartment / Unit / Flat,False,190,m2,False
2017544163,listing,/6-morris-avenue-mont-albert-north-vic-3129-2017544163,1450000,is-sold,Sold at auction 19 Feb 2022,20220219,6 Morris Avenue,MONT ALBERT NORTH,VIC,3129,-37.7994461,145.115662,4,4,4,House,House,False,600,m2,False
2017545114,listing,/63-strabane-avenue-mont-albert-north-vic-3129-2017545114,2300000,is-sold,Sold at auction 19 Feb 2022,20220219,63 Strabane Avenue,MONT ALBERT NORTH,VIC,3129,-37.80739,145.108383,4,4,4,House,House,False,1169,m2,False
2017549381,listing,/2-aumann-court-mont-albert-north-vic-3129-2017549381,2220000,is-sold,Sold at auction 16 Feb 2022,20220216,2 Aumann Court,MONT ALBERT NORTH,VIC,3129,-37.7996178,145.108566,4,4,4,House,House,False,1021,m2,False
2017554808,listing,/1-22-peter-street-box-hill-north-vic-3129-2017554808,1297000,is-sold,Sold at auction 17 Feb 2022,20220217,1/22 Peter Street,BOX HILL NORTH,VIC,3129,-37.7995949,145.120728,4,4,4,House,House,False,0,m2,False
2017557719,listing,/2-7-goulburn-street-box-hill-north-vic-3129-2017557719,935000,is-sold,Sold at auction 15 Feb 2022,20220215,2/7 Goulburn Street,BOX HILL NORTH,VIC,3129,-37.80758,145.126862,2,2,2,Townhouse,Townhouse,False,247,m2,False
2017564017,listing,/30-clyde-street-box-hill-north-vic-3129-2017564017,1935800,is-sold,Sold at auction 11 Feb 2022,20220211,30 Clyde Street,BOX HILL NORTH,VIC,3129,-37.80955,145.128784,4,4,4,House,House,False,0,m2,False
2016615255,listing,/2-54-relowe-crescent-mont-albert-north-vic-3129-2016615255,1600000,is-sold,Sold by private treaty 19 Jan 2022,20220119,2/54 Relowe Crescent,MONT ALBERT NORTH,VIC,3129,-37.8029442,145.105286,4,4,4,Townhouse,Townhouse,False,0,m2,False
2016618837,listing,/81-orchard-crescent-mont-albert-north-vic-3129-2016618837,1250000,is-sold,Sold at auction 18 Dec 2021,20211218,81 Orchard Crescent,MONT ALBERT NORTH,VIC,3129,-37.7958069,145.109329,3,3,3,House,House,False,0,m2,False
2017066688,listing,/3-29-karen-street-box-hill-north-vic-3129-2017066688,1168000,is-sold,Sold at auction 18 Dec 2021,20211218,3/29 Karen Street,BOX HILL NORTH,VIC,3129,-37.803875,145.138336,4,4,4,Townhouse,Townhouse,False,0,m2,False
2017236427,listing,/49-linda-avenue-box-hill-north-vic-3129-2017236427,1695000,is-sold,Sold by private treaty 21 Jan 2022,20220121,49 Linda Avenue,BOX HILL NORTH,VIC,3129,-37.80553,145.128159,4,4,4,House,House,False,791,m2,False
2017290014,listing,/1-9-mitchell-road-mont-albert-north-vic-3129-2017290014,1200000,is-sold,Sold at auction 22 Dec 2021,20211222,1/9 Mitchell Road,MONT ALBERT NORTH,VIC,3129,-37.8052826,145.115784,4,4,4,House,House,False,379,m2,False
2017335673,listing,/3-18-medway-street-box-hill-north-vic-3129-2017335673,715000,is-sold,Sold by private treaty 27 Dec 2021,20211227,3/18 Medway Street,BOX HILL NORTH,VIC,3129,-37.8116722,145.129791,2,2,2,ApartmentUnitFlat,Apartment / Unit / Flat,False,0,m2,False
2017372662,listing,/21-werder-st-box-hill-north-vic-3129-2017372662,1950000,is-sold,Sold by private treaty 04 Jan 2022,20220104,21 Werder St,BOX HILL NORTH,VIC,3129,-37.8071136,145.138336,4,4,4,House,House,False,643,m2,False
2017376855,listing,/7-102-thames-street-box-hill-north-vic-3129-2017376855,745000,is-sold,Sold by private treaty 17 Dec 2021,20211217,7/102 Thames Street,BOX HILL NORTH,VIC,3129,-37.8131065,145.1212,3,3,3,Townhouse,Townhouse,False,0,m2,False
2017378445,listing,/2-109-nelson-road-box-hill-north-vic-3129-2017378445,920000,is-sold,Sold by private treaty 25 Dec 2021,20211225,2/109 Nelson Road,BOX HILL NORTH,VIC,3129,-37.8096161,145.120255,2,2,2,ApartmentUnitFlat,Apartment / Unit / Flat,False,320,m2,False
2017381233,listing,/30-second-avenue-box-hill-north-vic-3129-2017381233,1288000,is-sold,Sold by private treaty 20 Jan 2022,20220120,30 Second Avenue,BOX HILL NORTH,VIC,3129,-37.8014755,145.139114,3,3,3,House,House,False,582,m2,False
2017392606,listing,/414a-belmore-road-mont-albert-north-vic-3129-2017392606,1105000,is-sold,Sold by private treaty 08 Jan 2022,20220108,414A Belmore Road,MONT ALBERT NORTH,VIC,3129,-37.8013763,145.109741,2,2,2,Terrace,Terrace,False,581,m2,False
2017415897,listing,/40-williamson-road-mont-albert-north-vic-3129-2017415897,1516000,is-sold,Sold at auction 18 Dec 2021,20211218,40 Williamson Road,MONT ALBERT NORTH,VIC,3129,-37.799614,145.112976,3,3,3,House,House,False,579,m2,False
2017421394,listing,/18a-belgravia-avenue-mont-albert-north-vic-3129-2017421394,1022500,is-sold,Sold by private treaty 21 Dec 2021,20211221,18A Belgravia Avenue,MONT ALBERT NORTH,VIC,3129,-37.7998161,145.10643,2,2,2,ApartmentUnitFlat,Apartment / Unit / Flat,False,0,m2,False
2017422264,listing,/1-11-goulburn-street-box-hill-north-vic-3129-2017422264,900000,is-sold,Sold by private treaty 20 Dec 2021,20211220,1/11 Goulburn Street,BOX HILL NORTH,VIC,3129,-37.8072548,145.1272,3,3,3,ApartmentUnitFlat,Apartment / Unit / Flat,False,280,m2,False
2017425721,listing,/12-heathfield-rise-box-hill-north-vic-3129-2017425721,1201000,is-sold,Sold by private treaty 24 Dec 2021,20211224,12 Heathfield Rise,BOX HILL NORTH,VIC,3129,-37.8028755,145.140152,3,3,3,House,House,False,589,m2,False
2017436573,listing,/1-82-84-severn-street-box-hill-north-vic-3129-2017436573,1230000,is-sold,Sold by private treaty 04 Jan 2022,20220104,1/82-84 Severn Street,BOX HILL NORTH,VIC,3129,-37.812,145.121552,3,3,3,Townhouse,Townhouse,False,274,m2,False
2017440654,listing,/2-17-lexton-road-box-hill-north-vic-3129-2017440654,960000,is-sold,Sold by private treaty 24 Jan 2022,20220124,2/17 Lexton Road,BOX HILL NORTH,VIC,3129,-37.811554,145.134323,3,3,3,Townhouse,Townhouse,False,0,m2,False
2017457769,listing,/1-46-belgravia-avenue-mont-albert-north-vic-3129-2017457769,1250000,is-sold,Sold at auction 18 Dec 2021,20211218,1/46 Belgravia Avenue,MONT ALBERT NORTH,VIC,3129,-37.7975769,145.106857,3,3,3,ApartmentUnitFlat,Apartment / Unit / Flat,False,350,m2,False
2017462150,listing,/3-10-fortune-street-box-hill-north-vic-3129-2017462150,1205000,is-sold,Sold at auction 15 Jan 2022,20220115,3/10 Fortune Street,BOX HILL NORTH,VIC,3129,-37.809948,145.1386,4,4,4,Townhouse,Townhouse,False,341,m2,False
2017467269,listing,/13-lyndhurst-crescent-box-hill-north-vic-3129-2017467269,818000,is-sold,Sold at auction 18 Dec 2021,20211218,13 Lyndhurst Crescent,BOX HILL NORTH,VIC,3129,-37.7980461,145.130951,3,3,3,House,House,False,466,m2,False
2017242598,listing,/30-harrison-street-box-hill-north-vic-3129-2017242598,950000,is-sold,Sold by private treaty 17 Dec 2021,20211217,30 Harrison Street,BOX HILL NORTH,VIC,3129,-37.8052,145.132355,3,3,3,House,House,False,376,m2,False
2017266779,listing,/839-station-street-box-hill-north-vic-3129-2017266779,1710000,is-sold,Sold by private treaty 16 Dec 2021,20211216,839 Station Street,BOX HILL NORTH,VIC,3129,-37.8095322,145.1253,4,4,4,House,House,False,757,m2,False
2017347266,listing,/1-41-medway-street-box-hill-north-vic-3129-2017347266,853000,is-sold,Sold by private treaty 17 Dec 2021,20211217,1/41 Medway Street,BOX HILL NORTH,VIC,3129,-37.8119965,145.127609,3,3,3,ApartmentUnitFlat,Apartment / Unit / Flat,False,174,m2,False
2017386227,listing,/19a-loraine-avenue-box-hill-north-vic-3129-2017386227,1582000,is-sold,Sold at auction 11 Dec 2021,20211211,19a Loraine Avenue,BOX HILL NORTH,VIC,3129,-37.8022766,145.120026,4,4,4,House,House,False,521,m2,False
2017394315,listing,/45-chessell-street-mont-albert-north-vic-3129-2017394315,1350000,is-sold,Sold by private treaty 08 Dec 2021,20211208,45 Chessell Street,MONT ALBERT NORTH,VIC,3129,-37.7999344,145.113571,3,3,3,House,House,False,600,m2,False
2017405620,listing,/146-woodhouse-grove-box-hill-north-vic-3129-2017405620,1361000,is-sold,Sold at auction 11 Dec 2021,20211211,146 Woodhouse Grove,BOX HILL NORTH,VIC,3129,-37.8027954,145.133163,3,3,3,House,House,False,587,m2,False
2017412506,listing,/1-87-91-watts-street-box-hill-north-vic-3129-2017412506,960000,is-sold,Sold by private treaty 11 Dec 2021,20211211,1/87-91 Watts Street,BOX HILL NORTH,VIC,3129,-37.81015,145.126572,3,3,3,Villa,Villa,False,0,m2,False
2017413100,listing,/109-rostrevor-parade-mont-albert-north-vic-3129-2017413100,1806000,is-sold,Sold at auction 11 Dec 2021,20211211,109 Rostrevor Parade,MONT ALBERT NORTH,VIC,3129,-37.8019333,145.107986,3,3,3,House,House,False,493,m2,False
2017417406,listing,/39-eram-road-box-hill-north-vic-3129-2017417406,1477000,is-sold,Sold at auction 11 Dec 2021,20211211,39 Eram Road,BOX HILL NORTH,VIC,3129,-37.7991371,145.1376,4,4,4,House,House,False,598,m2,False
2017417887,listing,/3-107-dorking-road-box-hill-north-vic-3129-2017417887,758000,is-sold,Sold at auction 11 Dec 2021,20211211,3/107 Dorking Road,BOX HILL NORTH,VIC,3129,-37.8097839,145.131866,2,2,2,ApartmentUnitFlat,Apartment / Unit / Flat,False,167,m2,False
2017419192,listing,/2-74-severn-street-box-hill-north-vic-3129-2017419192,705000,is-sold,Sold at auction 11 Dec 2021,20211211,2/74 Severn Street,BOX HILL NORTH,VIC,3129,-37.8120155,145.122665,2,2,2,ApartmentUnitFlat,Apartment / Unit / Flat,False,0,m2,False
2017419481,listing,/20-melrose-street-mont-albert-north-vic-3129-2017419481,1396000,is-sold,Sold by private treaty 11 Dec 2021,20211211,20 Melrose Street,MONT ALBERT NORTH,VIC,3129,-37.810955,145.111008,4,4,4,House,House,False,583,m2,False
2017421329,listing,/41-clyde-street-box-hill-north-vic-3129-2017421329,1445500,is-sold,Sold at auction 11 Dec 2021,20211211,41 Clyde Street,BOX HILL NORTH,VIC,3129,-37.8098259,145.127838,3,3,3,House,House,False,711,m2,False
2017423928,listing,/2-861-station-st-box-hill-north-vic-3129-2017423928,881000,is-sold,Sold by private treaty 13 Dec 2021,20211213,2/861 Station St,BOX HILL NORTH,VIC,3129,-37.8091431,145.125061,3,3,3,House,House,False,0,m2,False
2017431949,listing,/14-strabane-avenue-mont-albert-north-vic-3129-2017431949,2980000,is-sold,Sold at auction 12 Dec 2021,20211212,14 Strabane Avenue,MONT ALBERT NORTH,VIC,3129,-37.8072433,145.113586,5,5,5,House,House,False,919,m2,False
2017432891,listing,/25-tyrrell-street-mont-albert-north-vic-3129-2017432891,1510000,is-sold,Sold at auction 12 Dec 2021,20211212,25 Tyrrell Street,MONT ALBERT NORTH,VIC,3129,-37.8024635,145.11261,4,4,4,House,House,False,0,m2,False
2017437407,listing,/29-williamson-road-mont-albert-north-vic-3129-2017437407,1527000,is-sold,Sold prior to auction 15 Dec 2021,20211215,29 Williamson Road,MONT ALBERT NORTH,VIC,3129,-37.7990379,145.111938,3,3,3,House,House,False,675,m2,False
2017439125,listing,/2-497-elgar-road-mont-albert-north-vic-3129-2017439125,1130000,is-sold,Sold at auction 11 Dec 2021,20211211,2/497 Elgar Road,MONT ALBERT NORTH,VIC,3129,-37.81204,145.115387,3,3,3,House,House,False,0,m2,False
2017446956,listing,/1-86-shannon-street-box-hill-north-vic-3129-2017446956,1458000,is-sold,Sold at auction 15 Dec 2021,20211215,1/86 Shannon Street,BOX HILL NORTH,VIC,3129,-37.80753,145.1208,4,4,4,Townhouse,Townhouse,False,0,m2,False
2017494398,listing,/14-boondara-road-mont-albert-north-vic-3129-2017494398,1639800,is-sold,Sold by private treaty 13 Dec 2021,20211213,14 Boondara Road,MONT ALBERT NORTH,VIC,3129,-37.8055573,145.110336,4,4,4,House,House,False,350,m2,False
2017150322,listing,/5-143-145-woodhouse-grove-box-hill-north-vic-3129-2017150322,900000,is-sold,Sold at auction 21 Nov 2021,20211121,5/143-145 Woodhouse Grove,BOX HILL NORTH,VIC,3129,-37.80219,145.131485,3,3,3,House,House,False,0,m2,False
2017317726,listing,/2-20-karen-street-box-hill-north-vic-3129-2017317726,985000,is-sold,Sold at auction 04 Dec 2021,20211204,2/20 Karen Street,BOX HILL NORTH,VIC,3129,-37.8034363,145.139481,3,3,3,Townhouse,Townhouse,False,0,m2,False
2017359793,listing,/139-woodhouse-grove-box-hill-north-vic-3129-2017359793,1455000,is-sold,Sold at auction 20 Nov 2021,20211120,139 Woodhouse Grove,BOX HILL NORTH,VIC,3129,-37.80212,145.130737,4,4,4,House,House,False,0,m2,False
2017364298,listing,/67-mersey-street-box-hill-north-vic-3129-2017364298,1481000,is-sold,Sold at auction 27 Nov 2021,20211127,67 Mersey Street,BOX HILL NORTH,VIC,3129,-37.80788,145.1311,4,4,4,House,House,False,0,m2,False
2017369131,listing,/2-9-cairo-road-cnr-box-hill-crescent-mont-albert-north-vic-3129-2017369131,750000,is-sold,Sold at auction 27 Nov 2021,20211127,2/9 Cairo Road (Cnr Box Hill Crescent),MONT ALBERT NORTH,VIC,3129,-37.8040581,145.115265,3,3,3,ApartmentUnitFlat,Apartment / Unit / Flat,False,0,m2,False
2017372963,listing,/108-shannon-street-box-hill-north-vic-3129-2017372963,1250000,is-sold,Sold at auction 27 Nov 2021,20211127,108 Shannon Street,BOX HILL NORTH,VIC,3129,-37.80726,145.118454,3,3,3,House,House,False,651,m2,False
2017376989,listing,/1-8-goulburn-street-box-hill-north-vic-3129-2017376989,1255000,is-sold,Sold at auction 27 Nov 2021,20211127,1/8 Goulburn Street,BOX HILL NORTH,VIC,3129,-37.8075371,145.127548,3,3,3,ApartmentUnitFlat,Apartment / Unit / Flat,False,380,m2,False
2017379548,listing,/7-mitta-street-box-hill-north-vic-3129-2017379548,1601000,is-sold,Sold at auction 27 Nov 2021,20211127,7 Mitta Street,BOX HILL NORTH,VIC,3129,-37.8070755,145.122284,3,3,3,House,House,False,907,m2,False
2017383577,listing,/66-harrison-street-box-hill-north-vic-3129-2017383577,1362500,is-sold,Sold at auction 20 Nov 2021,20211120,66 Harrison Street,BOX HILL NORTH,VIC,3129,-37.80167,145.133072,3,3,3,House,House,False,600,m2,False
2017384430,listing,/11-molbray-street-box-hill-north-vic-3129-2017384430,950000,is-sold,Sold at auction 27 Nov 2021,20211127,11 Molbray Street,BOX HILL NORTH,VIC,3129,-37.80404,145.1363,3,3,3,House,House,False,239,m2,False
2017386174,listing,/2-549-elgar-road-mont-albert-north-vic-3129-2017386174,1431000,is-sold,Sold at auction 04 Dec 2021,20211204,2/549 Elgar Road,MONT ALBERT NORTH,VIC,3129,-37.8072777,145.116028,3,3,3,Townhouse,Townhouse,False,761,m2,False
2017387635,listing,/21b-belgravia-avenue-mont-albert-north-vic-3129-2017387635,2405000,is-sold,Sold at auction 30 Nov 2021,20211130,21B Belgravia Avenue,MONT ALBERT NORTH,VIC,3129,-37.799614,145.106033,4,4,4,House,House,False,505,m2,False
2017391947,listing,/1-2-3-13-medway-street-box-hill-north-vic-3129-2017391947,2349000,is-sold,Sold at auction 04 Dec 2021,20211204,"1,2&3/13 Medway Street",BOX HILL NORTH,VIC,3129,-37.812252,145.129929,6,6,6,House,House,False,898,m2,False
2017392439,listing,/47-mckean-street-box-hill-north-vic-3129-2017392439,2135000,is-sold,Sold at auction 04 Dec 2021,20211204,47 Mckean Street,BOX HILL NORTH,VIC,3129,-37.8136063,145.136459,4,4,4,House,House,False,706,m2,False
2017394290,listing,/60-dunloe-avenue-mont-albert-north-vic-3129-2017394290,2280000,is-sold,Sold at auction 04 Dec 2021,20211204,60 Dunloe Avenue,MONT ALBERT NORTH,VIC,3129,-37.8086929,145.110489,2,2,2,House,House,False,822,m2,False
2017398005,listing,/19-valda-avenue-mont-albert-north-vic-3129-2017398005,2206500,is-sold,Sold at auction 27 Nov 2021,20211127,19 Valda Avenue,MONT ALBERT NORTH,VIC,3129,-37.7963,145.112518,4,4,4,House,House,False,622,m2,False
2017398149,listing,/2-34-moselle-street-mont-albert-north-vic-3129-2017398149,910000,is-sold,Sold at auction 04 Dec 2021,20211204,2/34 Moselle Street,MONT ALBERT NORTH,VIC,3129,-37.8040161,145.109634,2,2,2,ApartmentUnitFlat,Apartment / Unit / Flat,False,0,m2,False
2017398703,listing,/1-53-shannon-street-box-hill-north-vic-3129-2017398703,1150000,is-sold,Sold by private treaty 02 Dec 2021,20211202,1/53 Shannon Street,BOX HILL NORTH,VIC,3129,-37.8083458,145.1247,3,3,3,House,House,False,0,m2,False
2017405021,listing,/1a-saxton-street-box-hill-north-vic-3129-2017405021,995000,is-sold,Sold at auction 04 Dec 2021,20211204,1a Saxton Street,BOX HILL NORTH,VIC,3129,-37.80735,145.121231,2,2,2,ApartmentUnitFlat,Apartment / Unit / Flat,False,377,m2,False
2017428636,listing,/2-kilto-street-box-hill-north-vic-3129-2017428636,1321000,is-sold,Sold by private treaty 02 Dec 2021,20211202,2 Kilto Street,BOX HILL NORTH,VIC,3129,-37.8072433,145.13533,3,3,3,House,House,False,0,m2,False
2016924540,listing,/70-rostrevor-parade-mont-albert-north-vic-3129-2016924540,2398000,is-sold,Sold by private treaty 05 Nov 2021,20211105,70 Rostrevor Parade,MONT ALBERT NORTH,VIC,3129,-37.8055153,145.107773,,,,VacantLand,Vacant land,False,0,m2,False
2017105617,listing,/4-779-station-street-box-hill-north-vic-3129-2017105617,430000,is-sold,Sold at auction 15 Nov 2021,20211115,4/779 Station Street,BOX HILL NORTH,VIC,3129,-37.81238,145.124756,2,2,2,ApartmentUnitFlat,Apartment / Unit / Flat,False,0,m2,False
2017161040,listing,/4-27-29-clyde-st-box-hill-north-vic-3129-2017161040,1420000,is-sold,Sold by private treaty 11 Nov 2021,20211111,4/27-29 Clyde St,BOX HILL NORTH,VIC,3129,-37.8099747,145.129349,4,4,4,Townhouse,Townhouse,False,300,m2,False
2017297885,listing,/3-112a-severn-street-box-hill-north-vic-3129-2017297885,767000,is-sold,Sold at auction 06 Nov 2021,20211106,3/112A Severn Street,BOX HILL NORTH,VIC,3129,-37.81129,145.117981,2,2,2,ApartmentUnitFlat,Apartment / Unit / Flat,False,177,m2,False
2017310678,listing,/34-allison-road-mont-albert-north-vic-3129-2017310678,1530000,is-sold,Sold at auction 06 Nov 2021,20211106,34 Allison Road,MONT ALBERT NORTH,VIC,3129,-37.80561,145.110748,4,4,4,Townhouse,Townhouse,False,0,m2,False
2017313468,listing,/20-rostrevor-parade-mont-albert-north-vic-3129-2017313468,2210000,is-sold,Sold at auction 06 Nov 2021,20211106,20 Rostrevor Parade,MONT ALBERT NORTH,VIC,3129,-37.81054,145.1068,3,3,3,House,House,False,840,m2,False
2017319773,listing,/53-eram-road-box-hill-north-vic-3129-2017319773,1290000,is-sold,Sold at auction 13 Nov 2021,20211113,53 Eram Road,BOX HILL NORTH,VIC,3129,-37.7996979,145.135574,4,4,4,House,House,False,541,m2,False
2017320091,listing,/4-waranga-street-box-hill-north-vic-3129-2017320091,1215000,is-sold,Sold at auction 13 Nov 2021,20211113,4 Waranga Street,BOX HILL NORTH,VIC,3129,-37.8038979,145.131027,4,4,4,House,House,False,226,m2,False
2017328586,listing,/27-woodhouse-grove-box-hill-north-vic-3129-2017328586,1965000,is-sold,Sold at auction 06 Nov 2021,20211106,27 Woodhouse Grove,BOX HILL NORTH,VIC,3129,-37.8030777,145.121,4,4,4,House,House,False,683,m2,False
2017336611,listing,/3-14-mitchell-road-mont-albert-north-vic-3129-2017336611,1301000,is-sold,Sold at auction 13 Nov 2021,20211113,3/14 Mitchell Road,MONT ALBERT NORTH,VIC,3129,-37.8045578,145.114319,3,3,3,ApartmentUnitFlat,Apartment / Unit / Flat,False,362,m2,False
2017339073,listing,/15-evelina-street-mont-albert-north-vic-3129-2017339073,2360000,is-sold,Sold prior to auction 12 Nov 2021,20211112,15 Evelina Street,MONT ALBERT NORTH,VIC,3129,-37.8047142,145.104843,3,3,3,House,House,False,1235,m2,False
2017340847,listing,/10-aspinall-road-box-hill-north-vic-3129-2017340847,1400000,is-sold,Sold at auction 20 Nov 2021,20211120,10 Aspinall Road,BOX HILL NORTH,VIC,3129,-37.8014145,145.131577,4,4,4,House,House,False,697,m2,False
2017341263,listing,/16-morris-avenue-mont-albert-north-vic-3129-2017341263,1811000,is-sold,Sold at auction 13 Nov 2021,20211113,16 Morris Avenue,MONT ALBERT NORTH,VIC,3129,-37.7988319,145.115143,3,3,3,House,House,False,790,m2,False
2017341651,listing,/12-hawkins-avenue-mont-albert-north-vic-3129-2017341651,2000000,is-sold,Sold at auction 20 Nov 2021,20211120,12 Hawkins Avenue,MONT ALBERT NORTH,VIC,3129,-37.80828,145.114456,3,3,3,House,House,False,639,m2,False
2017345049,listing,/2-mitchell-road-mont-albert-north-vic-3129-2017345049,1180000,is-sold,Sold at auction 13 Nov 2021,20211113,2 Mitchell Road,MONT ALBERT NORTH,VIC,3129,-37.8050652,145.116714,3,3,3,Townhouse,Townhouse,False,0,m2,False
2017348586,listing,/5-arnott-street-mont-albert-north-vic-3129-2017348586,1390000,is-sold,Sold at auction 20 Nov 2021,20211120,5 Arnott Street,MONT ALBERT NORTH,VIC,3129,-37.80264,145.111481,2,2,2,House,House,False,586,m2,False
2017359310,listing,/35-packham-street-box-hill-north-vic-3129-2017359310,1241000,is-sold,Sold by private treaty 05 Nov 2021,20211105,35 Packham Street,BOX HILL NORTH,VIC,3129,-37.8079643,145.136856,3,3,3,House,House,False,599,m2,False
2017361931,listing,/1-41-peter-street-box-hill-north-vic-3129-2017361931,750000,is-sold,Sold at auction 13 Nov 2021,20211113,1/41 Peter Street,BOX HILL NORTH,VIC,3129,-37.7994232,145.122589,3,3,3,ApartmentUnitFlat,Apartment / Unit / Flat,False,0,m2,False
2017363545,listing,/1-37-belgravia-avenue-mont-albert-north-vic-3129-2017363545,935000,is-sold,Sold at auction 20 Nov 2021,20211120,1/37 Belgravia Avenue,MONT ALBERT NORTH,VIC,3129,-37.79778,145.106415,2,2,2,ApartmentUnitFlat,Apartment / Unit / Flat,False,0,m2,False
2017366857,listing,/5-roselea-street-box-hill-north-vic-3129-2017366857,2820000,is-sold,Sold prior to auction 18 Nov 2021,20211118,5 Roselea Street,BOX HILL NORTH,VIC,3129,-37.8020363,145.134872,5,5,5,House,House,False,760,m2,False
2016961392,listing,/103-546-elgar-road-box-hill-north-vic-3129-2016961392,445000,is-sold,Sold by private treaty 25 Oct 2021,20211025,103/546 Elgar Road,BOX HILL NORTH,VIC,3129,-37.80785,145.11702,2,2,2,ApartmentUnitFlat,Apartment / Unit / Flat,False,0,m2,False
2017029754,listing,/2-34-williamson-road-mont-albert-north-vic-3129-2017029754,,is-sold,Sold by private treaty 20 Oct 2021,20211020,2/34 Williamson Road,MONT ALBERT NORTH,VIC,3129,-37.7994957,145.1124,4,4,4,Townhouse,Townhouse,False,0,m2,False
2017180958,listing,/2-cairo-road-mont-albert-north-vic-3129-2017180958,1645000,is-sold,Sold prior to auction 03 Nov 2021,20211103,2 Cairo Road,MONT ALBERT NORTH,VIC,3129,-37.8036957,145.116791,3,3,3,House,House,False,883,m2,False
2017251325,listing,/133-dorking-road-box-hill-north-vic-3129-2017251325,1710000,is-sold,Sold at auction 16 Oct 2021,20211016,133 Dorking Road,BOX HILL NORTH,VIC,3129,-37.80729,145.132523,4,4,4,House,House,False,602,m2,False
2017261212,listing,/16-scarborough-square-mont-albert-north-vic-3129-2017261212,1023500,is-sold,Sold by private treaty 23 Oct 2021,20211023,16 Scarborough Square,MONT ALBERT NORTH,VIC,3129,-37.8005028,145.110275,3,3,3,House,House,False,0,m2,False
2017274061,listing,/39-springfield-road-box-hill-north-vic-3129-2017274061,1390000,is-sold,Sold prior to auction 22 Oct 2021,20211022,39 Springfield Road,BOX HILL NORTH,VIC,3129,-37.8085861,145.1374,3,3,3,House,House,False,687,m2,False
2017279035,listing,/8-essex-street-box-hill-north-vic-3129-2017279035,1265000,is-sold,Sold at auction 16 Oct 2021,20211016,8 Essex Street,BOX HILL NORTH,VIC,3129,-37.804924,145.137741,3,3,3,House,House,False,0,m2,False
2017290127,listing,/8-tyrrell-street-mont-albert-north-vic-3129-2017290127,2205000,is-sold,Sold at auction 23 Oct 2021,20211023,8 Tyrrell Street,MONT ALBERT NORTH,VIC,3129,-37.8054428,145.11264,4,4,4,House,House,False,694,m2,False
2017290230,listing,/9-sewell-street-mont-albert-north-vic-3129-2017290230,1150000,is-sold,Sold at auction 23 Oct 2021,20211023,9 Sewell Street,MONT ALBERT NORTH,VIC,3129,-37.8001366,145.11055,3,3,3,ApartmentUnitFlat,Apartment / Unit / Flat,False,270,m2,False
2017291409,listing,/14-cameron-road-box-hill-north-vic-3129-2017291409,1601000,is-sold,Sold at auction 30 Oct 2021,20211030,14 Cameron Road,BOX HILL NORTH,VIC,3129,-37.8099251,145.135239,4,4,4,House,House,False,622,m2,False
2017291440,listing,/2-1-morley-crescent-box-hill-north-vic-3129-2017291440,1810000,is-sold,Sold by private treaty 21 Oct 2021,20211021,2/1 Morley Crescent,BOX HILL NORTH,VIC,3129,-37.8020859,145.12265,4,4,4,House,House,False,358,m2,False
2017291736,listing,/3-horfield-avenue-box-hill-north-vic-3129-2017291736,1576000,is-sold,Sold at auction 20 Oct 2021,20211020,3 Horfield Avenue,BOX HILL NORTH,VIC,3129,-37.8014755,145.118713,4,4,4,House,House,False,362,m2,False
2017295182,listing,/2-473-middleborough-road-box-hill-north-vic-3129-2017295182,768000,is-sold,Sold prior to auction 21 Oct 2021,20211021,2/473 Middleborough Road,BOX HILL NORTH,VIC,3129,-37.81283,145.1394,3,3,3,ApartmentUnitFlat,Apartment / Unit / Flat,False,0,m2,False
2017300978,listing,/20-wimmera-street-box-hill-north-vic-3129-2017300978,1730000,is-sold,Sold at auction 30 Oct 2021,20211030,20 Wimmera Street,BOX HILL NORTH,VIC,3129,-37.8072472,145.1294,3,3,3,House,House,False,691,m2,False
2017301021,listing,/20-heathfield-rise-box-hill-north-vic-3129-2017301021,1285000,is-sold,Sold at auction 30 Oct 2021,20211030,20 Heathfield Rise,BOX HILL NORTH,VIC,3129,-37.8027763,145.1395,3,3,3,House,House,False,600,m2,False
2017301172,listing,/7-alberta-avenue-box-hill-north-vic-3129-2017301172,1280000,is-sold,Sold by private treaty 21 Oct 2021,20211021,7 Alberta Avenue,BOX HILL NORTH,VIC,3129,-37.8094368,145.136826,4,4,4,House,House,False,364,m2,False
