id,listingType,url,price,tagClassName,tagText,date,street,suburb,state,postcode,lat,lng,beds,baths,parking,propertyType,propertyTypeFormatted,isRural,landSize,landUnit,isRetirement
2016772147,listing,/1-72-clarke-street-lilydale-vic-3140-2016772147,625000,is-sold,Sold by private treaty 01 Feb 2023,20230201,1/72 Clarke Street,LILYDALE,VIC,3140,-37.75207,145.353622,3,2,2,Townhouse,Townhouse,False,0,m2,False
2018170886,listing,/63-nimblefoot-way-lilydale-vic-3140-2018170886,1260000,is-sold,Sold by private treaty 22 Jan 2023,20230122,63 Nimblefoot Way,LILYDALE,VIC,3140,-37.74033,145.347534,4,3,2,House,House,False,700,m2,False
2018175899,listing,/5-cashins-mill-place-lilydale-vic-3140-2018175899,810000,is-sold,Sold by private treaty 03 Feb 2023,20230203,5 Cashins Mill Place,LILYDALE,VIC,3140,-37.76593,145.359955,3,2,1,House,House,False,926,m2,False
2018178582,listing,/20-crombie-road-lilydale-vic-3140-2018178582,2500000,is-sold,Sold by private treaty 22 Feb 2023,20230222,20 Crombie Road,LILYDALE,VIC,3140,-37.7628136,145.402649,5,2,3,House,House,False,30351,m2,False
2018202626,listing,/19-pinnacle-rise-lilydale-vic-3140-2018202626,1100000,is-sold,Sold by private treaty 20 Jan 2023,20230120,19 Pinnacle Rise,LILYDALE,VIC,3140,-37.77375,145.350708,5,2,2,House,House,False,655,m2,False
2018229789,listing,/9-dixon-place-lilydale-vic-3140-2018229789,Price Withheld,is-sold,Sold by private treaty 20 Jan 2023,20230120,9 Dixon Place,LILYDALE,VIC,3140,-37.76597,145.364746,4,2,2,House,House,False,608,m2,False
2018234373,listing,/16-anderson-street-lilydale-vic-3140-2018234373,Price Withheld,is-sold,Sold by private treaty 26 Jan 2023,20230126,16 Anderson Street,LILYDALE,VIC,3140,-37.759655,145.354843,3,2,2,House,House,False,410,m2,False
2018240550,listing,/7-joy-court-lilydale-vic-3140-2018240550,Price Withheld,is-sold,Sold by private treaty 12 Feb 2023,20230212,7 Joy Court,LILYDALE,VIC,3140,-37.7723465,145.353516,4,2,2,House,House,False,616,m2,False
2018276069,listing,/1-10-deschamps-street-lilydale-vic-3140-2018276069,718800,is-sold,Sold by private treaty 19 Jan 2023,20230119,1/10 Deschamps Street,LILYDALE,VIC,3140,-37.75445,145.342438,3,2,2,ApartmentUnitFlat,Apartment / Unit / Flat,False,314,m2,False
2018285797,listing,/364-swansea-road-lilydale-vic-3140-2018285797,715000,is-sold,Sold by private treaty 25 Jan 2023,20230125,364 Swansea Road,LILYDALE,VIC,3140,-37.77344,145.363327,3,2,2,House,House,False,623,m2,False
2018301036,listing,/6-74-clarke-street-lilydale-vic-3140-2018301036,555000,is-sold,Sold by private treaty 21 Feb 2023,20230221,6/74 Clarke Street,LILYDALE,VIC,3140,-37.7519531,145.353683,2,2,1,Townhouse,Townhouse,False,0,m2,False
2018301485,listing,/1-36-rouke-street-lilydale-vic-3140-2018301485,592500,is-sold,Sold by private treaty 25 Jan 2023,20230125,1/36 Rouke Street,LILYDALE,VIC,3140,-37.7537079,145.33606,2,2,1,Townhouse,Townhouse,False,0,m2,False
2018303100,listing,/23-the-gateway-lilydale-vic-3140-2018303100,920000,is-sold,Sold by private treaty 15 Feb 2023,20230215,23 The Gateway,LILYDALE,VIC,3140,-37.7442932,145.345871,3,2,2,House,House,False,716,m2,False
2018312453,listing,/28-heritage-drive-lilydale-vic-3140-2018312453,970000,is-sold,Sold by private treaty 20 Feb 2023,20230220,28 Heritage Drive,LILYDALE,VIC,3140,-37.7656975,145.366272,4,2,2,House,House,False,743,m2,False
2018312634,listing,/163-swansea-road-lilydale-vic-3140-2018312634,750000,is-sold,Sold by private treaty 15 Feb 2023,20230215,163 Swansea Road,LILYDALE,VIC,3140,-37.7960663,145.359177,3,2,2,House,House,False,976,m2,False
2018315128,listing,/30-kingsburgh-lane-lilydale-vic-3140-2018315128,Price Withheld,is-sold,Sold by private treaty 03 Feb 2023,20230203,30 Kingsburgh Lane,LILYDALE,VIC,3140,-37.73871,145.3444,4,2,2,House,House,False,754,m2,False
2018321471,listing,/3-5-albert-road-lilydale-vic-3140-2018321471,612000,is-sold,Sold by private treaty 24 Feb 2023,20230224,3/5 Albert Road,LILYDALE,VIC,3140,-37.75672,145.362549,2,1,1,House,House,False,177,m2,False
2018326745,listing,/126-lakeview-drive-lilydale-vic-3140-2018326745,930000,is-sold,Sold by private treaty 14 Feb 2023,20230214,126 Lakeview Drive,LILYDALE,VIC,3140,-37.77348,145.346451,4,2,2,House,House,False,863,m2,False
2018326746,listing,/7a-bowen-road-lilydale-vic-3140-2018326746,810000,is-sold,Sold by private treaty 10 Feb 2023,20230210,7A Bowen Road,LILYDALE,VIC,3140,-37.75605,145.3386,4,2,2,House,House,False,0,m2,False
2018341144,listing,/4-20-kidgell-street-lilydale-vic-3140-2018341144,570000,is-sold,Sold by private treaty 24 Feb 2023,20230224,4/20 Kidgell Street,LILYDALE,VIC,3140,-37.7532959,145.3399,3,1,1,Townhouse,Townhouse,False,0,m2,False
2018069995,listing,/32-white-close-lilydale-vic-3140-2018069995,438000,is-sold,Sold by private treaty 23 Dec 2022,20221223,32 White Close,LILYDALE,VIC,3140,-37.7607422,145.33667,2,1,1,ApartmentUnitFlat,Apartment / Unit / Flat,False,0,m2,False
2018127739,listing,/2-7-cave-hill-road-lilydale-vic-3140-2018127739,Price Withheld,is-sold,Sold by private treaty 11 Jan 2023,20230111,2/7 Cave Hill Road,LILYDALE,VIC,3140,-37.75967,145.342163,1,1,1,ApartmentUnitFlat,Apartment / Unit / Flat,False,0,m2,False
2018152828,listing,/41-chester-street-lilydale-vic-3140-2018152828,890000,is-sold,Sold by private treaty 13 Dec 2022,20221213,41 Chester Street,LILYDALE,VIC,3140,-37.7426834,145.342148,4,2,2,House,House,False,720,m2,False
2018153211,listing,/46-the-eyrie-lilydale-vic-3140-2018153211,835000,is-sold,Sold by private treaty 15 Dec 2022,20221215,46 The Eyrie,LILYDALE,VIC,3140,-37.7523956,145.359421,3,1,1,House,House,False,1002,m2,False
2018171514,listing,/3-78-castella-street-lilydale-vic-3140-2018171514,425000,is-sold,Sold by private treaty 10 Jan 2023,20230110,3/78 Castella Street,LILYDALE,VIC,3140,-37.7525749,145.3551,1,1,1,ApartmentUnitFlat,Apartment / Unit / Flat,False,0,m2,False
2018174312,listing,/55-queen-road-lilydale-vic-3140-2018174312,900000,is-sold,Sold by private treaty 09 Dec 2022,20221209,55 Queen Road,LILYDALE,VIC,3140,-37.7613068,145.363327,5,2,2,House,House,False,897,m2,False
2018177872,listing,/4-6-erldunda-court-lilydale-vic-3140-2018177872,412762,is-sold,Sold by private treaty 09 Dec 2022,20221209,4/6 Erldunda Court,LILYDALE,VIC,3140,-37.7484436,145.34,2,1,1,ApartmentUnitFlat,Apartment / Unit / Flat,False,0,m2,False
2018187801,listing,/6-pisces-court-lilydale-vic-3140-2018187801,1115000,is-sold,Sold by private treaty 23 Dec 2022,20221223,6 Pisces Court,LILYDALE,VIC,3140,-37.7612839,145.370651,4,3,2,House,House,False,937,m2,False
2018190406,listing,/11-valencia-road-lilydale-vic-3140-2018190406,872000,is-sold,Sold by private treaty 14 Dec 2022,20221214,11 Valencia Road,LILYDALE,VIC,3140,-37.7668762,145.370682,3,2,2,House,House,False,870,m2,False
2018206849,listing,/3-jayde-close-lilydale-vic-3140-2018206849,582000,is-sold,Sold by private treaty 08 Dec 2022,20221208,3 Jayde Close,LILYDALE,VIC,3140,-37.75832,145.3418,2,1,1,Townhouse,Townhouse,False,0,m2,False
2018212082,listing,/1-10-taylor-street-lilydale-vic-3140-2018212082,370000,is-sold,Sold by private treaty 12 Jan 2023,20230112,1/10 Taylor Street,LILYDALE,VIC,3140,-37.7603035,145.340775,2,1,2,House,House,False,380,m2,False
2018214901,listing,/127-anderson-street-lilydale-vic-3140-2018214901,751500,is-sold,Sold by private treaty 16 Dec 2022,20221216,127 Anderson Street,LILYDALE,VIC,3140,-37.74987,145.356415,3,1,2,House,House,False,865,m2,False
2018217360,listing,/6-parkside-close-lilydale-vic-3140-2018217360,736161,is-sold,Sold by private treaty 08 Dec 2022,20221208,6 Parkside Close,LILYDALE,VIC,3140,-37.76454,145.3723,4,2,1,House,House,False,563,m2,False
2018221054,listing,/5-brown-street-lilydale-vic-3140-2018221054,780000,is-sold,Sold by private treaty 09 Dec 2022,20221209,5 Brown Street,LILYDALE,VIC,3140,-37.75268,145.356934,3,1,1,House,House,False,0,m2,False
2018221094,listing,/19-beresford-road-lilydale-vic-3140-2018221094,700000,is-sold,Sold by private treaty 09 Dec 2022,20221209,19 Beresford Road,LILYDALE,VIC,3140,-37.7497063,145.338959,3,1,2,House,House,False,866,m2,False
2018235248,listing,/19-23-albert-road-lilydale-vic-3140-2018235248,700000,is-sold,Sold by private treaty 23 Dec 2022,20221223,19-23 Albert Road,LILYDALE,VIC,3140,-37.7581673,145.362366,2,1,2,House,House,False,1044,m2,False
2018242694,listing,/6-rimfire-court-lilydale-vic-3140-2018242694,706000,is-sold,Sold by private treaty 09 Jan 2023,20230109,6 Rimfire Court,LILYDALE,VIC,3140,-37.7431755,145.346039,3,2,2,House,House,False,501,m2,False
2018245360,listing,/4-27-cave-hill-road-lilydale-vic-3140-2018245360,592585,is-sold,Sold by private treaty 05 Jan 2023,20230105,4/27 Cave Hill Road,LILYDALE,VIC,3140,-37.75805,145.342545,2,1,1,ApartmentUnitFlat,Apartment / Unit / Flat,False,0,m2,False
2018246705,listing,/9-shevlin-close-lilydale-vic-3140-2018246705,675000,is-sold,Sold by private treaty 22 Dec 2022,20221222,9 Shevlin Close,LILYDALE,VIC,3140,-37.7666626,145.3656,3,2,2,House,House,False,0,m2,False
2018251278,listing,/65-kingsburgh-lane-lilydale-vic-3140-2018251278,Price Withheld,is-sold,Sold by private treaty 12 Dec 2022,20221212,65 Kingsburgh Lane,LILYDALE,VIC,3140,-37.7398834,145.339539,5,3,2,House,House,False,930,m2,False
2018025301,listing,/9-sarges-mews-lilydale-vic-3140-2018025301,542500,is-sold,Sold by private treaty 24 Nov 2022,20221124,9 Sarges Mews,LILYDALE,VIC,3140,-37.7601357,145.339661,2,2,1,Townhouse,Townhouse,False,0,m2,False
2018071498,listing,/22-william-road-lilydale-vic-3140-2018071498,1400000,is-sold,Sold by private treaty 10 Nov 2022,20221110,22 William Road,LILYDALE,VIC,3140,-37.7840958,145.355881,3,2,3,House,House,False,4936,m2,False
2018080017,listing,/6-the-circuit-lilydale-vic-3140-2018080017,816000,is-sold,Sold by private treaty 21 Nov 2022,20221121,6 The Circuit,LILYDALE,VIC,3140,-37.77451,145.346512,3,2,2,House,House,False,651,m2,False
2018090618,listing,/10-thomas-crescent-lilydale-vic-3140-2018090618,1360000,is-sold,Sold by private treaty 25 Nov 2022,20221125,10 Thomas Crescent,LILYDALE,VIC,3140,-37.78968,145.355637,4,2,7,House,House,False,3690,m2,False
2018094927,listing,/14-rimfire-court-lilydale-vic-3140-2018094927,780000,is-sold,Sold by private treaty 29 Nov 2022,20221129,14 Rimfire Court,LILYDALE,VIC,3140,-37.74289,145.345673,3,2,2,House,House,False,510,m2,False
2018112610,listing,/13-the-midway-lilydale-vic-3140-2018112610,860000,is-sold,Sold by private treaty 11 Nov 2022,20221111,13 The Midway,LILYDALE,VIC,3140,-37.7754555,145.345963,3,2,2,House,House,False,562,m2,False
2018124100,listing,/3-50-anderson-street-lilydale-vic-3140-2018124100,505000,is-sold,Sold by private treaty 19 Nov 2022,20221119,3/50 Anderson Street,LILYDALE,VIC,3140,-37.75662,145.355331,2,1,1,ApartmentUnitFlat,Apartment / Unit / Flat,False,94,m2,False
2018138116,listing,/2-rolaine-close-lilydale-vic-3140-2018138116,750000,is-sold,Sold by private treaty 29 Nov 2022,20221129,2 Rolaine Close,LILYDALE,VIC,3140,-37.7634621,145.362991,3,2,2,House,House,False,522,m2,False
2018152575,listing,/3-panorama-rise-lilydale-vic-3140-2018152575,850000,is-sold,Sold at auction 05 Dec 2022,20221205,3 Panorama Rise,LILYDALE,VIC,3140,-37.75755,145.370728,4,2,2,House,House,False,0,m2,False
2018159688,listing,/23-alexandra-road-lilydale-vic-3140-2018159688,750000,is-sold,Sold by private treaty 21 Nov 2022,20221121,23 Alexandra Road,LILYDALE,VIC,3140,-37.757122,145.363632,3,1,-,House,House,False,1000,m2,False
2018164943,listing,/2a-john-street-lilydale-vic-3140-2018164943,Price Withheld,is-sold,Sold by private treaty 14 Nov 2022,20221114,2A John Street,LILYDALE,VIC,3140,-37.75735,145.34166,-,-,-,VacantLand,Vacant land,False,1023,m2,False
2018186421,listing,/4-diggers-walk-lilydale-vic-3140-2018186421,582400,is-sold,Sold by private treaty 23 Nov 2022,20221123,4 Diggers Walk,LILYDALE,VIC,3140,-37.7513,145.337067,2,1,2,Townhouse,Townhouse,False,0,m2,False
2018189887,listing,/4a-wilsons-lane-lilydale-vic-3140-2018189887,592500,is-sold,Sold by private treaty 07 Dec 2022,20221207,4A Wilsons Lane,LILYDALE,VIC,3140,-37.75519,145.339691,2,1,1,Townhouse,Townhouse,False,123,m2,False
2018190902,listing,/117-bastow-road-lilydale-vic-3140-2018190902,760000,is-sold,Sold by private treaty 26 Nov 2022,20221126,117 Bastow Road,LILYDALE,VIC,3140,-37.7612228,145.367355,3,2,2,House,House,False,976,m2,False
2018191012,listing,/50-the-gateway-lilydale-vic-3140-2018191012,915000,is-sold,Sold prior to auction 22 Nov 2022,20221122,50 The Gateway,LILYDALE,VIC,3140,-37.74266,145.3474,4,2,2,House,House,False,702,m2,False
2018203678,listing,/11-vittorio-court-lilydale-vic-3140-2018203678,886500,is-sold,Sold by private treaty 23 Nov 2022,20221123,11 Vittorio Court,LILYDALE,VIC,3140,-37.7404556,145.338928,3,2,2,House,House,False,740,m2,False
2018220419,listing,/11-banker-court-lilydale-vic-3140-2018220419,921000,is-sold,Sold by private treaty 30 Nov 2022,20221130,11 Banker Court,LILYDALE,VIC,3140,-37.74141,145.342133,3,2,2,House,House,False,760,m2,False
2018221053,listing,/1-114-anderson-street-lilydale-vic-3140-2018221053,490000,is-sold,Sold by private treaty 02 Dec 2022,20221202,1/114 Anderson Street,LILYDALE,VIC,3140,-37.75167,145.356613,2,1,2,House,House,False,0,m2,False
2018234372,listing,/6-koombooloomba-court-lilydale-vic-3140-2018234372,645000,is-sold,Sold by private treaty 06 Dec 2022,20221206,6 Koombooloomba Court,LILYDALE,VIC,3140,-37.7492676,145.338257,3,1,1,House,House,False,0,m2,False
2018245367,listing,/7-greenlees-court-lilydale-vic-3140-2018245367,1735000,is-sold,Sold by private treaty 06 Dec 2022,20221206,7 Greenlees Court,LILYDALE,VIC,3140,-37.77818,145.3495,4,2,8,House,House,False,2023,m2,False
2017825838,listing,/6-kuro-place-lilydale-vic-3140-2017825838,642500,is-sold,Sold by private treaty 09 Oct 2022,20221009,6 Kuro Place,LILYDALE,VIC,3140,-37.75899,145.3435,3,2,2,Townhouse,Townhouse,False,138,m2,False
2017942316,listing,/25-kidgell-street-lilydale-vic-3140-2017942316,585000,is-sold,Sold by private treaty 17 Oct 2022,20221017,25 Kidgell Street,LILYDALE,VIC,3140,-37.75254,145.339432,3,1,1,House,House,False,400,m2,False
2017981134,listing,/1-isla-close-lilydale-vic-3140-2017981134,560000,is-sold,Sold by private treaty 02 Nov 2022,20221102,1 Isla Close,LILYDALE,VIC,3140,-37.75208,145.343719,2,1,1,Townhouse,Townhouse,False,0,m2,False
2018005059,listing,/4-74-76-victoria-road-lilydale-vic-3140-2018005059,742000,is-sold,Sold by private treaty 09 Nov 2022,20221109,4/74-76 Victoria Road,LILYDALE,VIC,3140,-37.75238,145.336761,3,2,2,House,House,False,0,m2,False
2018071411,listing,/1-5-cave-hill-road-lilydale-vic-3140-2018071411,460000,is-sold,Sold by private treaty 24 Oct 2022,20221024,1/5 Cave Hill Road,LILYDALE,VIC,3140,-37.7598648,145.342072,2,1,1,ApartmentUnitFlat,Apartment / Unit / Flat,False,0,m2,False
2018078519,listing,/65-anne-street-lilydale-vic-3140-2018078519,Price Withheld,is-sold,Sold at auction 17 Oct 2022,20221017,65 Anne Street,LILYDALE,VIC,3140,-37.75859,145.3819,4,3,3,House,House,False,40468,m2,False
2018092764,listing,/22a-britannia-way-lilydale-vic-3140-2018092764,880000,is-sold,Sold by private treaty 17 Oct 2022,20221017,22A Britannia Way,LILYDALE,VIC,3140,-37.7510262,145.363159,3,2,2,House,House,False,469,m2,False
2018094561,listing,/48-clearwater-drive-lilydale-vic-3140-2018094561,1175000,is-sold,Sold by private treaty 20 Oct 2022,20221020,48 Clearwater Drive,LILYDALE,VIC,3140,-37.7710876,145.353043,4,2,3,House,House,False,700,m2,False
2018098177,listing,/10-the-circuit-lilydale-vic-3140-2018098177,950000,is-sold,Sold by private treaty 10 Oct 2022,20221010,10 The Circuit,LILYDALE,VIC,3140,-37.7745056,145.347382,4,2,2,House,House,False,814,m2,False
2018108391,listing,/7-11-maroondah-highway-lilydale-vic-3140-2018108391,593000,is-sold,Sold by private treaty 01 Nov 2022,20221101,7/11 Maroondah Highway,LILYDALE,VIC,3140,-37.756424,145.3414,2,2,1,Townhouse,Townhouse,False,0,m2,False
2018110090,listing,/490-maroondah-highway-lilydale-vic-3140-2018110090,827500,is-sold,Sold by private treaty 25 Oct 2022,20221025,490 Maroondah Highway,LILYDALE,VIC,3140,-37.7533646,145.366531,3,2,1,House,House,False,868,m2,False
2018112607,listing,/25-fortune-avenue-lilydale-vic-3140-2018112607,1160000,is-sold,Sold by private treaty 11 Oct 2022,20221011,25 Fortune Avenue,LILYDALE,VIC,3140,-37.76666,145.374954,4,2,3,House,House,False,892,m2,False
2018113785,listing,/1-17-19-nicholas-street-lilydale-vic-3140-2018113785,480789,is-sold,Sold by private treaty 27 Oct 2022,20221027,1/17-19 Nicholas Street,LILYDALE,VIC,3140,-37.7594681,145.33992,2,1,1,ApartmentUnitFlat,Apartment / Unit / Flat,False,0,m2,False
2018122322,listing,/12-the-eyrie-lilydale-vic-3140-2018122322,1225000,is-sold,Sold by private treaty 07 Nov 2022,20221107,12 The Eyrie,LILYDALE,VIC,3140,-37.7546425,145.357315,4,2,2,House,House,False,1420,m2,False
2018125674,listing,/5-6-taylor-street-lilydale-vic-3140-2018125674,Price Withheld,is-sold,Sold by private treaty 27 Oct 2022,20221027,5/6 Taylor Street,LILYDALE,VIC,3140,-37.7601433,145.3413,1,1,1,ApartmentUnitFlat,Apartment / Unit / Flat,False,0,m2,False
2018126372,listing,/17-aberdeen-drive-lilydale-vic-3140-2018126372,1300000,is-sold,Sold by private treaty 26 Oct 2022,20221026,17 Aberdeen Drive,LILYDALE,VIC,3140,-37.76509,145.361664,4,2,2,House,House,False,874,m2,False
2018127373,listing,/20-baker-street-lilydale-vic-3140-2018127373,1050000,is-sold,Sold by private treaty 29 Oct 2022,20221029,20 Baker Street,LILYDALE,VIC,3140,-37.7527122,145.337311,6,4,2,House,House,False,961,m2,False
2018127788,listing,/7-park-lane-lilydale-vic-3140-2018127788,800000,is-sold,Sold by private treaty 19 Oct 2022,20221019,7 Park Lane,LILYDALE,VIC,3140,-37.77367,145.331223,3,2,2,House,House,False,527,m2,False
2018128462,listing,/2-evie-close-lilydale-vic-3140-2018128462,625000,is-sold,Sold by private treaty 19 Oct 2022,20221019,2 Evie Close,LILYDALE,VIC,3140,-37.76321,145.358719,2,1,1,House,House,False,0,m2,False
2018144175,listing,/2-61-cave-hill-road-lilydale-vic-3140-2018144175,529950,is-sold,Sold by private treaty 28 Oct 2022,20221028,2/61 Cave Hill Road,LILYDALE,VIC,3140,-37.7536125,145.343338,2,1,2,Townhouse,Townhouse,False,0,m2,False
2017848594,listing,/5-tanya-court-lilydale-vic-3140-2017848594,830000,is-sold,Sold by private treaty 05 Oct 2022,20221005,5 Tanya Court,LILYDALE,VIC,3140,-37.77575,145.356018,3,2,2,House,House,False,1303,m2,False
2017849474,listing,/17-william-road-lilydale-vic-3140-2017849474,732000,is-sold,Sold by private treaty 04 Oct 2022,20221004,17 William Road,LILYDALE,VIC,3140,-37.7837753,145.35585,-,-,-,VacantLand,Vacant land,False,4588,m2,False
2017864261,listing,/3-diggers-walk-lilydale-vic-3140-2017864261,655000,is-sold,Sold by private treaty 29 Sep 2022,20220929,3 Diggers Walk,LILYDALE,VIC,3140,-37.7511673,145.337189,3,2,2,ApartmentUnitFlat,Apartment / Unit / Flat,False,0,m2,False
2017890378,listing,/5-pablo-place-lilydale-vic-3140-2017890378,570000,is-sold,Sold by private treaty 25 Sep 2022,20220925,5 Pablo Place,LILYDALE,VIC,3140,-37.7643547,145.347534,2,2,1,Townhouse,Townhouse,False,0,m2,False
2017930888,listing,/4-the-midway-lilydale-vic-3140-2017930888,Price Withheld,is-sold,Sold by private treaty 26 Sep 2022,20220926,4 The Midway,LILYDALE,VIC,3140,-37.77537,145.346481,3,2,1,House,House,False,550,m2,False
2017932258,listing,/3-27-cave-hill-road-lilydale-vic-3140-2017932258,615000,is-sold,Sold by private treaty 27 Sep 2022,20220927,3/27 Cave Hill Road,LILYDALE,VIC,3140,-37.75805,145.342545,2,1,1,Townhouse,Townhouse,False,0,m2,False
2017991801,listing,/1-jacks-place-lilydale-vic-3140-2017991801,598500,is-sold,Sold by private treaty 28 Sep 2022,20220928,1 Jacks Place,LILYDALE,VIC,3140,-37.7469864,145.3399,2,2,1,Townhouse,Townhouse,False,0,m2,False
2018034704,listing,/15-glencoe-place-lilydale-vic-3140-2018034704,775000,is-sold,Sold by private treaty 21 Sep 2022,20220921,15 Glencoe Place,LILYDALE,VIC,3140,-37.7409859,145.349457,4,2,2,House,House,False,684,m2,False
2018036797,listing,/16-candlebark-circuit-lilydale-vic-3140-2018036797,765000,is-sold,Sold by private treaty 05 Oct 2022,20221005,16 Candlebark Circuit,LILYDALE,VIC,3140,-37.7643967,145.3638,3,2,2,House,House,False,500,m2,False
2018037500,listing,/2-lakers-place-lilydale-vic-3140-2018037500,590000,is-sold,Sold by private treaty 17 Sep 2022,20220917,2 Lakers Place,LILYDALE,VIC,3140,-37.76037,145.335068,2,2,1,Townhouse,Townhouse,False,0,m2,False
2018039838,listing,/3-69-queen-road-lilydale-vic-3140-2018039838,695000,is-sold,Sold by private treaty 29 Sep 2022,20220929,3/69 Queen Road,LILYDALE,VIC,3140,-37.7623863,145.364548,3,2,2,House,House,False,0,m2,False
2018043761,listing,/558-hull-road-lilydale-vic-3140-2018043761,1180000,is-sold,Sold by private treaty 30 Sep 2022,20220930,558 Hull Road,LILYDALE,VIC,3140,-37.7774773,145.349365,4,2,2,House,House,False,2024,m2,False
2018054156,listing,/5-taurus-court-lilydale-vic-3140-2018054156,930000,is-sold,Sold by private treaty 06 Oct 2022,20221006,5 Taurus Court,LILYDALE,VIC,3140,-37.7587776,145.370117,4,2,2,House,House,False,1025,m2,False
2018054380,listing,/34-chester-street-lilydale-vic-3140-2018054380,930000,is-sold,Sold by private treaty 28 Sep 2022,20220928,34 Chester Street,LILYDALE,VIC,3140,-37.7422371,145.342026,4,2,4,House,House,False,720,m2,False
2018062385,listing,/12-archer-close-lilydale-vic-3140-2018062385,870000,is-sold,Sold by private treaty 04 Oct 2022,20221004,12 Archer Close,LILYDALE,VIC,3140,-37.7442856,145.344818,3,2,2,House,House,False,511,m2,False
2018062586,listing,/56-lakeview-drive-lilydale-vic-3140-2018062586,1232000,is-sold,Sold by private treaty 27 Sep 2022,20220927,56 Lakeview Drive,LILYDALE,VIC,3140,-37.77303,145.354691,4,2,3,House,House,False,1092,m2,False
2018063586,listing,/51a-beresford-road-lilydale-vic-3140-2018063586,715500,is-sold,Sold by private treaty 05 Oct 2022,20221005,51A Beresford Road,LILYDALE,VIC,3140,-37.74989,145.342453,3,2,2,House,House,False,0,m2,False
2018066499,listing,/87-the-gateway-lilydale-vic-3140-2018066499,990000,is-sold,Sold by private treaty 24 Sep 2022,20220924,87 The Gateway,LILYDALE,VIC,3140,-37.74316,145.343857,4,2,2,House,House,False,720,m2,False
2018093893,listing,/3-maison-close-lilydale-vic-3140-2018093893,575000,is-sold,Sold by private treaty 07 Oct 2022,20221007,3 Maison Close,LILYDALE,VIC,3140,-37.7643547,145.347534,2,2,1,Townhouse,Townhouse,False,0,m2,False
2018098103,listing,/84-charles-road-lilydale-vic-3140-2018098103,870250,is-sold,Sold by private treaty 05 Oct 2022,20221005,84 Charles Road,LILYDALE,VIC,3140,-37.79177,145.358063,4,1,2,House,House,False,2075,m2,False
2017834447,listing,/14a-deschamps-avenue-lilydale-vic-3140-2017834447,390000,is-sold,Sold by private treaty 26 Aug 2022,20220826,14a Deschamps Avenue,LILYDALE,VIC,3140,-37.7587242,145.356155,-,-,-,VacantLand,Vacant land,False,326,m2,False
2017862226,listing,/4-pablo-place-lilydale-vic-3140-2017862226,540000,is-sold,Sold by private treaty 31 Aug 2022,20220831,4 Pablo Place,LILYDALE,VIC,3140,-37.7643547,145.347534,2,2,1,Townhouse,Townhouse,False,0,m2,False
2017878712,listing,/44-beresford-road-lilydale-vic-3140-2017878712,900000,is-sold,Sold by private treaty 18 Aug 2022,20220818,44 Beresford Road,LILYDALE,VIC,3140,-37.7505074,145.341888,3,1,2,House,House,False,915,m2,False
2017886792,listing,/4-23-rouke-street-lilydale-vic-3140-2017886792,760000,is-sold,Sold by private treaty 25 Aug 2022,20220825,4/23 Rouke Street,LILYDALE,VIC,3140,-37.75447,145.337372,3,2,2,Townhouse,Townhouse,False,0,m2,False
2017943933,listing,/5-50-anderson-street-lilydale-vic-3140-2017943933,520000,is-sold,Sold by private treaty 31 Aug 2022,20220831,5/50 Anderson Street,LILYDALE,VIC,3140,-37.75662,145.355331,2,1,1,Townhouse,Townhouse,False,0,m2,False
2017960135,listing,/7a-rose-court-lilydale-vic-3140-2017960135,805000,is-sold,Sold by private treaty 12 Sep 2022,20220912,7a Rose Court,LILYDALE,VIC,3140,-37.7646332,145.3679,3,2,2,House,House,False,471,m2,False
2017970065,listing,/4-12-gladstone-street-lilydale-vic-3140-2017970065,470000,is-sold,Sold by private treaty 08 Sep 2022,20220908,4/12 Gladstone Street,LILYDALE,VIC,3140,-37.7523079,145.34317,2,1,2,House,House,False,173,m2,False
2017974644,listing,/7-beaulieu-avenue-lilydale-vic-3140-2017974644,1136660,is-sold,Sold by private treaty 22 Aug 2022,20220822,7 Beaulieu Avenue,LILYDALE,VIC,3140,-37.78039,145.3479,5,3,4,House,House,False,2693,m2,False
2017975285,listing,/10-olinda-park-rise-lilydale-vic-3140-2017975285,1134500,is-sold,Sold by private treaty 29 Aug 2022,20220829,10 Olinda Park Rise,LILYDALE,VIC,3140,-37.7530861,145.368927,4,2,2,House,House,False,604,m2,False
2017979779,listing,/5-leaves-close-lilydale-vic-3140-2017979779,581000,is-sold,Sold by private treaty 12 Sep 2022,20220912,5 Leaves Close,LILYDALE,VIC,3140,-37.75685,145.3422,2,2,1,ApartmentUnitFlat,Apartment / Unit / Flat,False,0,m2,False
2017980146,listing,/2-panorama-rise-lilydale-vic-3140-2017980146,850000,is-sold,Sold by private treaty 06 Sep 2022,20220906,2 Panorama Rise,LILYDALE,VIC,3140,-37.75755,145.3705,4,2,2,House,House,False,634,m2,False
2017981041,listing,/6-7-cave-hill-road-lilydale-vic-3140-2017981041,385000,is-sold,Sold by private treaty 25 Aug 2022,20220825,6/7 Cave Hill Road,LILYDALE,VIC,3140,-37.75963,145.341843,1,1,1,ApartmentUnitFlat,Apartment / Unit / Flat,False,0,m2,False
2017992526,listing,/17-verina-way-lilydale-vic-3140-2017992526,1150000,is-sold,Sold by private treaty 26 Aug 2022,20220826,17 Verina Way,LILYDALE,VIC,3140,-37.774334,145.357925,4,2,2,House,House,False,904,m2,False
2017993102,listing,/1-mornane-close-also-known-as-1-26-victoria-road-lilydale-vic-3140-2017993102,705000,is-sold,Sold at auction 31 Aug 2022,20220831,1 Mornane Close (Also known as 1/26 Victoria Road),LILYDALE,VIC,3140,-37.73557,145.344666,3,2,2,ApartmentUnitFlat,Apartment / Unit / Flat,False,375,m2,False
2018002081,listing,/lilydale-vic-3140-2018002081,Price Withheld,is-sold,Sold by private treaty 05 Sep 2022,20220905,,LILYDALE,VIC,3140,-37.7643547,145.347534,3,1,3,House,House,False,970,m2,False
2018011466,listing,/16-rainbird-crescent-lilydale-vic-3140-2018011466,1300000,is-sold,Sold by private treaty 28 Aug 2022,20220828,16 Rainbird Crescent,LILYDALE,VIC,3140,-37.739563,145.348083,4,2,2,House,House,False,666,m2,False
2018019873,listing,/26-deschamps-street-lilydale-vic-3140-2018019873,881000,is-sold,Sold by private treaty 31 Aug 2022,20220831,26 Deschamps Street,LILYDALE,VIC,3140,-37.7541161,145.340851,3,2,2,House,House,False,515,m2,False
2018025340,listing,/13-pine-street-lilydale-vic-3140-2018025340,775000,is-sold,Sold by private treaty 08 Sep 2022,20220908,13 Pine Street,LILYDALE,VIC,3140,-37.75929,145.35527,3,2,2,House,House,False,940,m2,False
2018056958,listing,/65-queen-road-lilydale-vic-3140-2018056958,765000,is-sold,Sold by private treaty 15 Sep 2022,20220915,65 Queen Road,LILYDALE,VIC,3140,-37.762104,145.364075,3,1,2,House,House,False,991,m2,False
2017839414,listing,/53-chester-street-lilydale-vic-3140-2017839414,985000,is-sold,Sold by private treaty 03 Aug 2022,20220803,53 Chester Street,LILYDALE,VIC,3140,-37.74255,145.340775,4,2,2,House,House,False,720,m2,False
2017876194,listing,/12-winnetka-drive-lilydale-vic-3140-2017876194,830000,is-sold,Sold by private treaty 04 Aug 2022,20220804,12 Winnetka Drive,LILYDALE,VIC,3140,-37.7500038,145.346085,4,2,2,House,House,False,884,m2,False
2017885378,listing,/51-beresford-road-lilydale-vic-3140-2017885378,695000,is-sold,Sold by private treaty 27 Jul 2022,20220727,51 Beresford Road,LILYDALE,VIC,3140,-37.750145,145.342453,3,2,2,House,House,False,390,m2,False
2017911263,listing,/54-anderson-street-lilydale-vic-3140-2017911263,800000,is-sold,Sold by private treaty 03 Aug 2022,20220803,54 Anderson Street,LILYDALE,VIC,3140,-37.75615,145.35553,4,1,2,House,House,False,1016,m2,False
2017912980,listing,/4-russia-mews-lilydale-vic-3140-2017912980,930000,is-sold,Sold by private treaty 13 Aug 2022,20220813,4 Russia Mews,LILYDALE,VIC,3140,-37.74513,145.339172,4,2,2,House,House,False,705,m2,False
2017917664,listing,/2-81-anderson-street-lilydale-vic-3140-2017917664,325000,is-sold,Sold by private treaty 16 Aug 2022,20220816,2/81 Anderson Street,LILYDALE,VIC,3140,-37.7542229,145.354965,1,1,1,ApartmentUnitFlat,Apartment / Unit / Flat,False,104,m2,False
2017919575,listing,/161-nelson-road-lilydale-vic-3140-2017919575,780000,is-sold,Sold by private treaty 30 Jul 2022,20220730,161 Nelson Road,LILYDALE,VIC,3140,-37.74969,145.365616,3,1,2,House,House,False,898,m2,False
2017924045,listing,/169-warburton-highway-lilydale-vic-3140-2017924045,1761000,is-sold,Sold at auction 06 Aug 2022,20220806,169 Warburton Highway,LILYDALE,VIC,3140,-37.7644539,145.40274,4,2,8,House,House,True,2.97,ha,False
2017925076,listing,/126-nelson-road-lilydale-vic-3140-2017925076,800000,is-sold,Sold by private treaty 29 Jul 2022,20220729,126 Nelson Road,LILYDALE,VIC,3140,-37.7488022,145.362854,3,2,4,House,House,False,863,m2,False
2017933837,listing,/1-cashins-mill-place-lilydale-vic-3140-2017933837,1074000,is-sold,Sold by private treaty 27 Jul 2022,20220727,1 Cashins Mill Place,LILYDALE,VIC,3140,-37.76658,145.36026,4,2,6,House,House,False,871,m2,False
2017946055,listing,/11-cosy-place-lilydale-vic-3140-2017946055,680000,is-sold,Sold by private treaty 03 Aug 2022,20220803,11 Cosy Place,LILYDALE,VIC,3140,-37.7595177,145.335327,3,1,1,House,House,False,225,m2,False
2017946403,listing,/41-clearwater-drive-lilydale-vic-3140-2017946403,1229000,is-sold,Sold by private treaty 01 Aug 2022,20220801,41 Clearwater Drive,LILYDALE,VIC,3140,-37.7709351,145.352478,4,2,2,House,House,False,595,m2,False
2017948498,listing,/3-barnsley-close-lilydale-vic-3140-2017948498,603000,is-sold,Sold by private treaty 28 Jul 2022,20220728,3 Barnsley Close,LILYDALE,VIC,3140,-37.7531929,145.342789,2,2,1,Townhouse,Townhouse,False,0,m2,False
2017949678,listing,/8-the-midway-lilydale-vic-3140-2017949678,1258150,is-sold,Sold by private treaty 01 Aug 2022,20220801,8 The Midway,LILYDALE,VIC,3140,-37.77607,145.346481,5,2,2,House,House,False,750,m2,False
2017950552,listing,/11-lilac-rise-lilydale-vic-3140-2017950552,1075000,is-sold,Sold by private treaty 10 Aug 2022,20220810,11 Lilac Rise,LILYDALE,VIC,3140,-37.7756577,145.350769,4,2,3,House,House,False,867,m2,False
2017955706,listing,/11-beresford-road-lilydale-vic-3140-2017955706,750000,is-sold,Sold by private treaty 09 Aug 2022,20220809,11 Beresford Road,LILYDALE,VIC,3140,-37.74958,145.338135,3,2,2,House,House,False,492,m2,False
2017958282,listing,/14-goodall-drive-lilydale-vic-3140-2017958282,860000,is-sold,Sold by private treaty 05 Aug 2022,20220805,14 Goodall Drive,LILYDALE,VIC,3140,-37.75472,145.366318,4,2,2,House,House,False,1142,m2,False
2017959694,listing,/32-britannia-way-lilydale-vic-3140-2017959694,1020000,is-sold,Sold by private treaty 06 Aug 2022,20220806,32 Britannia way,LILYDALE,VIC,3140,-37.7509232,145.362076,4,2,2,House,House,False,1042,m2,False
2017983797,listing,/16-deschamps-street-lilydale-vic-3140-2017983797,1040000,is-sold,Sold by private treaty 12 Aug 2022,20220812,16 Deschamps Street,LILYDALE,VIC,3140,-37.7542877,145.341827,4,1,2,House,House,False,1020,m2,False
2017989728,listing,/4-aberdeen-drive-lilydale-vic-3140-2017989728,1200000,is-sold,Sold by private treaty 10 Aug 2022,20220810,4 Aberdeen Drive,LILYDALE,VIC,3140,-37.7666359,145.363647,4,3,3,House,House,False,914,m2,False
2017682809,listing,/60b-castella-street-lilydale-vic-3140-2017682809,260000,is-sold,Sold by private treaty 12 Jul 2022,20220712,60B Castella Street,LILYDALE,VIC,3140,-37.75426,145.354431,-,-,-,VacantLand,Vacant land,False,192,m2,False
2017764551,listing,/3-7-kerr-street-lilydale-vic-3140-2017764551,682500,is-sold,Sold by private treaty 08 Jul 2022,20220708,3/7 Kerr Street,LILYDALE,VIC,3140,-37.75255,145.338638,3,2,2,House,House,False,0,m2,False
2017811833,listing,/19-kingsburgh-lane-lilydale-vic-3140-2017811833,965130,is-sold,Sold prior to auction 13 Jul 2022,20220713,19 Kingsburgh Lane,LILYDALE,VIC,3140,-37.7396431,145.3443,4,2,3,House,House,False,720,m2,False
2017838748,listing,/13-candlebark-circuit-lilydale-vic-3140-2017838748,1100000,is-sold,Sold by private treaty 04 Jul 2022,20220704,13 Candlebark Circuit,LILYDALE,VIC,3140,-37.76544,145.365128,5,3,2,House,House,False,820,m2,False
2017854211,listing,/1-22-albert-hill-road-lilydale-vic-3140-2017854211,510000,is-sold,Sold by private treaty 07 Jul 2022,20220707,1/22 Albert Hill Road,LILYDALE,VIC,3140,-37.7550354,145.340775,2,1,1,ApartmentUnitFlat,Apartment / Unit / Flat,False,0,m2,False
2017875372,listing,/3-orion-court-lilydale-vic-3140-2017875372,689500,is-sold,Sold by private treaty 14 Jul 2022,20220714,3 Orion Court,LILYDALE,VIC,3140,-37.7468147,145.3625,3,1,2,House,House,False,864,m2,False
2017883457,listing,/16-camplin-rise-lilydale-vic-3140-2017883457,860000,is-sold,Sold by private treaty 15 Jul 2022,20220715,16 Camplin Rise,LILYDALE,VIC,3140,-37.75865,145.3358,4,2,2,House,House,False,596,m2,False
2017887922,listing,/2-10-morna-street-lilydale-vic-3140-2017887922,760000,is-sold,Sold by private treaty 02 Jul 2022,20220702,2/10 Morna Street,LILYDALE,VIC,3140,-37.7551155,145.364975,3,2,2,House,House,False,217,m2,False
2017888651,listing,/46a-beresford-road-lilydale-vic-3140-2017888651,720000,is-sold,Sold by private treaty 20 Jul 2022,20220720,46A Beresford Road,LILYDALE,VIC,3140,-37.7507858,145.342072,3,2,2,ApartmentUnitFlat,Apartment / Unit / Flat,False,385,m2,False
2017890958,listing,/15-baystone-place-lilydale-vic-3140-2017890958,1060000,is-sold,Sold by private treaty 06 Jul 2022,20220706,15 Baystone Place,LILYDALE,VIC,3140,-37.74437,145.343552,5,2,2,House,House,False,728,m2,False
2017900239,listing,/17-dalray-place-lilydale-vic-3140-2017900239,1045000,is-sold,Sold by private treaty 25 Jul 2022,20220725,17 Dalray Place,LILYDALE,VIC,3140,-37.7455559,145.345764,6,2,2,House,House,False,654,m2,False
2017904741,listing,/39-winnetka-drive-lilydale-vic-3140-2017904741,760000,is-sold,Sold by private treaty 26 Jul 2022,20220726,39 Winnetka Drive,LILYDALE,VIC,3140,-37.74766,145.347946,3,1,2,House,House,False,869,m2,False
2017904817,listing,/3-isla-close-lilydale-vic-3140-2017904817,587500,is-sold,Sold by private treaty 05 Jul 2022,20220705,3 Isla Close,LILYDALE,VIC,3140,-37.75205,145.343979,2,1,1,Townhouse,Townhouse,False,0,m2,False
2017904935,listing,/38-albert-road-lilydale-vic-3140-2017904935,821000,is-sold,Sold by private treaty 06 Jul 2022,20220706,38 Albert Road,LILYDALE,VIC,3140,-37.75927,145.361725,4,2,1,House,House,False,0,m2,False
2017904936,listing,/9-tanikka-court-lilydale-vic-3140-2017904936,965000,is-sold,Sold by private treaty 04 Jul 2022,20220704,9 Tanikka Court,LILYDALE,VIC,3140,-37.77152,145.349625,4,2,2,House,House,False,645,m2,False
2017929253,listing,/5-kidgell-street-lilydale-vic-3140-2017929253,1020000,is-sold,Sold by private treaty 26 Jul 2022,20220726,5 Kidgell Street,LILYDALE,VIC,3140,-37.755127,145.339813,4,2,2,House,House,False,1054,m2,False
2017932181,listing,/3-rye-close-lilydale-vic-3140-2017932181,592000,is-sold,Sold by private treaty 23 Jul 2022,20220723,3 Rye Close,LILYDALE,VIC,3140,-37.75273,145.3388,2,2,1,House,House,False,139,m2,False
2017933669,listing,/53-bastow-road-lilydale-vic-3140-2017933669,929292,is-sold,Sold by private treaty 26 Jul 2022,20220726,53 Bastow Road,LILYDALE,VIC,3140,-37.7575073,145.3666,5,2,2,House,House,False,963,m2,False
2017934319,listing,/7-pride-lane-lilydale-vic-3140-2017934319,1775000,is-sold,Sold by private treaty 25 Jul 2022,20220725,7 Pride Lane,LILYDALE,VIC,3140,-37.7709122,145.367462,5,3,2,House,House,False,2011,m2,False
2017934320,listing,/10-9-north-road-lilydale-vic-3140-2017934320,650000,is-sold,Sold by private treaty 21 Jul 2022,20220721,10/9 North Road,LILYDALE,VIC,3140,-37.7554779,145.363754,3,1,2,Townhouse,Townhouse,False,0,m2,False
2017495056,listing,/unit-348-471-maroondah-highway-lilydale-vic-3140-2017495056,Price Withheld,is-sold,Sold by private treaty 29 Jun 2022,20220629,Unit 348/471 Maroondah Highway,LILYDALE,VIC,3140,-37.75266,145.364731,3,2,2,ApartmentUnitFlat,Apartment / Unit / Flat,False,0,m2,False
2017697137,listing,/82-cave-hill-road-lilydale-vic-3140-2017697137,780000,is-sold,Sold by private treaty 15 Jun 2022,20220615,82 Cave Hill Road,LILYDALE,VIC,3140,-37.7492676,145.344818,3,1,2,House,House,False,878,m2,False
2017752700,listing,/38-morokai-grove-lilydale-vic-3140-2017752700,770000,is-sold,Sold by private treaty 22 Jun 2022,20220622,38 Morokai Grove,LILYDALE,VIC,3140,-37.7496834,145.342926,3,1,2,House,House,False,868,m2,False
2017783447,listing,/6-white-close-lilydale-vic-3140-2017783447,425000,is-sold,Sold by private treaty 24 Jun 2022,20220624,6 White Close,LILYDALE,VIC,3140,-37.7603951,145.335922,1,1,1,ApartmentUnitFlat,Apartment / Unit / Flat,False,0,m2,False
2017801892,listing,/32-david-road-lilydale-vic-3140-2017801892,1042000,is-sold,Sold by private treaty 23 Jun 2022,20220623,32 David Road,LILYDALE,VIC,3140,-37.7717056,145.3642,4,2,2,House,House,False,1379,m2,False
2017810329,listing,/1-bounty-court-lilydale-vic-3140-2017810329,815000,is-sold,Sold by private treaty 16 Jun 2022,20220616,1 Bounty Court,LILYDALE,VIC,3140,-37.7518272,145.362091,3,2,2,House,House,False,368,m2,False
2017812710,listing,/42-old-gippsland-road-lilydale-vic-3140-2017812710,835000,is-sold,Sold by private treaty 21 Jun 2022,20220621,42 Old Gippsland Road,LILYDALE,VIC,3140,-37.763382,145.364059,3,2,4,House,House,False,500,m2,False
2017817473,listing,/33a-mangans-road-lilydale-vic-3140-2017817473,790000,is-sold,Sold by private treaty 15 Jun 2022,20220615,33A Mangans Road,LILYDALE,VIC,3140,-37.7591934,145.371582,3,2,2,House,House,False,474,m2,False
2017825201,listing,/11-melody-close-lilydale-vic-3140-2017825201,1100000,is-sold,Sold by private treaty 15 Jun 2022,20220615,11 Melody Close,LILYDALE,VIC,3140,-37.77425,145.353516,5,3,4,House,House,False,516,m2,False
2017827715,listing,/112-lakeview-drive-lilydale-vic-3140-2017827715,1115000,is-sold,Sold by private treaty 10 Jun 2022,20220610,112 Lakeview Drive,LILYDALE,VIC,3140,-37.77356,145.348,5,2,2,House,House,False,865,m2,False
2017841929,listing,/5-ajax-court-lilydale-vic-3140-2017841929,900000,is-sold,Sold by private treaty 16 Jun 2022,20220616,5 Ajax Court,LILYDALE,VIC,3140,-37.7474442,145.364929,3,2,5,House,House,False,951,m2,False
2017842901,listing,/1-14-gladstone-street-lilydale-vic-3140-2017842901,510000,is-sold,Sold by private treaty 01 Jul 2022,20220701,1/14 Gladstone Street,LILYDALE,VIC,3140,-37.75202,145.3427,2,1,1,ApartmentUnitFlat,Apartment / Unit / Flat,False,160,m2,False
2017843131,listing,/76-clarke-street-lilydale-vic-3140-2017843131,455000,is-sold,Sold by private treaty 20 Jun 2022,20220620,76 Clarke Street,LILYDALE,VIC,3140,-37.7517662,145.353653,1,1,2,ApartmentUnitFlat,Apartment / Unit / Flat,False,0,m2,False
2017844287,listing,/2-baystone-place-lilydale-vic-3140-2017844287,1000199,is-sold,Sold by private treaty 09 Jun 2022,20220609,2 Baystone Place,LILYDALE,VIC,3140,-37.7436562,145.344177,3,2,2,House,House,False,748,m2,False
2017846250,listing,/50a-nelson-road-lilydale-vic-3140-2017846250,840000,is-sold,Sold by private treaty 08 Jun 2022,20220608,50A Nelson Road,LILYDALE,VIC,3140,-37.74692,145.345963,4,2,2,House,House,False,0,m2,False
2017846455,listing,/17-delta-close-lilydale-vic-3140-2017846455,1040000,is-sold,Sold by private treaty 07 Jun 2022,20220607,17 Delta Close,LILYDALE,VIC,3140,-37.7425041,145.349564,4,2,2,House,House,False,784,m2,False
2017863014,listing,/23-white-close-lilydale-vic-3140-2017863014,530000,is-sold,Sold by private treaty 27 Jun 2022,20220627,23 White Close,LILYDALE,VIC,3140,-37.76048,145.3367,2,1,1,ApartmentUnitFlat,Apartment / Unit / Flat,False,0,m2,False
2017867350,listing,/43-earlswood-place-lilydale-vic-3140-2017867350,1384000,is-sold,Sold by private treaty 23 Jun 2022,20220623,43 Earlswood Place,LILYDALE,VIC,3140,-37.7556343,145.371628,4,2,2,House,House,False,0,m2,False
2017882964,listing,/1-38-kidgell-street-lilydale-vic-3140-2017882964,630000,is-sold,Sold by private treaty 02 Jul 2022,20220702,1/38 Kidgell Street,LILYDALE,VIC,3140,-37.75133,145.3402,2,1,1,House,House,False,417,m2,False
2017890379,listing,/29-summit-road-lilydale-vic-3140-2017890379,962000,is-sold,Sold by private treaty 28 Jun 2022,20220628,29 Summit Road,LILYDALE,VIC,3140,-37.76158,145.365585,3,2,4,House,House,False,1969,m2,False
2017616923,listing,/4-cosy-place-lilydale-vic-3140-2017616923,735000,is-sold,Sold by private treaty 30 May 2022,20220530,4 Cosy Place,LILYDALE,VIC,3140,-37.7593079,145.335464,3,2,2,Townhouse,Townhouse,False,0,m2,False
2017721796,listing,/25-alexandra-road-lilydale-vic-3140-2017721796,730000,is-sold,Sold by private treaty 01 Jun 2022,20220601,25 Alexandra Road,LILYDALE,VIC,3140,-37.7570572,145.363876,4,2,2,House,House,False,862,m2,False
2017737190,listing,/3-wily-court-lilydale-vic-3140-2017737190,1101250,is-sold,Sold by private treaty 07 Jun 2022,20220607,3 Wily Court,LILYDALE,VIC,3140,-37.7713623,145.352,4,2,2,House,House,False,666,m2,False
2017757705,listing,/2-75-cave-hill-road-lilydale-vic-3140-2017757705,541000,is-sold,Sold by private treaty 20 May 2022,20220520,2/75 Cave Hill Road,LILYDALE,VIC,3140,-37.75242,145.343445,2,1,1,House,House,False,134,m2,False
2017764552,listing,/10-rolaine-close-lilydale-vic-3140-2017764552,757500,is-sold,Sold by private treaty 06 Jun 2022,20220606,10 Rolaine Close,LILYDALE,VIC,3140,-37.7640533,145.363541,3,1,2,House,House,False,740,m2,False
2017781373,listing,/48-the-eyrie-lilydale-vic-3140-2017781373,1020000,is-sold,Sold by private treaty 01 Jun 2022,20220601,48 The Eyrie,LILYDALE,VIC,3140,-37.7521858,145.35939,3,1,1,House,House,False,1133,m2,False
2017787977,listing,/29-britannia-way-lilydale-vic-3140-2017787977,865000,is-sold,Sold by private treaty 01 Jun 2022,20220601,29 Britannia Way,LILYDALE,VIC,3140,-37.7519226,145.362762,3,1,4,House,House,False,1003,m2,False
2017797162,listing,/1-23-rouke-street-lilydale-vic-3140-2017797162,820000,is-sold,Sold by private treaty 25 May 2022,20220525,1/23 Rouke Street,LILYDALE,VIC,3140,-37.75447,145.337372,3,2,2,Townhouse,Townhouse,False,0,m2,False
2017800216,listing,/18-baystone-place-lilydale-vic-3140-2017800216,966000,is-sold,Sold by private treaty 18 May 2022,20220518,18 Baystone Place,LILYDALE,VIC,3140,-37.74391,145.343964,3,2,3,House,House,False,563,m2,False
2017800976,listing,/99-bastow-road-lilydale-vic-3140-2017800976,1490000,is-sold,Sold by private treaty 21 May 2022,20220521,99 Bastow Road,LILYDALE,VIC,3140,-37.7602921,145.366165,4,3,3,House,House,False,937,m2,False
2017801455,listing,/149-old-gippsland-road-lilydale-vic-3140-2017801455,1890000,is-sold,Sold by private treaty 25 May 2022,20220525,149 Old Gippsland Road,LILYDALE,VIC,3140,-37.7663345,145.399963,5,3,4,House,House,False,12140,m2,False
2017809590,listing,/28-edinburgh-road-lilydale-vic-3140-2017809590,1281000,is-sold,Sold by private treaty 26 May 2022,20220526,28 Edinburgh Road,LILYDALE,VIC,3140,-37.7819633,145.349045,4,2,4,House,House,False,2022,m2,False
2017811505,listing,/101-charles-road-lilydale-vic-3140-2017811505,857500,is-sold,Sold by private treaty 02 Jun 2022,20220602,101 Charles Road,LILYDALE,VIC,3140,-37.79456,145.358612,4,1,1,House,House,False,932,m2,False
2017812665,listing,/57-the-gateway-lilydale-vic-3140-2017812665,975000,is-sold,Sold by private treaty 03 Jun 2022,20220603,57 The Gateway,LILYDALE,VIC,3140,-37.74186,145.345825,4,2,2,House,House,False,725,m2,False
2017815177,listing,/9-russia-mews-lilydale-vic-3140-2017815177,990000,is-sold,Sold by private treaty 25 May 2022,20220525,9 Russia Mews,LILYDALE,VIC,3140,-37.74558,145.33844,4,2,4,House,House,False,707,m2,False
2017815358,listing,/7-107-anderson-street-lilydale-vic-3140-2017815358,623000,is-sold,Sold by private treaty 27 May 2022,20220527,7/107 Anderson Street,LILYDALE,VIC,3140,-37.7519,145.355957,2,2,1,Townhouse,Townhouse,False,0,m2,False
2017815411,listing,/68-clarke-street-lilydale-vic-3140-2017815411,1150000,is-sold,Sold by private treaty 31 May 2022,20220531,68 Clarke Street,LILYDALE,VIC,3140,-37.75248,145.35347,3,1,-,House,House,False,1017,m2,False
2017828268,listing,/3-ebony-close-lilydale-vic-3140-2017828268,950000,is-sold,Sold by private treaty 03 Jun 2022,20220603,3 Ebony Close,LILYDALE,VIC,3140,-37.75653,145.37178,4,2,2,House,House,False,451,m2,False
2017831436,listing,/28-white-close-lilydale-vic-3140-2017831436,505000,is-sold,Sold by private treaty 02 Jun 2022,20220602,28 White Close,LILYDALE,VIC,3140,-37.76073,145.33638,3,1,1,ApartmentUnitFlat,Apartment / Unit / Flat,False,0,m2,False
2017834678,listing,/7-tanya-court-lilydale-vic-3140-2017834678,1050000,is-sold,Sold by private treaty 02 Jun 2022,20220602,7 Tanya Court,LILYDALE,VIC,3140,-37.7755928,145.355179,3,2,3,House,House,False,958,m2,False
2017614748,listing,/2-raffaele-close-lilydale-vic-3140-2017614748,715000,is-sold,Sold by private treaty 05 May 2022,20220505,2 Raffaele Close,LILYDALE,VIC,3140,-37.7546921,145.353546,3,2,2,Townhouse,Townhouse,False,142,m2,False
2017618602,listing,/28-the-circuit-lilydale-vic-3140-2017618602,768000,is-sold,Sold by private treaty 06 May 2022,20220506,28 The Circuit,LILYDALE,VIC,3140,-37.77504,145.346909,3,2,2,House,House,False,550,m2,False
2017629524,listing,/50-albert-hill-road-lilydale-vic-3140-2017629524,555000,is-sold,Sold by private treaty 09 May 2022,20220509,50 Albert Hill Road,LILYDALE,VIC,3140,-37.75719,145.338547,-,-,-,VacantLand,Vacant land,False,548,m2,False
2017636823,listing,/1-32-albert-road-lilydale-vic-3140-2017636823,665000,is-sold,Sold by private treaty 26 Apr 2022,20220426,1/32 Albert Road,LILYDALE,VIC,3140,-37.75883,145.361557,3,2,1,ApartmentUnitFlat,Apartment / Unit / Flat,False,255,m2,False
2017650176,listing,/1-lakeview-drive-lilydale-vic-3140-2017650176,855000,is-sold,Sold by private treaty 02 May 2022,20220502,1 Lakeview Drive,LILYDALE,VIC,3140,-37.7777328,145.358292,3,2,2,House,House,False,947,m2,False
2017685713,listing,/1-108-anderson-street-lilydale-vic-3140-2017685713,850000,is-sold,Sold by private treaty 27 Apr 2022,20220427,1/108 Anderson Street,LILYDALE,VIC,3140,-37.7521553,145.3565,4,2,2,House,House,False,297,m2,False
2017700628,listing,/9a-taurus-court-lilydale-vic-3140-2017700628,Price Withheld,is-sold,Sold by private treaty 09 May 2022,20220509,9a Taurus Court,LILYDALE,VIC,3140,-37.75843,145.370071,-,-,-,VacantLand,Vacant land,False,473,m2,False
2017703371,listing,/34-nimblefoot-way-lilydale-vic-3140-2017703371,1290000,is-sold,Sold by private treaty 24 Apr 2022,20220424,34 Nimblefoot Way,LILYDALE,VIC,3140,-37.7411079,145.351135,4,2,2,House,House,False,703,m2,False
2017703374,listing,/20-marven-court-lilydale-vic-3140-2017703374,1985000,is-sold,Sold by private treaty 13 May 2022,20220513,20 Marven Court,LILYDALE,VIC,3140,-37.7799873,145.355942,4,3,6,House,House,False,3994,m2,False
2017731567,listing,/16-blair-street-lilydale-vic-3140-2017731567,762000,is-sold,Sold by private treaty 09 May 2022,20220509,16 Blair Street,LILYDALE,VIC,3140,-37.750824,145.338226,3,2,2,House,House,False,527,m2,False
2017734353,listing,/50-anne-street-lilydale-vic-3140-2017734353,1790000,is-sold,Sold by private treaty 22 Apr 2022,20220422,50 Anne Street,LILYDALE,VIC,3140,-37.76057,145.382278,4,3,7,House,House,True,2,ha,False
2017743323,listing,/10-stuart-road-lilydale-vic-3140-2017743323,875101,is-sold,Sold by private treaty 16 May 2022,20220516,10 Stuart Road,LILYDALE,VIC,3140,-37.75761,145.336685,3,2,2,House,House,False,627,m2,False
2017746916,listing,/25-trafalgar-crescent-lilydale-vic-3140-2017746916,851000,is-sold,Sold by private treaty 04 May 2022,20220504,25 Trafalgar Crescent,LILYDALE,VIC,3140,-37.7454147,145.363281,3,1,2,House,House,False,895,m2,False
2017764393,listing,/10-oaks-street-lilydale-vic-3140-2017764393,605000,is-sold,Sold by private treaty 05 May 2022,20220505,10 Oaks Street,LILYDALE,VIC,3140,-37.7558327,145.366791,2,1,-,House,House,False,875,m2,False
2017764554,listing,/30-morokai-grove-lilydale-vic-3140-2017764554,700000,is-sold,Sold by private treaty 03 May 2022,20220503,30 Morokai Grove,LILYDALE,VIC,3140,-37.7494774,145.342255,3,1,1,House,House,False,0,m2,False
2017764770,listing,/35-david-road-lilydale-vic-3140-2017764770,945000,is-sold,Sold by private treaty 05 May 2022,20220505,35 David Road,LILYDALE,VIC,3140,-37.7713966,145.364731,4,2,2,House,House,False,1564,m2,False
2017780410,listing,/6-ebony-close-lilydale-vic-3140-2017780410,950000,is-sold,Sold by private treaty 17 May 2022,20220517,6 Ebony Close,LILYDALE,VIC,3140,-37.7562561,145.3722,4,2,2,House,House,False,459,m2,False
2017781065,listing,/110a-victoria-road-lilydale-vic-3140-2017781065,808000,is-sold,Sold by private treaty 13 May 2022,20220513,110a Victoria Road,LILYDALE,VIC,3140,-37.7486,145.337067,3,2,2,ApartmentUnitFlat,Apartment / Unit / Flat,False,434,m2,False
2017782781,listing,/3-fanning-close-lilydale-vic-3140-2017782781,720000,is-sold,Sold by private treaty 12 May 2022,20220512,3 Fanning Close,LILYDALE,VIC,3140,-37.75847,145.33815,3,2,2,Townhouse,Townhouse,False,0,m2,False
2017800480,listing,/10-12-bastow-road-lilydale-vic-3140-2017800480,855000,is-sold,Sold by private treaty 18 May 2022,20220518,10-12 Bastow Road,LILYDALE,VIC,3140,-37.75932,145.363525,3,1,2,House,House,False,862,m2,False
2017416727,listing,/114a-alexandra-road-lilydale-vic-3140-2017416727,380000,is-sold,Sold by private treaty 06 Apr 2022,20220406,114a Alexandra Road,LILYDALE,VIC,3140,-37.7596321,145.370163,-,-,-,VacantLand,Vacant land,False,0,m2,False
2017629877,listing,/10-christa-court-lilydale-vic-3140-2017629877,1080000,is-sold,Sold by private treaty 06 Apr 2022,20220406,10 Christa Court,LILYDALE,VIC,3140,-37.77006,145.367371,3,2,2,House,House,False,1693,m2,False
2017653205,listing,/6-herb-farm-lane-lilydale-vic-3140-2017653205,810000,is-sold,Sold by private treaty 06 Apr 2022,20220406,6 Herb Farm Lane,LILYDALE,VIC,3140,-37.7560272,145.37117,3,2,2,House,House,False,0,m2,False
2017657260,listing,/258-hereford-road-lilydale-vic-3140-2017657260,1084000,is-sold,Sold by private treaty 19 Apr 2022,20220419,258 Hereford Road,LILYDALE,VIC,3140,-37.7641945,145.362732,4,3,3,House,House,False,4039,m2,False
2017661732,listing,/10-crestway-lilydale-vic-3140-2017661732,955000,is-sold,Sold by private treaty 04 Apr 2022,20220404,10 Crestway,LILYDALE,VIC,3140,-37.7479477,145.346176,4,2,2,House,House,False,913,m2,False
2017667387,listing,/169-swansea-road-lilydale-vic-3140-2017667387,700000,is-sold,Sold at auction 09 Apr 2022,20220409,169 Swansea Road,LILYDALE,VIC,3140,-37.79564,145.359436,3,1,2,House,House,False,1061,m2,False
2017678165,listing,/3-16-kerr-street-lilydale-vic-3140-2017678165,782500,is-sold,Sold by private treaty 06 Apr 2022,20220406,3/16 Kerr Street,LILYDALE,VIC,3140,-37.7515564,145.338043,3,2,2,House,House,False,201,m2,False
2017682138,listing,/87-charles-road-lilydale-vic-3140-2017682138,762780,is-sold,Sold by private treaty 07 Apr 2022,20220407,87 Charles Road,LILYDALE,VIC,3140,-37.7934532,145.358612,3,1,2,House,House,False,866,m2,False
2017686646,listing,/131-the-gateway-lilydale-vic-3140-2017686646,1100000,is-sold,Sold by private treaty 15 Apr 2022,20220415,131 The Gateway,LILYDALE,VIC,3140,-37.7434273,145.339554,4,2,2,House,House,False,712,m2,False
2017686954,listing,/2-tranquil-place-lilydale-vic-3140-2017686954,676850,is-sold,Sold by private treaty 08 Apr 2022,20220408,2 Tranquil Place,LILYDALE,VIC,3140,-37.7557335,145.340714,3,2,1,House,House,False,0,m2,False
2017687031,listing,/3-55-albert-hill-road-lilydale-vic-3140-2017687031,784950,is-sold,Sold by private treaty 20 Apr 2022,20220420,3/55 Albert Hill Road,LILYDALE,VIC,3140,-37.7584076,145.338333,3,2,2,House,House,False,0,m2,False
2017687088,listing,/14-bowen-road-lilydale-vic-3140-2017687088,880000,is-sold,Sold by private treaty 05 Apr 2022,20220405,14 Bowen Road,LILYDALE,VIC,3140,-37.75656,145.337448,4,2,2,House,House,False,0,m2,False
2017687181,listing,/1-13-cavehill-road-lilydale-vic-3140-2017687181,555000,is-sold,Sold by private treaty 05 Apr 2022,20220405,1/13 Cavehill Road,LILYDALE,VIC,3140,-37.7495041,145.344208,2,1,1,House,House,False,0,m2,False
2017703316,listing,/10-cosy-place-lilydale-vic-3140-2017703316,715000,is-sold,Sold by private treaty 11 Apr 2022,20220411,10 Cosy Place,LILYDALE,VIC,3140,-37.7596245,145.3353,3,1,1,House,House,False,0,m2,False
2017703317,listing,/2-10-albert-road-lilydale-vic-3140-2017703317,660000,is-sold,Sold by private treaty 05 Apr 2022,20220405,2/10 Albert Road,LILYDALE,VIC,3140,-37.75698,145.361923,2,1,1,House,House,False,0,m2,False
2017710463,listing,/11-kyra-close-lilydale-vic-3140-2017710463,1025000,is-sold,Sold by private treaty 12 Apr 2022,20220412,11 Kyra Close,LILYDALE,VIC,3140,-37.772644,145.364288,4,2,2,House,House,False,743,m2,False
2017717745,listing,/3-13-the-eyrie-lilydale-vic-3140-2017717745,758600,is-sold,Sold by private treaty 21 Apr 2022,20220421,3/13 The Eyrie,LILYDALE,VIC,3140,-37.7541771,145.356964,3,2,2,House,House,False,0,m2,False
2017718046,listing,/12-park-lane-lilydale-vic-3140-2017718046,730000,is-sold,Sold by private treaty 19 Apr 2022,20220419,12 Park Lane,LILYDALE,VIC,3140,-37.7734871,145.331009,3,1,2,House,House,False,0,m2,False
2017721698,listing,/2-22-slevin-street-lilydale-vic-3140-2017721698,581500,is-sold,Sold by private treaty 11 Apr 2022,20220411,2/22 Slevin Street,LILYDALE,VIC,3140,-37.75274,145.3409,2,1,1,ApartmentUnitFlat,Apartment / Unit / Flat,False,0,m2,False
2017722568,listing,/17-the-gateway-lilydale-vic-3140-2017722568,1050000,is-sold,Sold by private treaty 19 Apr 2022,20220419,17 The Gateway,LILYDALE,VIC,3140,-37.7447548,145.345627,5,3,2,House,House,False,721,m2,False
2017579167,listing,/45-anne-street-lilydale-vic-3140-2017579167,2020000,is-sold,Sold by private treaty 31 Mar 2022,20220331,45 Anne Street,LILYDALE,VIC,3140,-37.7599525,145.381683,5,3,6,House,House,False,40300,m2,False
2017601466,listing,/4-79-castella-street-lilydale-vic-3140-2017601466,420000,is-sold,Sold by private treaty 22 Mar 2022,20220322,4/79 Castella Street,LILYDALE,VIC,3140,-37.7522621,145.354324,1,1,1,ApartmentUnitFlat,Apartment / Unit / Flat,False,0,m2,False
2017613569,listing,/16-pinnacle-rise-lilydale-vic-3140-2017613569,950000,is-sold,Sold by private treaty 28 Mar 2022,20220328,16 Pinnacle Rise,LILYDALE,VIC,3140,-37.7741966,145.350845,4,2,2,House,House,False,655,m2,False
2017623804,listing,/16a-cobden-crescent-lilydale-vic-3140-2017623804,Price Withheld,is-sold,Sold at auction 04 Apr 2022,20220404,16A Cobden Crescent,LILYDALE,VIC,3140,-37.7614975,145.356247,3,2,2,House,House,False,390,m2,False
2017636274,listing,/9-white-close-lilydale-vic-3140-2017636274,Price Withheld,is-sold,Sold by private treaty 25 Mar 2022,20220325,9 White Close,LILYDALE,VIC,3140,-37.76039,145.336,1,1,1,ApartmentUnitFlat,Apartment / Unit / Flat,False,0,m2,False
2017636353,listing,/3-80-castella-street-lilydale-vic-3140-2017636353,659000,is-sold,Sold by private treaty 16 Mar 2022,20220316,3/80 Castella Street,LILYDALE,VIC,3140,-37.752346,145.35498,2,2,1,Townhouse,Townhouse,False,0,m2,False
2017645305,listing,/159-swansea-road-lilydale-vic-3140-2017645305,810000,is-sold,Sold by private treaty 19 Mar 2022,20220319,159 Swansea Road,LILYDALE,VIC,3140,-37.7964249,145.359055,3,2,2,House,House,False,834,m2,False
2017653286,listing,/491-maroondah-highway-lilydale-vic-3140-2017653286,715000,is-sold,Sold by private treaty 19 Mar 2022,20220319,491 Maroondah Highway,LILYDALE,VIC,3140,-37.7511673,145.369232,2,1,1,House,House,False,858,m2,False
2017655569,listing,/14-wotan-court-lilydale-vic-3140-2017655569,1345000,is-sold,Sold by private treaty 16 Mar 2022,20220316,14 Wotan Court,LILYDALE,VIC,3140,-37.7382851,145.3398,4,3,4,House,House,False,732,m2,False
2017657397,listing,/63-kingsburgh-lane-lilydale-vic-3140-2017657397,1200000,is-sold,Sold by private treaty 24 Mar 2022,20220324,63 Kingsburgh Lane,LILYDALE,VIC,3140,-37.7398224,145.3398,5,2,3,House,House,False,722,m2,False
2017669555,listing,/25-bristol-crescent-lilydale-vic-3140-2017669555,830000,is-sold,Sold by private treaty 28 Mar 2022,20220328,25 Bristol Crescent,LILYDALE,VIC,3140,-37.7665024,145.3679,3,2,2,House,House,False,636,m2,False
2017669855,listing,/88-bastow-road-lilydale-vic-3140-2017669855,865000,is-sold,Sold by private treaty 01 Apr 2022,20220401,88 Bastow Road,LILYDALE,VIC,3140,-37.7598152,145.36528,3,2,2,House,House,False,997,m2,False
2017678005,listing,/69-old-gippsland-road-lilydale-vic-3140-2017678005,870000,is-sold,Sold by private treaty 01 Apr 2022,20220401,69 Old Gippsland Road,LILYDALE,VIC,3140,-37.7630234,145.368912,3,2,3,House,House,False,1115,m2,False
2017678604,listing,/2-80-anderson-street-lilydale-vic-3140-2017678604,570000,is-sold,Sold by private treaty 21 Mar 2022,20220321,2/80 Anderson Street,LILYDALE,VIC,3140,-37.75423,145.356049,2,2,1,Townhouse,Townhouse,False,0,m2,False
2017683225,listing,/12-poyner-avenue-lilydale-vic-3140-2017683225,926500,is-sold,Sold by private treaty 30 Mar 2022,20220330,12 Poyner Avenue,LILYDALE,VIC,3140,-37.7485046,145.343353,4,2,2,House,House,False,858,m2,False
2017685714,listing,/13a-fortune-avenue-lilydale-vic-3140-2017685714,880000,is-sold,Sold by private treaty 27 Mar 2022,20220327,13A Fortune Avenue,LILYDALE,VIC,3140,-37.76752,145.37413,3,2,2,House,House,False,0,m2,False
2017686386,listing,/3-kerr-street-lilydale-vic-3140-2017686386,685000,is-sold,Sold by private treaty 31 Mar 2022,20220331,3 Kerr Street,LILYDALE,VIC,3140,-37.75228,145.339188,2,1,1,House,House,False,0,m2,False
2017687174,listing,/17-clearwater-drive-lilydale-vic-3140-2017687174,1093000,is-sold,Sold by private treaty 28 Mar 2022,20220328,17 Clearwater Drive,LILYDALE,VIC,3140,-37.7717552,145.350876,4,2,2,House,House,False,774,m2,False
2017698681,listing,/5-80-anderson-street-lilydale-vic-3140-2017698681,575000,is-sold,Sold by private treaty 28 Mar 2022,20220328,5/80 Anderson Street,LILYDALE,VIC,3140,-37.75423,145.356049,2,2,1,Townhouse,Townhouse,False,0,m2,False
2017709232,listing,/3-80-anderson-street-lilydale-vic-3140-2017709232,570000,is-sold,Sold by private treaty 01 Apr 2022,20220401,3/80 Anderson Street,LILYDALE,VIC,3140,-37.75423,145.356049,2,2,1,Townhouse,Townhouse,False,0,m2,False
2017491843,listing,/36a-cave-hill-road-lilydale-vic-3140-2017491843,745000,is-sold,Sold by private treaty 09 Mar 2022,20220309,36a Cave Hill Road,LILYDALE,VIC,3140,-37.7577324,145.343063,3,2,2,House,House,False,590,m2,False
2017504067,listing,/15-kenthurst-court-lilydale-vic-3140-2017504067,930000,is-sold,Sold by private treaty 15 Mar 2022,20220315,15 Kenthurst Court,LILYDALE,VIC,3140,-37.7677231,145.362534,3,2,3,House,House,False,903,m2,False
2017534008,listing,/17a-koombooloomba-court-lilydale-vic-3140-2017534008,800000,is-sold,Sold by private treaty 01 Mar 2022,20220301,17A Koombooloomba Court,LILYDALE,VIC,3140,-37.7483139,145.338013,3,2,2,House,House,False,532,m2,False
2017564782,listing,/5-21-mccomb-street-lilydale-vic-3140-2017564782,544950,is-sold,Sold by private treaty 15 Mar 2022,20220315,5/21 McComb Street,LILYDALE,VIC,3140,-37.75147,145.340973,2,2,1,Townhouse,Townhouse,False,0,m2,False
2017568446,listing,/2-6-berwick-street-lilydale-vic-3140-2017568446,550000,is-sold,Sold by private treaty 04 Mar 2022,20220304,2/6 Berwick Street,LILYDALE,VIC,3140,-37.75627,145.356934,2,1,1,Townhouse,Townhouse,False,0,m2,False
2017575901,listing,/58-beresford-road-lilydale-vic-3140-2017575901,1665000,is-sold,Sold at auction 05 Mar 2022,20220305,58 Beresford Road,LILYDALE,VIC,3140,-37.75071,145.34343,8,4,-,BlockOfUnits,Block of Units,False,1119,m2,False
2017581231,listing,/114-alexandra-road-lilydale-vic-3140-2017581231,806000,is-sold,Sold by private treaty 01 Mar 2022,20220301,114 Alexandra Road,LILYDALE,VIC,3140,-37.7596321,145.370163,3,2,2,House,House,False,430,m2,False
2017591186,listing,/23-glencoe-place-lilydale-vic-3140-2017591186,990000,is-sold,Sold by private treaty 28 Feb 2022,20220228,23 Glencoe Place,LILYDALE,VIC,3140,-37.741394,145.349579,4,2,2,House,House,False,648,m2,False
2017591187,listing,/195-nelson-road-lilydale-vic-3140-2017591187,760000,is-sold,Sold by private treaty 11 Mar 2022,20220311,195 Nelson Road,LILYDALE,VIC,3140,-37.7522736,145.366013,4,1,2,House,House,False,1016,m2,False
2017596050,listing,/71-mangans-road-lilydale-vic-3140-2017596050,620000,is-sold,Sold by private treaty 07 Mar 2022,20220307,71 Mangans Road,LILYDALE,VIC,3140,-37.7562637,145.372147,-,-,-,VacantLand,Vacant land,False,648,m2,False
2017602531,listing,/3-12-baker-street-lilydale-vic-3140-2017602531,595000,is-sold,Sold by private treaty 11 Mar 2022,20220311,3/12 Baker Street,LILYDALE,VIC,3140,-37.75293,145.338181,2,2,1,Townhouse,Townhouse,False,0,m2,False
2017609540,listing,/16-alfred-road-lilydale-vic-3140-2017609540,715000,is-sold,Sold by private treaty 03 Mar 2022,20220303,16 Alfred Road,LILYDALE,VIC,3140,-37.7618332,145.359879,2,1,1,House,House,False,0,m2,False
2017615170,listing,/10-orion-court-lilydale-vic-3140-2017615170,790000,is-sold,Sold by private treaty 03 Mar 2022,20220303,10 Orion Court,LILYDALE,VIC,3140,-37.74615,145.362167,3,2,2,House,House,False,961,m2,False
2017618800,listing,/3-jessica-park-drive-lilydale-vic-3140-2017618800,780000,is-sold,Sold by private treaty 08 Mar 2022,20220308,3 Jessica Park Drive,LILYDALE,VIC,3140,-37.7465744,145.340485,3,2,2,House,House,False,0,m2,False
2017619425,listing,/27-trafalgar-crescent-lilydale-vic-3140-2017619425,852000,is-sold,Sold by private treaty 02 Mar 2022,20220302,27 Trafalgar Crescent,LILYDALE,VIC,3140,-37.7452354,145.363373,3,1,2,House,House,False,891,m2,False
2017622223,listing,/10a-trafalgar-crescent-lilydale-vic-3140-2017622223,860000,is-sold,Sold by private treaty 01 Mar 2022,20220301,10a Trafalgar Crescent,LILYDALE,VIC,3140,-37.7473221,145.3638,4,2,2,House,House,False,307,m2,False
2017631672,listing,/3-dixon-place-lilydale-vic-3140-2017631672,1070000,is-sold,Sold by private treaty 09 Mar 2022,20220309,3 Dixon Place,LILYDALE,VIC,3140,-37.76597,145.364746,4,2,2,House,House,False,751,m2,False
2017636265,listing,/147-hereford-road-lilydale-vic-3140-2017636265,1065000,is-sold,Sold by private treaty 10 Mar 2022,20220310,147 Hereford Road,LILYDALE,VIC,3140,-37.76817,145.3683,5,4,4,House,House,False,871,m2,False
2017636266,listing,/28-community-way-lilydale-vic-3140-2017636266,960000,is-sold,Sold by private treaty 10 Mar 2022,20220310,28 Community Way,LILYDALE,VIC,3140,-37.7716179,145.349365,3,2,2,House,House,False,644,m2,False
2017636313,listing,/4-55-albert-hill-road-lilydale-vic-3140-2017636313,820000,is-sold,Sold by private treaty 07 Mar 2022,20220307,4/55 Albert Hill Road,LILYDALE,VIC,3140,-37.7585144,145.3385,3,2,2,House,House,False,0,m2,False
2017296863,listing,/76-cavehill-road-lilydale-vic-3140-2017296863,Price Withheld,is-sold,Sold by private treaty 18 Feb 2022,20220218,76 Cavehill Road,LILYDALE,VIC,3140,-37.74992,145.3446,3,2,1,House,House,False,437,m2,False
2017309623,listing,/6-11-blair-street-lilydale-vic-3140-2017309623,599000,is-sold,Sold by private treaty 24 Feb 2022,20220224,6/11 Blair Street,LILYDALE,VIC,3140,-37.7511635,145.338486,2,2,1,Townhouse,Townhouse,False,0,m2,False
2017410477,listing,/28-thomas-crescent-lilydale-vic-3140-2017410477,1610000,is-sold,Sold by private treaty 11 Feb 2022,20220211,28 Thomas Crescent,LILYDALE,VIC,3140,-37.79301,145.35585,3,2,2,House,House,False,4341,m2,False
2017463334,listing,/3-karita-court-lilydale-vic-3140-2017463334,895000,is-sold,Sold by private treaty 17 Feb 2022,20220217,3 Karita Court,LILYDALE,VIC,3140,-37.7534,145.3685,3,1,2,House,House,False,863,m2,False
2017480117,listing,/32-summit-road-lilydale-vic-3140-2017480117,795500,is-sold,Sold by private treaty 25 Feb 2022,20220225,32 Summit Road,LILYDALE,VIC,3140,-37.76228,145.365417,4,2,2,House,House,False,857,m2,False
2017544845,listing,/5-29-albert-hill-road-lilydale-vic-3140-2017544845,765000,is-sold,Sold by private treaty 22 Feb 2022,20220222,5/29 Albert Hill Road,LILYDALE,VIC,3140,-37.75634,145.339951,3,2,2,Townhouse,Townhouse,False,0,m2,False
2017550783,listing,/7-olive-grove-lilydale-vic-3140-2017550783,775000,is-sold,Sold by private treaty 14 Feb 2022,20220214,7 Olive Grove,LILYDALE,VIC,3140,-37.79458,145.359482,3,1,2,House,House,False,944,m2,False
2017553860,listing,/16-crestway-lilydale-vic-3140-2017553860,1927527,is-sold,Sold by private treaty 18 Feb 2022,20220218,16 Crestway,LILYDALE,VIC,3140,-37.74841,145.346619,4,2,2,House,House,False,2076,m2,False
2017568556,listing,/25-beresford-road-lilydale-vic-3140-2017568556,740000,is-sold,Sold by private treaty 18 Feb 2022,20220218,25 Beresford Road,LILYDALE,VIC,3140,-37.74985,145.3396,3,1,-,House,House,False,500,m2,False
2017574387,listing,/13-old-gippsland-road-lilydale-vic-3140-2017574387,802000,is-sold,Sold by private treaty 18 Feb 2022,20220218,13 Old Gippsland Road,LILYDALE,VIC,3140,-37.7621574,145.358887,4,2,1,House,House,False,437,m2,False
2017575603,listing,/1-maison-close-lilydale-vic-3140-2017575603,560000,is-sold,Sold by private treaty 26 Feb 2022,20220226,1 Maison Close,LILYDALE,VIC,3140,-37.7574158,145.350388,2,2,2,House,House,False,0,m2,False
2017583931,listing,/2-32-albert-road-lilydale-vic-3140-2017583931,695000,is-sold,Sold prior to auction 24 Feb 2022,20220224,2/32 Albert Road,LILYDALE,VIC,3140,-37.7589836,145.361618,3,2,1,ApartmentUnitFlat,Apartment / Unit / Flat,False,0,m2,False
2017584688,listing,/4-symphony-drive-lilydale-vic-3140-2017584688,1040000,is-sold,Sold by private treaty 18 Feb 2022,20220218,4 Symphony Drive,LILYDALE,VIC,3140,-37.77111,145.354218,3,2,2,House,House,False,621,m2,False
2017587749,listing,/18-white-close-lilydale-vic-3140-2017587749,425000,is-sold,Sold by private treaty 23 Feb 2022,20220223,18 White Close,LILYDALE,VIC,3140,-37.7604637,145.3364,1,1,1,House,House,False,0,m2,False
2017589243,listing,/1-6-plaza-court-lilydale-vic-3140-2017589243,860000,is-sold,Sold by private treaty 21 Feb 2022,20220221,1/6 Plaza Court,LILYDALE,VIC,3140,-37.7472343,145.343567,4,2,1,House,House,False,565,m2,False
2017597275,listing,/56-the-gateway-lilydale-vic-3140-2017597275,950000,is-sold,Sold by private treaty 23 Feb 2022,20220223,56 The Gateway,LILYDALE,VIC,3140,-37.7422,145.3473,4,2,2,House,House,False,720,m2,False
2017603004,listing,/3-dover-close-lilydale-vic-3140-2017603004,560000,is-sold,Sold by private treaty 24 Feb 2022,20220224,3 Dover Close,LILYDALE,VIC,3140,-37.75173,145.353943,2,1,2,House,House,False,0,m2,False
2017603008,listing,/4-karita-court-lilydale-vic-3140-2017603008,790000,is-sold,Sold by private treaty 25 Feb 2022,20220225,4 Karita Court,LILYDALE,VIC,3140,-37.75344,145.368866,3,1,2,House,House,False,867,m2,False
2017603580,listing,/108a-victoria-road-lilydale-vic-3140-2017603580,830000,is-sold,Sold by private treaty 23 Feb 2022,20220223,108A Victoria Road,LILYDALE,VIC,3140,-37.7488,145.337036,3,2,2,House,House,False,0,m2,False
2017876220,listing,/3-29-albert-hill-road-lilydale-vic-3140-2017876220,760000,is-sold,Sold by private treaty 18 Feb 2022,20220218,3/29 Albert Hill Road,LILYDALE,VIC,3140,-37.7562675,145.339951,3,2,2,Townhouse,Townhouse,False,0,m2,False
2017287171,listing,/2-roeschinger-way-lilydale-vic-3140-2017287171,810000,is-sold,Sold by private treaty 21 Jan 2022,20220121,2 Roeschinger Way,LILYDALE,VIC,3140,-37.75796,145.336166,4,2,2,House,House,False,499,m2,False
2017345663,listing,/6-19-maroondah-highway-lilydale-vic-3140-2017345663,Price Withheld,is-sold,Sold by private treaty 02 Feb 2022,20220202,6/19 Maroondah Highway,LILYDALE,VIC,3140,-37.75698,145.340988,4,2,2,Townhouse,Townhouse,False,0,m2,False
2017404390,listing,/19-woodlee-rise-lilydale-vic-3140-2017404390,1275000,is-sold,Sold by private treaty 15 Jan 2022,20220115,19 Woodlee Rise,LILYDALE,VIC,3140,-37.76999,145.365021,4,2,2,House,House,False,1295,m2,False
2017436100,listing,/21-north-road-lilydale-vic-3140-2017436100,830000,is-sold,Sold by private treaty 17 Jan 2022,20220117,21 North Road,LILYDALE,VIC,3140,-37.7562065,145.364731,3,2,2,House,House,False,935,m2,False
2017437562,listing,/3-81-anderson-street-lilydale-vic-3140-2017437562,350000,is-sold,Sold by private treaty 26 Jan 2022,20220126,3/81 Anderson Street,LILYDALE,VIC,3140,-37.75426,145.355072,1,1,1,ApartmentUnitFlat,Apartment / Unit / Flat,False,106,m2,False
2017447357,listing,/34-the-gateway-lilydale-vic-3140-2017447357,890000,is-sold,Sold by private treaty 03 Feb 2022,20220203,34 The Gateway,LILYDALE,VIC,3140,-37.7436829,145.346756,4,2,2,House,House,False,700,m2,False
2017469109,listing,/4-watts-way-lilydale-vic-3140-2017469109,1600000,is-sold,Sold by private treaty 04 Feb 2022,20220204,4 Watts Way,LILYDALE,VIC,3140,-37.77746,145.356766,5,3,2,House,House,False,1002,m2,False
2017487320,listing,/48-kidgell-street-lilydale-vic-3140-2017487320,772500,is-sold,Sold by private treaty 18 Jan 2022,20220118,48 Kidgell Street,LILYDALE,VIC,3140,-37.7503166,145.340378,3,1,2,House,House,False,518,m2,False
2017506978,listing,/366-swansea-road-lilydale-vic-3140-2017506978,750000,is-sold,Sold by private treaty 19 Jan 2022,20220119,366 Swansea Road,LILYDALE,VIC,3140,-37.7731476,145.363358,3,1,2,House,House,False,1095,m2,False
2017515333,listing,/89-charles-road-lilydale-vic-3140-2017515333,747000,is-sold,Sold by private treaty 21 Jan 2022,20220121,89 Charles Road,LILYDALE,VIC,3140,-37.7936134,145.358658,3,1,2,House,House,False,891,m2,False
2017518836,listing,/27-david-road-lilydale-vic-3140-2017518836,860000,is-sold,Sold by private treaty 02 Feb 2022,20220202,27 David Road,LILYDALE,VIC,3140,-37.7708626,145.3641,3,1,3,House,House,False,908,m2,False
2017519801,listing,/57-beresford-road-lilydale-vic-3140-2017519801,890000,is-sold,Sold by private treaty 18 Jan 2022,20220118,57 Beresford Road,LILYDALE,VIC,3140,-37.7502632,145.343048,3,2,2,House,House,False,867,m2,False
2017530528,listing,/1-75-cave-hill-road-lilydale-vic-3140-2017530528,540000,is-sold,Sold by private treaty 08 Feb 2022,20220208,1/75 Cave Hill Road,LILYDALE,VIC,3140,-37.75243,145.3436,2,1,1,ApartmentUnitFlat,Apartment / Unit / Flat,False,134,m2,False
2017536354,listing,/1-1-clyde-street-lilydale-vic-3140-2017536354,711000,is-sold,Sold by private treaty 03 Feb 2022,20220203,1/1 Clyde Street,LILYDALE,VIC,3140,-37.7585068,145.341858,3,1,1,ApartmentUnitFlat,Apartment / Unit / Flat,False,314,m2,False
2017544583,listing,/4-phillip-close-lilydale-vic-3140-2017544583,695000,is-sold,Sold by private treaty 01 Feb 2022,20220201,4 Phillip Close,LILYDALE,VIC,3140,-37.75165,145.350174,2,2,1,ApartmentUnitFlat,Apartment / Unit / Flat,False,238,m2,False
2017548680,listing,/7-45-clarke-street-lilydale-vic-3140-2017548680,530000,is-sold,Sold by private treaty 08 Feb 2022,20220208,7/45 Clarke Street,LILYDALE,VIC,3140,-37.75453,145.352356,2,1,2,ApartmentUnitFlat,Apartment / Unit / Flat,False,130,m2,False
2017552507,listing,/136-138-old-gippsland-road-lilydale-vic-3140-2017552507,1751000,is-sold,Sold by private treaty 03 Feb 2022,20220203,136-138 Old Gippsland Road,LILYDALE,VIC,3140,-37.7643242,145.374008,5,3,4,House,House,False,3143,m2,False
2017564785,listing,/3-75-cave-hill-road-lilydale-vic-3140-2017564785,605000,is-sold,Sold by private treaty 28 Jan 2022,20220128,3/75 Cave Hill Road,LILYDALE,VIC,3140,-37.7524033,145.343292,2,1,2,House,House,False,0,m2,False
2017568538,listing,/118-old-gippsland-road-lilydale-vic-3140-2017568538,1078000,is-sold,Sold by private treaty 10 Feb 2022,20220210,118 Old Gippsland Road,LILYDALE,VIC,3140,-37.7641563,145.3721,4,2,2,House,House,False,701,m2,False
2017568694,listing,/44-alexandra-road-lilydale-vic-3140-2017568694,790000,is-sold,Sold by private treaty 09 Feb 2022,20220209,44 Alexandra Road,LILYDALE,VIC,3140,-37.7569923,145.36525,3,2,-,House,House,False,562,m2,False
2017296407,listing,/1-jayde-close-lilydale-vic-3140-2017296407,610000,is-sold,Sold by private treaty 23 Dec 2021,20211223,1 Jayde Close,LILYDALE,VIC,3140,-37.75821,145.34198,2,1,1,House,House,False,0,m2,False
2017390080,listing,/2-sarges-mews-lilydale-vic-3140-2017390080,555000,is-sold,Sold by private treaty 10 Jan 2022,20220110,2 Sarges Mews,LILYDALE,VIC,3140,-37.7601738,145.339554,2,2,1,Townhouse,Townhouse,False,0,m2,False
2017397767,listing,/2-36-kidgell-street-lilydale-vic-3140-2017397767,562000,is-sold,Sold by private treaty 30 Dec 2021,20211230,2/36 Kidgell Street,LILYDALE,VIC,3140,-37.7515144,145.340256,2,1,1,ApartmentUnitFlat,Apartment / Unit / Flat,False,0,m2,False
2017411917,listing,/2-morna-street-lilydale-vic-3140-2017411917,980000,is-sold,Sold by private treaty 14 Jan 2022,20220114,2 Morna Street,LILYDALE,VIC,3140,-37.7557335,145.3642,4,2,5,House,House,False,885,m2,False
2017444110,listing,/5-erldunda-court-lilydale-vic-3140-2017444110,807000,is-sold,Sold by private treaty 07 Jan 2022,20220107,5 Erldunda Court,LILYDALE,VIC,3140,-37.74832,145.339081,3,1,1,House,House,False,939,m2,False
2017452292,listing,/31-bristol-crescent-lilydale-vic-3140-2017452292,880000,is-sold,Sold by private treaty 12 Jan 2022,20220112,31 Bristol Crescent,LILYDALE,VIC,3140,-37.76698,145.367752,3,2,2,House,House,False,648,m2,False
2017456037,listing,/5-opal-court-lilydale-vic-3140-2017456037,852500,is-sold,Sold by private treaty 22 Dec 2021,20211222,5 Opal Court,LILYDALE,VIC,3140,-37.76714,145.3682,3,2,2,House,House,False,371,m2,False
2017462156,listing,/26-william-road-lilydale-vic-3140-2017462156,1290000,is-sold,Sold by private treaty 21 Dec 2021,20211221,26 William Road,LILYDALE,VIC,3140,-37.7842865,145.356369,5,2,6,House,House,False,4006,m2,False
2017463487,listing,/497-maroondah-highway-lilydale-vic-3140-2017463487,791000,is-sold,Sold by private treaty 24 Dec 2021,20211224,497 Maroondah Highway,LILYDALE,VIC,3140,-37.7507935,145.369965,3,2,4,House,House,False,937,m2,False
2017465354,listing,/4-archer-close-lilydale-vic-3140-2017465354,840000,is-sold,Sold by private treaty 21 Dec 2021,20211221,4 Archer Close,LILYDALE,VIC,3140,-37.7443428,145.34523,3,2,2,House,House,False,510,m2,False
2017472159,listing,/22-bristol-crescent-lilydale-vic-3140-2017472159,843555,is-sold,Sold by private treaty 23 Dec 2021,20211223,22 Bristol Crescent,LILYDALE,VIC,3140,-37.76592,145.3691,3,1,2,House,House,False,863,m2,False
2017477710,listing,/1-kingsburgh-lane-lilydale-vic-3140-2017477710,925000,is-sold,Sold by private treaty 14 Jan 2022,20220114,1 Kingsburgh Lane,LILYDALE,VIC,3140,-37.7412376,145.344055,4,2,2,House,House,False,702,m2,False
2017481290,listing,/70-72-bastow-road-lilydale-vic-3140-2017481290,1101000,is-sold,Sold by private treaty 07 Jan 2022,20220107,70-72 Bastow Road,LILYDALE,VIC,3140,-37.7588272,145.36702,4,2,4,House,House,False,952,m2,False
2017483639,listing,/9-the-ridge-lilydale-vic-3140-2017483639,980000,is-sold,Sold by private treaty 06 Jan 2022,20220106,9 The Ridge,LILYDALE,VIC,3140,-37.7753944,145.354645,4,2,2,House,House,False,994,m2,False
2017487520,listing,/8-revenue-place-lilydale-vic-3140-2017487520,1252000,is-sold,Sold by private treaty 12 Jan 2022,20220112,8 Revenue Place,LILYDALE,VIC,3140,-37.7406044,145.341583,5,3,2,House,House,False,760,m2,False
2017490827,listing,/49-old-gippsland-road-lilydale-vic-3140-2017490827,840000,is-sold,Sold by private treaty 22 Dec 2021,20211222,49 Old Gippsland Road,LILYDALE,VIC,3140,-37.7626343,145.363678,3,2,2,House,House,False,641,m2,False
2017506651,listing,/18-pinnacle-rise-lilydale-vic-3140-2017506651,860000,is-sold,Sold by private treaty 12 Jan 2022,20220112,18 Pinnacle Rise,LILYDALE,VIC,3140,-37.7738876,145.3508,4,2,2,House,House,False,655,m2,False
2017509537,listing,/16-cave-hill-road-lilydale-vic-3140-2017509537,780000,is-sold,Sold by private treaty 14 Jan 2022,20220114,16 Cave Hill Road,LILYDALE,VIC,3140,-37.759285,145.342773,3,2,2,House,House,False,0,m2,False
2017509552,listing,/2-59-beresford-road-lilydale-vic-3140-2017509552,750000,is-sold,Sold by private treaty 14 Jan 2022,20220114,2/59 Beresford Road,LILYDALE,VIC,3140,-37.7502823,145.343246,3,2,2,ApartmentUnitFlat,Apartment / Unit / Flat,False,0,m2,False
2017509889,listing,/66-kingsburgh-lane-lilydale-vic-3140-2017509889,1320000,is-sold,Sold by private treaty 12 Jan 2022,20220112,66 Kingsburgh Lane,LILYDALE,VIC,3140,-37.7392654,145.34024,4,2,5,House,House,False,886,m2,False
2017311173,listing,/1-trinity-close-lilydale-vic-3140-2017311173,639000,is-sold,Sold by private treaty 13 Dec 2021,20211213,1 Trinity Close,LILYDALE,VIC,3140,-37.7767868,145.35556,-,-,-,VacantLand,Vacant land,False,1113,m2,False
2017344426,listing,/2-archer-close-lilydale-vic-3140-2017344426,960000,is-sold,Sold by private treaty 10 Dec 2021,20211210,2 Archer Close,LILYDALE,VIC,3140,-37.7441254,145.345474,5,2,3,House,House,False,505,m2,False
2017379385,listing,/3-thorpe-street-lilydale-vic-3140-2017379385,1300000,is-sold,Sold by private treaty 17 Dec 2021,20211217,3 Thorpe Street,LILYDALE,VIC,3140,-37.77953,145.349213,4,2,6,House,House,False,2047,m2,False
2017397493,listing,/34-white-close-lilydale-vic-3140-2017397493,Price Withheld,is-sold,Sold by private treaty 15 Dec 2021,20211215,34 White Close,LILYDALE,VIC,3140,-37.76055,145.337357,2,1,1,ApartmentUnitFlat,Apartment / Unit / Flat,False,0,m2,False
2017397826,listing,/118-lakeview-drive-lilydale-vic-3140-2017397826,950000,is-sold,Sold by private treaty 17 Dec 2021,20211217,118 Lakeview Drive,LILYDALE,VIC,3140,-37.7735138,145.347382,5,2,2,House,House,False,872,m2,False
2017402044,listing,/5-2-summit-road-lilydale-vic-3140-2017402044,445750,is-sold,Sold by private treaty 19 Dec 2021,20211219,5/2 Summit Road,LILYDALE,VIC,3140,-37.759964,145.3621,2,1,1,ApartmentUnitFlat,Apartment / Unit / Flat,False,0,m2,False
2017411215,listing,/60-old-gippsland-road-lilydale-vic-3140-2017411215,1150000,is-sold,Sold by private treaty 15 Dec 2021,20211215,60 Old Gippsland Road,LILYDALE,VIC,3140,-37.7636147,145.36644,5,2,2,House,House,False,1724,m2,False
2017415913,listing,/6a-koombooloomba-court-lilydale-vic-3140-2017415913,885000,is-sold,Sold by private treaty 10 Dec 2021,20211210,6A Koombooloomba Court,LILYDALE,VIC,3140,-37.7492142,145.338272,4,2,2,House,House,False,0,m2,False
2017432140,listing,/11-george-street-lilydale-vic-3140-2017432140,1200000,is-sold,Sold by private treaty 18 Dec 2021,20211218,11 George Street,LILYDALE,VIC,3140,-37.7556572,145.356842,3,1,1,House,House,False,1013,m2,False
2017433972,listing,/23-arwon-court-lilydale-vic-3140-2017433972,975559,is-sold,Sold by private treaty 17 Dec 2021,20211217,23 Arwon Court,LILYDALE,VIC,3140,-37.7460861,145.3474,4,2,2,House,House,False,654,m2,False
2017435261,listing,/1-revenue-place-lilydale-vic-3140-2017435261,1155000,is-sold,Sold by private treaty 09 Dec 2021,20211209,1 Revenue Place,LILYDALE,VIC,3140,-37.74107,145.343063,4,3,4,House,House,False,810,m2,False
2017442858,listing,/7-winnetka-drive-lilydale-vic-3140-2017442858,790000,is-sold,Sold by private treaty 16 Dec 2021,20211216,7 Winnetka Drive,LILYDALE,VIC,3140,-37.74949,145.345566,3,1,3,House,House,False,865,m2,False
2017444201,listing,/6-kidgell-street-lilydale-vic-3140-2017444201,765000,is-sold,Sold by private treaty 15 Dec 2021,20211215,6 Kidgell Street,LILYDALE,VIC,3140,-37.7547646,145.340591,3,2,2,House,House,False,0,m2,False
2017449726,listing,/27-mandl-close-lilydale-vic-3140-2017449726,1095000,is-sold,Sold by private treaty 20 Dec 2021,20211220,27 Mandl Close,LILYDALE,VIC,3140,-37.7646027,145.359772,4,2,2,House,House,False,732,m2,False
2017452347,listing,/2-park-lane-lilydale-vic-3140-2017452347,711500,is-sold,Sold by private treaty 15 Dec 2021,20211215,2 Park Lane,LILYDALE,VIC,3140,-37.77311,145.331741,3,1,2,House,House,False,0,m2,False
2017452755,listing,/7-herb-farm-lane-lilydale-vic-3140-2017452755,830000,is-sold,Sold by private treaty 13 Dec 2021,20211213,7 Herb Farm Lane,LILYDALE,VIC,3140,-37.7561035,145.371368,3,2,2,House,House,False,321,m2,False
2017461693,listing,/1-27-cave-hill-road-lilydale-vic-3140-2017461693,645000,is-sold,Sold by private treaty 07 Dec 2021,20211207,1/27 Cave Hill Road,LILYDALE,VIC,3140,-37.7485847,145.344635,2,1,1,ApartmentUnitFlat,Apartment / Unit / Flat,False,0,m2,False
2017472587,listing,/7-80-anderson-street-lilydale-vic-3140-2017472587,610000,is-sold,Sold by private treaty 07 Dec 2021,20211207,7/80 Anderson Street,LILYDALE,VIC,3140,-37.75423,145.356049,2,2,1,Townhouse,Townhouse,False,0,m2,False
2017473743,listing,/75-albert-hill-road-lilydale-vic-3140-2017473743,904000,is-sold,Sold by private treaty 20 Dec 2021,20211220,75 Albert Hill Road,LILYDALE,VIC,3140,-37.7595825,145.336441,4,3,2,House,House,False,514,m2,False
2017623484,listing,/6-mentor-grove-lilydale-vic-3140-2017623484,1200000,is-sold,Sold by private treaty 19 Dec 2021,20211219,6 Mentor Grove,LILYDALE,VIC,3140,-37.7433434,145.3384,4,2,2,House,House,False,726,m2,False
2017266427,listing,/1-3-23-the-eyrie-lilydale-vic-3140-2017266427,Price Withheld,is-sold,Sold by private treaty 06 Dec 2021,20211206,1-3/23 The Eyrie,LILYDALE,VIC,3140,-37.75393,145.358185,3,2,2,ApartmentUnitFlat,Apartment / Unit / Flat,False,0,m2,False
2017331550,listing,/8-alexandra-road-lilydale-vic-3140-2017331550,1011000,is-sold,Sold by private treaty 26 Nov 2021,20211126,8 Alexandra Road,LILYDALE,VIC,3140,-37.7584076,145.362625,3,1,1,House,House,False,1011,m2,False
2017356889,listing,/92a-victoria-road-lilydale-vic-3140-2017356889,700000,is-sold,Sold by private treaty 18 Nov 2021,20211118,92A Victoria Road,LILYDALE,VIC,3140,-37.7505035,145.337021,3,2,2,ApartmentUnitFlat,Apartment / Unit / Flat,False,0,m2,False
2017360637,listing,/167-swansea-road-lilydale-vic-3140-2017360637,615000,is-sold,Sold by private treaty 18 Nov 2021,20211118,167 Swansea Road,LILYDALE,VIC,3140,-37.7957878,145.359436,2,1,2,House,House,False,1056,m2,False
2017373389,listing,/5-bella-vista-way-lilydale-vic-3140-2017373389,982000,is-sold,Sold at auction 29 Nov 2021,20211129,5 Bella Vista Way,LILYDALE,VIC,3140,-37.77245,145.354324,5,2,2,House,House,False,767,m2,False
2017385883,listing,/6-8-thomas-crescent-lilydale-vic-3140-2017385883,1170000,is-sold,Sold by private treaty 16 Nov 2021,20211116,6-8 Thomas Crescent,LILYDALE,VIC,3140,-37.789196,145.355347,5,3,2,House,House,False,2685,m2,False
2017387508,listing,/6-23-mccomb-street-lilydale-vic-3140-2017387508,460000,is-sold,Sold by private treaty 29 Nov 2021,20211129,6/23 McComb Street,LILYDALE,VIC,3140,-37.75196,145.340591,1,1,1,ApartmentUnitFlat,Apartment / Unit / Flat,False,115,m2,False
2017389070,listing,/3-fairview-close-lilydale-vic-3140-2017389070,550000,is-sold,Sold by private treaty 16 Nov 2021,20211116,3 Fairview Close,LILYDALE,VIC,3140,-37.7580452,145.350235,2,2,1,Townhouse,Townhouse,False,0,m2,False
2017397396,listing,/11-carmen-court-lilydale-vic-3140-2017397396,850000,is-sold,Sold by private treaty 18 Nov 2021,20211118,11 Carmen Court,LILYDALE,VIC,3140,-37.7677765,145.372711,3,1,-,House,House,False,1096,m2,False
2017403548,listing,/3-worcester-street-lilydale-vic-3140-2017403548,1520000,is-sold,Sold by private treaty 25 Nov 2021,20211125,3 Worcester Street,LILYDALE,VIC,3140,-37.77891,145.351364,4,2,4,House,House,False,1991,m2,False
2017404471,listing,/10-melody-close-lilydale-vic-3140-2017404471,900000,is-sold,Sold by private treaty 17 Nov 2021,20211117,10 Melody Close,LILYDALE,VIC,3140,-37.7743073,145.3537,3,2,2,House,House,False,0,m2,False
2017414661,listing,/61-rockys-way-lilydale-vic-3140-2017414661,970000,is-sold,Sold by private treaty 06 Dec 2021,20211206,61 Rockys Way,LILYDALE,VIC,3140,-37.7684937,145.349457,4,2,2,House,House,False,602,m2,False
2017415301,listing,/2-84-castella-street-lilydale-vic-3140-2017415301,634444,is-sold,Sold by private treaty 06 Dec 2021,20211206,2/84 Castella Street,LILYDALE,VIC,3140,-37.75196,145.3552,2,1,1,ApartmentUnitFlat,Apartment / Unit / Flat,False,0,m2,False
2017419491,listing,/24-white-close-lilydale-vic-3140-2017419491,520000,is-sold,Sold by private treaty 04 Dec 2021,20211204,24 White Close,LILYDALE,VIC,3140,-37.7605,145.336777,2,1,1,ApartmentUnitFlat,Apartment / Unit / Flat,False,0,m2,False
2017419946,listing,/5-don-court-lilydale-vic-3140-2017419946,1350000,is-sold,Sold by private treaty 30 Nov 2021,20211130,5 Don Court,LILYDALE,VIC,3140,-37.7413521,145.340561,6,2,2,House,House,False,720,m2,False
2017421466,listing,/8a-union-road-lilydale-vic-3140-2017421466,825000,is-sold,Sold by private treaty 25 Nov 2021,20211125,8A Union Road,LILYDALE,VIC,3140,-37.7596245,145.366867,3,2,-,House,House,False,776,m2,False
2017421470,listing,/19-the-circuit-lilydale-vic-3140-2017421470,920000,is-sold,Sold by private treaty 22 Nov 2021,20211122,19 The Circuit,LILYDALE,VIC,3140,-37.7759247,145.347473,4,2,2,House,House,False,551,m2,False
2017434049,listing,/1-kerr-street-lilydale-vic-3140-2017434049,660000,is-sold,Sold by private treaty 01 Dec 2021,20211201,1 Kerr Street,LILYDALE,VIC,3140,-37.7524147,145.339157,2,1,2,House,House,False,0,m2,False
2017436127,listing,/21-bristol-crescent-lilydale-vic-3140-2017436127,755000,is-sold,Sold by private treaty 04 Dec 2021,20211204,21 Bristol Crescent,LILYDALE,VIC,3140,-37.766098,145.3679,3,1,1,House,House,False,635,m2,False
2017467801,listing,/4-80-anderson-street-lilydale-vic-3140-2017467801,565000,is-sold,Sold by private treaty 17 Nov 2021,20211117,4/80 Anderson Street,LILYDALE,VIC,3140,-37.75423,145.356049,2,2,1,Townhouse,Townhouse,False,0,m2,False
2017223705,listing,/1-lilac-rise-lilydale-vic-3140-2017223705,838000,is-sold,Sold by private treaty 16 Nov 2021,20211116,1 Lilac Rise,LILYDALE,VIC,3140,-37.77506,145.349579,3,2,1,House,House,False,757,m2,False
2017296589,listing,/1-29-albert-hill-road-lilydale-vic-3140-2017296589,830719,is-sold,Sold by private treaty 11 Nov 2021,20211111,1/29 Albert Hill Road,LILYDALE,VIC,3140,-37.75634,145.339951,4,2,2,Townhouse,Townhouse,False,0,m2,False
2017299100,listing,/47-mangans-road-lilydale-vic-3140-2017299100,1140000,is-sold,Sold by private treaty 03 Nov 2021,20211103,47 Mangans Road,LILYDALE,VIC,3140,-37.7580452,145.371765,4,2,2,House,House,False,948,m2,False
2017323122,listing,/40-old-gippsland-road-lilydale-vic-3140-2017323122,849950,is-sold,Sold by private treaty 10 Nov 2021,20211110,40 Old Gippsland Road,LILYDALE,VIC,3140,-37.7633667,145.363876,3,2,2,House,House,False,500,m2,False
2017327098,listing,/20-carmen-court-lilydale-vic-3140-2017327098,610000,is-sold,Sold by private treaty 05 Nov 2021,20211105,20 Carmen Court,LILYDALE,VIC,3140,-37.768158,145.373,-,-,-,VacantLand,Vacant land,False,734,m2,False
2017327777,listing,/5-14-deschamps-street-lilydale-vic-3140-2017327777,570000,is-sold,Sold by private treaty 05 Nov 2021,20211105,5/14 Deschamps Street,LILYDALE,VIC,3140,-37.7542725,145.34198,2,2,1,Townhouse,Townhouse,False,0,m2,False
2017341597,listing,/35-parkside-close-lilydale-vic-3140-2017341597,832000,is-sold,Sold prior to auction 04 Nov 2021,20211104,35 Parkside Close,LILYDALE,VIC,3140,-37.764595,145.373535,3,2,2,House,House,False,589,m2,False
2017341957,listing,/10a-trafalgar-crescent-lilydale-vic-3140-2017341957,340000,is-sold,Sold by private treaty 12 Nov 2021,20211112,10A Trafalgar Crescent,LILYDALE,VIC,3140,-37.7473221,145.3638,-,-,-,VacantLand,Vacant land,False,307,m2,False
2017343968,listing,/20-bristol-crescent-lilydale-vic-3140-2017343968,835500,is-sold,Sold by private treaty 09 Nov 2021,20211109,20 Bristol Crescent,LILYDALE,VIC,3140,-37.765995,145.369324,3,1,-,House,House,False,924,m2,False
2017352224,listing,/35-bastow-road-lilydale-vic-3140-2017352224,1150000,is-sold,Sold by private treaty 04 Nov 2021,20211104,35 Bastow Road,LILYDALE,VIC,3140,-37.7578163,145.364853,4,4,2,House,House,False,983,m2,False
2017356414,listing,/11-themeda-place-lilydale-vic-3140-2017356414,711000,is-sold,Sold by private treaty 10 Nov 2021,20211110,11 Themeda Place,LILYDALE,VIC,3140,-37.7668839,145.366348,3,1,2,House,House,False,0,m2,False
2017359853,listing,/15-baystone-place-lilydale-vic-3140-2017359853,1030000,is-sold,Sold by private treaty 10 Nov 2021,20211110,15 Baystone Place,LILYDALE,VIC,3140,-37.74424,145.3434,5,2,2,House,House,False,728,m2,False
2017364056,listing,/15-9-north-road-lilydale-vic-3140-2017364056,605000,is-sold,Sold by private treaty 05 Nov 2021,20211105,15/9 North Road,LILYDALE,VIC,3140,-37.756012,145.363464,2,1,2,ApartmentUnitFlat,Apartment / Unit / Flat,False,0,m2,False
2017364673,listing,/1-6-black-street-lilydale-vic-3140-2017364673,615000,is-sold,Sold by private treaty 13 Nov 2021,20211113,1/6 Black Street,LILYDALE,VIC,3140,-37.7588234,145.34343,2,2,1,House,House,False,0,m2,False
2017364882,listing,/40-morokai-grove-lilydale-vic-3140-2017364882,870000,is-sold,Sold by private treaty 09 Nov 2021,20211109,40 Morokai Grove,LILYDALE,VIC,3140,-37.7496033,145.34317,4,2,2,House,House,False,864,m2,False
2017365511,listing,/18-baker-street-lilydale-vic-3140-2017365511,1088000,is-sold,Sold by private treaty 13 Nov 2021,20211113,18 Baker Street,LILYDALE,VIC,3140,-37.75283,145.3375,5,2,2,House,House,False,955,m2,False
2017373632,listing,/3-reece-court-lilydale-vic-3140-2017373632,932000,is-sold,Sold at auction 12 Nov 2021,20211112,3 Reece Court,LILYDALE,VIC,3140,-37.76969,145.34964,4,2,2,House,House,False,630,m2,False
2017381340,listing,/11-wilsons-lane-lilydale-vic-3140-2017381340,930000,is-sold,Sold by private treaty 08 Nov 2021,20211108,11 Wilsons Lane,LILYDALE,VIC,3140,-37.75581,145.3389,4,1,4,House,House,False,987,m2,False
2017383781,listing,/21-edinburgh-road-lilydale-vic-3140-2017383781,1950000,is-sold,Sold by private treaty 13 Nov 2021,20211113,21 Edinburgh Road,LILYDALE,VIC,3140,-37.77995,145.350449,5,2,4,House,House,False,4000,m2,False
2017383901,listing,/2-18-beresford-road-lilydale-vic-3140-2017383901,460000,is-sold,Sold by private treaty 11 Nov 2021,20211111,2/18 Beresford Road,LILYDALE,VIC,3140,-37.7502823,145.338623,1,1,1,ApartmentUnitFlat,Apartment / Unit / Flat,False,0,m2,False
2014828286,listing,/23-maroondah-highway-lilydale-vic-3140-2014828286,Price Withheld,is-sold,Sold by private treaty 25 Oct 2021,20211025,23 Maroondah Highway,LILYDALE,VIC,3140,-37.7572174,145.340591,5,2,-,House,House,False,1325,m2,False
2017126261,listing,/1-47-alexandra-road-lilydale-vic-3140-2017126261,420000,is-sold,Sold by private treaty 22 Oct 2021,20211022,1/47 Alexandra Road,LILYDALE,VIC,3140,-37.75697,145.3674,-,-,-,VacantLand,Vacant land,False,413,m2,False
2017261897,listing,/1-jurat-road-lilydale-vic-3140-2017261897,1100000,is-sold,Sold by private treaty 27 Oct 2021,20211027,1 Jurat Road,LILYDALE,VIC,3140,-37.75897,145.388367,2,1,-,House,House,False,7978,m2,False
2017283132,listing,/13-archer-close-lilydale-vic-3140-2017283132,927000,is-sold,Sold by private treaty 23 Oct 2021,20211023,13 Archer Close,LILYDALE,VIC,3140,-37.74418,145.344879,3,2,2,House,House,False,0,m2,False
2017285791,listing,/14-kyra-close-lilydale-vic-3140-2017285791,1100000,is-sold,Sold by private treaty 28 Oct 2021,20211028,14 Kyra Close,LILYDALE,VIC,3140,-37.7729454,145.363937,4,2,2,House,House,False,751,m2,False
2017289155,listing,/19a-queen-road-lilydale-vic-3140-2017289155,668000,is-sold,Sold by private treaty 20 Oct 2021,20211020,19A Queen Road,LILYDALE,VIC,3140,-37.7583847,145.361,2,2,1,House,House,False,0,m2,False
2017300379,listing,/41-mitchell-road-lilydale-vic-3140-2017300379,833500,is-sold,Sold by private treaty 25 Oct 2021,20211025,41 Mitchell Road,LILYDALE,VIC,3140,-37.7709465,145.369812,3,1,1,House,House,False,930,m2,False
2017316849,listing,/11-trafalgar-crescent-lilydale-vic-3140-2017316849,873250,is-sold,Sold by private treaty 25 Oct 2021,20211025,11 Trafalgar Crescent,LILYDALE,VIC,3140,-37.74709,145.363052,3,1,2,House,House,False,943,m2,False
2017318444,listing,/83-lakeview-drive-lilydale-vic-3140-2017318444,895000,is-sold,Sold by private treaty 23 Oct 2021,20211023,83 Lakeview Drive,LILYDALE,VIC,3140,-37.7733345,145.350113,3,2,2,House,House,False,864,m2,False
2017320033,listing,/2-wotan-court-lilydale-vic-3140-2017320033,1068000,is-sold,Sold at auction 23 Oct 2021,20211023,2 Wotan Court,LILYDALE,VIC,3140,-37.7388039,145.340851,4,2,3,House,House,False,0,m2,False
2017323594,listing,/88-mangans-road-lilydale-vic-3140-2017323594,1651000,is-sold,Sold by private treaty 21 Oct 2021,20211021,88 Mangans Road,LILYDALE,VIC,3140,-37.7552872,145.373276,5,3,4,House,House,False,4034,m2,False
2017330162,listing,/8-comic-court-lilydale-vic-3140-2017330162,950000,is-sold,Sold by private treaty 26 Oct 2021,20211026,8 Comic Court,LILYDALE,VIC,3140,-37.7430229,145.347778,4,2,2,House,House,False,612,m2,False
2017332259,listing,/14b-cobden-crescent-lilydale-vic-3140-2017332259,841000,is-sold,Sold by private treaty 28 Oct 2021,20211028,14B Cobden Crescent,LILYDALE,VIC,3140,-37.76137,145.356,3,2,2,House,House,False,414,m2,False
2017340713,listing,/5-9-maroondah-highway-lilydale-vic-3140-2017340713,605000,is-sold,Sold by private treaty 27 Oct 2021,20211027,5/9 Maroondah Highway,LILYDALE,VIC,3140,-37.7561722,145.341385,2,1,1,ApartmentUnitFlat,Apartment / Unit / Flat,False,0,m2,False
2017341107,listing,/10-trafalgar-crescent-lilydale-vic-3140-2017341107,700000,is-sold,Sold by private treaty 23 Oct 2021,20211023,10 Trafalgar Crescent,LILYDALE,VIC,3140,-37.7473221,145.3638,3,1,2,House,House,False,411,m2,False
2017344674,listing,/87-89-bastow-road-lilydale-vic-3140-2017344674,1085000,is-sold,Sold by private treaty 27 Oct 2021,20211027,87-89 Bastow Road,LILYDALE,VIC,3140,-37.7597122,145.366348,5,2,2,House,House,False,921,m2,False
2017351633,listing,/25-haricot-way-lilydale-vic-3140-2017351633,1045000,is-sold,Sold by private treaty 29 Oct 2021,20211029,25 Haricot Way,LILYDALE,VIC,3140,-37.7400475,145.339966,4,2,2,House,House,False,718,m2,False
2017368665,listing,/1-19-maroondah-highway-lilydale-vic-3140-2017368665,700000,is-sold,Sold by private treaty 03 Nov 2021,20211103,1/19 Maroondah Highway,LILYDALE,VIC,3140,-37.75636,145.347519,3,2,2,Townhouse,Townhouse,False,0,m2,False
2017378092,listing,/16-slevin-street-lilydale-vic-3140-2017378092,1008800,is-sold,Sold by private treaty 26 Oct 2021,20211026,16 Slevin Street,LILYDALE,VIC,3140,-37.753006,145.341614,3,1,-,House,House,False,0,m2,False
2017553717,listing,/23-bellbird-drive-lilydale-vic-3140-2017553717,2300000,is-sold,Sold by private treaty 23 Oct 2021,20211023,23 Bellbird Drive,LILYDALE,VIC,3140,-37.7736549,145.358749,4,3,2,House,House,False,0,m2,False
2017000316,listing,/2-pisces-court-lilydale-vic-3140-2017000316,1045000,is-sold,Sold by private treaty 14 Oct 2021,20211014,2 Pisces Court,LILYDALE,VIC,3140,-37.7611961,145.3699,4,2,2,House,House,False,931,m2,False
2017164821,listing,/2-47-alexandra-road-lilydale-vic-3140-2017164821,415000,is-sold,Sold by private treaty 13 Oct 2021,20211013,2/47 Alexandra Road,LILYDALE,VIC,3140,-37.75697,145.3674,-,-,-,VacantLand,Vacant land,False,453,m2,False
2017172745,listing,/2-grand-view-grove-lilydale-vic-3140-2017172745,952000,is-sold,Sold by private treaty 19 Oct 2021,20211019,2 Grand View Grove,LILYDALE,VIC,3140,-37.7641335,145.371735,4,2,2,House,House,False,782,m2,False
2017219600,listing,/2-24-mccomb-street-lilydale-vic-3140-2017219600,425000,is-sold,Sold by private treaty 13 Oct 2021,20211013,2/24 McComb Street,LILYDALE,VIC,3140,-37.75113,145.3409,1,1,-,ApartmentUnitFlat,Apartment / Unit / Flat,False,0,m2,False
2017239869,listing,/11-brightwell-road-lilydale-vic-3140-2017239869,1060000,is-sold,Sold by private treaty 08 Oct 2021,20211008,11 Brightwell Road,LILYDALE,VIC,3140,-37.7691727,145.369278,4,3,6,House,House,False,1011,m2,False
2017242410,listing,/2-meadowvale-court-lilydale-vic-3140-2017242410,900000,is-sold,Sold by private treaty 11 Oct 2021,20211011,2 Meadowvale Court,LILYDALE,VIC,3140,-37.77423,145.349487,3,2,2,House,House,False,502,m2,False
2017256737,listing,/4-allenby-road-lilydale-vic-3140-2017256737,2000000,is-sold,Sold prior to auction 11 Oct 2021,20211011,4 Allenby Road,LILYDALE,VIC,3140,-37.7787437,145.354065,4,2,3,House,House,False,4169,m2,False
2017258020,listing,/25-old-gippsland-road-lilydale-vic-3140-2017258020,746000,is-sold,Sold by private treaty 15 Oct 2021,20211015,25 Old Gippsland Road,LILYDALE,VIC,3140,-37.7623138,145.36087,4,2,2,House,House,False,0,m2,False
2017281843,listing,/4-vance-street-lilydale-vic-3140-2017281843,760000,is-sold,Sold by private treaty 12 Oct 2021,20211012,4 Vance Street,LILYDALE,VIC,3140,-37.75522,145.367188,3,1,2,House,House,False,0,m2,False
2017287079,listing,/53-bellbird-drive-lilydale-vic-3140-2017287079,1960000,is-sold,Sold by private treaty 12 Oct 2021,20211012,53 Bellbird Drive,LILYDALE,VIC,3140,-37.7698135,145.3576,4,3,4,House,House,False,2222,m2,False
2017287206,listing,/55-beresford-road-lilydale-vic-3140-2017287206,695000,is-sold,Sold by private treaty 19 Oct 2021,20211019,55 Beresford Road,LILYDALE,VIC,3140,-37.75018,145.34288,3,1,2,House,House,False,433,m2,False
2017289827,listing,/2-panorama-rise-lilydale-vic-3140-2017289827,811500,is-sold,Sold by private treaty 18 Oct 2021,20211018,2 Panorama Rise,LILYDALE,VIC,3140,-37.75759,145.370575,4,2,2,House,House,False,0,m2,False
2017290013,listing,/10-37-39-maroondah-highway-lilydale-vic-3140-2017290013,670000,is-sold,Sold by private treaty 07 Oct 2021,20211007,10/37-39 Maroondah Highway,LILYDALE,VIC,3140,-37.75809,145.339417,3,1,2,ApartmentUnitFlat,Apartment / Unit / Flat,False,0,m2,False
2017290119,listing,/58a-castella-street-lilydale-vic-3140-2017290119,685000,is-sold,Sold by private treaty 08 Oct 2021,20211008,58A Castella Street,LILYDALE,VIC,3140,-37.75445,145.354767,2,1,1,House,House,False,0,m2,False
2017292474,listing,/32-trafalgar-crescent-lilydale-vic-3140-2017292474,751500,is-sold,Sold by private treaty 13 Oct 2021,20211013,32 Trafalgar Crescent,LILYDALE,VIC,3140,-37.74524,145.364151,3,1,3,House,House,False,922,m2,False
2017302467,listing,/589-hull-road-lilydale-vic-3140-2017302467,2040000,is-sold,Sold by private treaty 14 Oct 2021,20211014,589 Hull Road,LILYDALE,VIC,3140,-37.77732,145.355957,5,3,4,House,House,False,2680,m2,False
2017302480,listing,/591-hull-road-lilydale-vic-3140-2017302480,1143000,is-sold,Sold by private treaty 12 Oct 2021,20211012,591 Hull Road,LILYDALE,VIC,3140,-37.7774925,145.356476,6,3,2,House,House,False,1734,m2,False
2017303692,listing,/13-marana-close-lilydale-vic-3140-2017303692,850000,is-sold,Sold by private treaty 15 Oct 2021,20211015,13 Marana Close,LILYDALE,VIC,3140,-37.75508,145.368317,3,1,2,House,House,False,859,m2,False
2017324320,listing,/8-eucalypt-drive-lilydale-vic-3140-2017324320,1057500,is-sold,Sold by private treaty 20 Oct 2021,20211020,8 Eucalypt Drive,LILYDALE,VIC,3140,-37.77475,145.3434,3,2,4,House,House,False,807,m2,False
2017327720,listing,/5-19-maroondah-highway-lilydale-vic-3140-2017327720,705000,is-sold,Sold by private treaty 20 Oct 2021,20211020,5/19 Maroondah Highway,LILYDALE,VIC,3140,-37.74516,145.373367,3,2,2,Townhouse,Townhouse,False,0,m2,False
2016835500,listing,/2-11-blair-street-lilydale-vic-3140-2016835500,568000,is-sold,Sold by private treaty 06 Oct 2021,20211006,2/11 Blair Street,LILYDALE,VIC,3140,-37.7511635,145.338486,2,2,1,Townhouse,Townhouse,False,0,m2,False
2017076227,listing,/4-9-north-road-lilydale-vic-3140-2017076227,531000,is-sold,Sold by private treaty 23 Sep 2021,20210923,4/9 North Road,LILYDALE,VIC,3140,-37.7558327,145.363373,2,1,1,ApartmentUnitFlat,Apartment / Unit / Flat,False,0,m2,False
2017091954,listing,/2-karabec-place-lilydale-vic-3140-2017091954,925000,is-sold,Sold by private treaty 24 Sep 2021,20210924,2 Karabec Place,LILYDALE,VIC,3140,-37.7702866,145.364883,4,2,2,House,House,False,652,m2,False
2017172977,listing,/10-meadowvale-court-lilydale-vic-3140-2017172977,1261999,is-sold,Sold by private treaty 28 Sep 2021,20210928,10 Meadowvale Court,LILYDALE,VIC,3140,-37.7744141,145.350342,3,2,2,House,House,False,801,m2,False
2017189060,listing,/10-badger-court-lilydale-vic-3140-2017189060,992500,is-sold,Sold by private treaty 20 Sep 2021,20210920,10 Badger Court,LILYDALE,VIC,3140,-37.74426,145.36264,4,2,2,House,House,False,989,m2,False
2017236306,listing,/5-belle-vue-lilydale-vic-3140-2017236306,670000,is-sold,Sold by private treaty 29 Sep 2021,20210929,5 Belle Vue,LILYDALE,VIC,3140,-37.7577858,145.359146,-,-,-,VacantLand,Vacant land,False,1182,m2,False
