id,listingType,url,price,tagClassName,tagText,date,street,suburb,state,postcode,lat,lng,beds,baths,parking,propertyType,propertyTypeFormatted,isRural,landSize,landUnit,isRetirement
2018321931,listing,/4-hughes-crescent-dandenong-north-vic-3175-2018321931,,is-sold,Sold at auction 27 Feb 2023,20230227,4 Hughes Crescent,DANDENONG NORTH,VIC,3175,-37.9683151,145.206009,3,3,3,House,House,False,759,m2,False
2018325939,listing,/3-wondalga-avenue-dandenong-north-vic-3175-2018325939,,is-sold,Sold at auction 28 Feb 2023,20230228,3 Wondalga Avenue,DANDENONG NORTH,VIC,3175,-37.95999,145.2182,3,3,3,House,House,False,534,m2,False
2018090225,listing,/10-efron-street-dandenong-north-vic-3175-2018090225,,is-sold,Sold by private treaty 28 Feb 2023,20230228,10 Efron Street,DANDENONG NORTH,VIC,3175,-37.96209,145.208115,3,3,3,House,House,False,0,m2,False
2018299257,listing,/17-worrell-street-dandenong-north-vic-3175-2018299257,720000,is-sold,Sold by private treaty 03 Mar 2023,20230303,17 Worrell Street,DANDENONG NORTH,VIC,3175,-37.9663,145.223221,3,3,3,House,House,False,540,m2,False
2018361341,listing,/7-64-66-stud-road-dandenong-vic-3175-2018361341,400000,is-sold,Sold by private treaty 06 Mar 2023,20230306,7/64-66 Stud Road,DANDENONG,VIC,3175,-37.97903,145.222275,2,1,1,ApartmentUnitFlat,Apartment / Unit / Flat,False,0,m2,False
2018302966,listing,/2-32-david-street-dandenong-vic-3175-2018302966,525000,is-sold,Sold by private treaty 06 Mar 2023,20230306,2/32 David Street,DANDENONG,VIC,3175,-37.9764633,145.2091,3,1,1,Townhouse,Townhouse,False,0,m2,False
2017273334,listing,/10-9-king-street-dandenong-vic-3175-2017273334,,is-sold,Sold by private treaty 17 Feb 2023,20230217,10/9 King Street,DANDENONG,VIC,3175,-37.98279,145.216553,2,1,1,ApartmentUnitFlat,Apartment / Unit / Flat,False,0,m2,False
2017877714,listing,/3-22-ann-street-dandenong-vic-3175-2017877714,520000,is-sold,Sold by private treaty 22 Feb 2023,20230222,3/22 Ann Street,DANDENONG,VIC,3175,-37.9788666,145.2133,2,2,1,House,House,False,0,m2,False
2017971397,listing,/10-huckson-street-dandenong-vic-3175-2017971397,,is-sold,Sold by private treaty 17 Feb 2023,20230217,10 Huckson Street,DANDENONG,VIC,3175,-37.9921379,145.206924,3,2,2,Townhouse,Townhouse,False,0,m2,False
2018036296,listing,/45-keshava-grove-dandenong-vic-3175-2018036296,850000,is-sold,Sold by private treaty 20 Feb 2023,20230220,45 Keshava Grove,DANDENONG,VIC,3175,-38.0007439,145.197372,4,2,2,House,House,False,0,m2,False
2018157365,listing,/76-bellbrook-drive-dandenong-north-vic-3175-2018157365,865000,is-sold,Sold by private treaty 23 Feb 2023,20230223,76 Bellbrook Drive,DANDENONG NORTH,VIC,3175,-37.9523964,145.215942,4,2,2,House,House,False,670,m2,False
2018160276,listing,/14-sunset-grove-dandenong-vic-3175-2018160276,840000,is-sold,Sold by private treaty 22 Feb 2023,20230222,14 Sunset Grove,DANDENONG,VIC,3175,-37.99525,145.203522,4,2,1,House,House,False,754,m2,False
2018215351,listing,/4-4-6-louis-avenue-dandenong-vic-3175-2018215351,400000,is-sold,Sold by private treaty 24 Feb 2023,20230224,4/4-6 Louis Avenue,DANDENONG,VIC,3175,-37.972847,145.223785,2,1,1,ApartmentUnitFlat,Apartment / Unit / Flat,False,0,m2,False
2018286564,listing,/18-153-princes-highway-dandenong-vic-3175-2018286564,295000,is-sold,Sold by private treaty 17 Feb 2023,20230217,18/153 Princes Highway,DANDENONG,VIC,3175,-37.9762077,145.203674,2,1,1,ApartmentUnitFlat,Apartment / Unit / Flat,False,0,m2,False
2018290816,listing,/22-deakin-crescent-dandenong-north-vic-3175-2018290816,620000,is-sold,Sold at auction 18 Feb 2023,20230218,22 Deakin Crescent,DANDENONG NORTH,VIC,3175,-37.9651833,145.21283,3,2,5,House,House,False,568,m2,False
2018297505,listing,/3-10-hemmings-street-dandenong-vic-3175-2018297505,482000,is-sold,Sold by private treaty 24 Feb 2023,20230224,3/10 Hemmings Street,DANDENONG,VIC,3175,-37.98336,145.209961,3,1,1,Townhouse,Townhouse,False,0,m2,False
2018303419,listing,/30-grandview-avenue-dandenong-vic-3175-2018303419,680000,is-sold,Sold by private treaty 06 Mar 2023,20230306,30 Grandview Avenue,DANDENONG,VIC,3175,-37.98357,145.227585,3,1,2,House,House,False,596,m2,False
2018312825,listing,/9a-huckson-street-dandenong-vic-3175-2018312825,525000,is-sold,Sold by private treaty 17 Feb 2023,20230217,9A Huckson Street,DANDENONG,VIC,3175,-37.99212,145.206528,3,1,1,Townhouse,Townhouse,False,0,m2,False
2018327048,listing,/33-bakers-road-dandenong-north-vic-3175-2018327048,,is-sold,Sold at auction 25 Feb 2023,20230225,33 Bakers Road,DANDENONG NORTH,VIC,3175,-37.95273,145.196869,4,2,4,House,House,False,669,m2,False
2018340737,listing,/5a-yarra-court-dandenong-north-vic-3175-2018340737,800000,is-sold,Sold at auction 04 Mar 2023,20230304,5A Yarra Court,DANDENONG NORTH,VIC,3175,-37.94405,145.215683,6,4,2,Townhouse,Townhouse,False,503,m2,False
2018352830,listing,/1-36-canberra-avenue-dandenong-vic-3175-2018352830,505000,is-sold,Sold at auction 04 Mar 2023,20230304,1/36 Canberra Avenue,DANDENONG,VIC,3175,-37.9975471,145.207169,4,2,2,House,House,False,0,m2,False
2017236487,listing,/11-80-cheltenham-road-dandenong-vic-3175-2017236487,260000,is-sold,Sold by private treaty 10 Feb 2023,20230210,11/80 Cheltenham Road,DANDENONG,VIC,3175,-37.9900436,145.203629,1,1,1,ApartmentUnitFlat,Apartment / Unit / Flat,False,52,m2,False
2017236696,listing,/214-80-cheltenham-road-dandenong-vic-3175-2017236696,250000,is-sold,Sold by private treaty 06 Feb 2023,20230206,214/80 Cheltenham Road,DANDENONG,VIC,3175,-37.9900436,145.203629,1,1,,ApartmentUnitFlat,Apartment / Unit / Flat,False,0,m2,False
2018018810,listing,/3-36-bruce-street-dandenong-vic-3175-2018018810,390000,is-sold,Sold by private treaty 07 Feb 2023,20230207,3/36 Bruce Street,DANDENONG,VIC,3175,-37.9785957,145.219971,2,1,2,ApartmentUnitFlat,Apartment / Unit / Flat,False,0,m2,False
2018060156,listing,/45-king-george-parade-dandenong-vic-3175-2018060156,645000,is-sold,Sold by private treaty 06 Feb 2023,20230206,45 King George Parade,DANDENONG,VIC,3175,-37.976593,145.197678,3,2,1,House,House,False,599,m2,False
2018109513,listing,/22-3-5-hutton-street-dandenong-vic-3175-2018109513,340000,is-sold,Sold by private treaty 14 Feb 2023,20230214,22/3-5 Hutton Street,DANDENONG,VIC,3175,-37.98734,145.2102,2,2,1,ApartmentUnitFlat,Apartment / Unit / Flat,False,0,m2,False
2018119931,listing,/3-bess-court-dandenong-vic-3175-2018119931,600000,is-sold,Sold by private treaty 09 Feb 2023,20230209,3 Bess Court,DANDENONG,VIC,3175,-37.9823074,145.226974,3,1,2,House,House,False,394,m2,False
2018213172,listing,/3-5-rhoden-court-dandenong-north-vic-3175-2018213172,380000,is-sold,Sold by private treaty 03 Feb 2023,20230203,3/5 Rhoden Court,DANDENONG NORTH,VIC,3175,-37.95424,145.20929,2,1,1,ApartmentUnitFlat,Apartment / Unit / Flat,False,168,m2,False
2018219367,listing,/3-22-bruce-street-dandenong-vic-3175-2018219367,500000,is-sold,Sold by private treaty 10 Feb 2023,20230210,3/22 Bruce Street,DANDENONG,VIC,3175,-37.9786949,145.218567,2,1,2,ApartmentUnitFlat,Apartment / Unit / Flat,False,0,m2,False
2018221774,listing,/6-elms-court-dandenong-north-vic-3175-2018221774,703000,is-sold,Sold by private treaty 15 Feb 2023,20230215,6 Elms Court,DANDENONG NORTH,VIC,3175,-37.95886,145.222137,3,2,4,House,House,False,608,m2,False
2018228513,listing,/105-22-wilma-avenue-dandenong-vic-3175-2018228513,,is-sold,Sold by private treaty 17 Feb 2023,20230217,105/22 Wilma Avenue,DANDENONG,VIC,3175,-37.9817352,145.202835,1,1,1,ApartmentUnitFlat,Apartment / Unit / Flat,False,0,m2,False
2018248656,listing,/7-eton-court-dandenong-vic-3175-2018248656,,is-sold,Sold by private treaty 09 Feb 2023,20230209,7 Eton Court,DANDENONG,VIC,3175,-37.9793854,145.230423,3,1,2,House,House,False,820,m2,False
2018286488,listing,/6-philip-street-dandenong-north-vic-3175-2018286488,640000,is-sold,Sold by private treaty 10 Feb 2023,20230210,6 Philip Street,DANDENONG NORTH,VIC,3175,-37.9675941,145.214737,3,1,2,House,House,False,595,m2,False
2018288323,listing,/51-aberdeen-drive-dandenong-north-vic-3175-2018288323,905000,is-sold,Sold by private treaty 03 Feb 2023,20230203,51 Aberdeen Drive,DANDENONG NORTH,VIC,3175,-37.9539757,145.1996,7,4,2,House,House,False,579,m2,False
2018290245,listing,/1-mateo-close-dandenong-north-vic-3175-2018290245,870000,is-sold,Sold at auction 13 Feb 2023,20230213,1 Mateo Close,DANDENONG NORTH,VIC,3175,-37.9482841,145.217392,4,2,1,House,House,False,868,m2,False
2018290547,listing,/42-cheam-street-dandenong-north-vic-3175-2018290547,775000,is-sold,Sold at auction 14 Feb 2023,20230214,42 Cheam Street,DANDENONG NORTH,VIC,3175,-37.962204,145.21965,4,3,2,House,House,False,632,m2,False
2018301206,listing,/61-keneally-street-dandenong-vic-3175-2018301206,,is-sold,Sold by private treaty 09 Feb 2023,20230209,61 Keneally Street,DANDENONG,VIC,3175,-37.9927254,145.203918,2,1,1,ApartmentUnitFlat,Apartment / Unit / Flat,False,0,m2,False
2018301452,listing,/2-30-first-avenue-dandenong-north-vic-3175-2018301452,,is-sold,Sold at auction 11 Feb 2023,20230211,2/30 First Avenue,DANDENONG NORTH,VIC,3175,-37.9576035,145.210678,2,2,2,ApartmentUnitFlat,Apartment / Unit / Flat,False,0,m2,False
2018303340,listing,/68-kyla-avenue-dandenong-vic-3175-2018303340,832000,is-sold,Sold by private treaty 07 Feb 2023,20230207,68 Kyla Avenue,DANDENONG,VIC,3175,-38.00097,145.196457,3,2,2,House,House,False,0,m2,False
2018306775,listing,/15-5-7-potter-street-dandenong-vic-3175-2018306775,288000,is-sold,Sold by private treaty 08 Feb 2023,20230208,15/5-7 Potter Street,DANDENONG,VIC,3175,-37.98498,145.205322,2,1,1,ApartmentUnitFlat,Apartment / Unit / Flat,False,0,m2,False
2018331229,listing,/10-11-13-frederick-street-dandenong-vic-3175-2018331229,650000,is-sold,Sold by private treaty 15 Feb 2023,20230215,10/11-13 Frederick Street,DANDENONG,VIC,3175,-37.9985,145.215378,4,2,2,Townhouse,Townhouse,False,0,m2,False
2018010909,listing,/10-68-cheltenham-road-dandenong-vic-3175-2018010909,570000,is-sold,Sold by private treaty 20 Jan 2023,20230120,10/68 Cheltenham Road,DANDENONG,VIC,3175,-37.99042,145.20575,3,3,2,Townhouse,Townhouse,False,0,m2,False
2018023730,listing,/1-50-scott-street-dandenong-vic-3175-2018023730,,is-sold,Sold by private treaty 20 Jan 2023,20230120,1/50 Scott Street,DANDENONG,VIC,3175,-37.98595,145.209656,2,1,1,ApartmentUnitFlat,Apartment / Unit / Flat,False,0,m2,False
2018040287,listing,/3-10-nicole-avenue-dandenong-north-vic-3175-2018040287,645000,is-sold,Sold by private treaty 03 Feb 2023,20230203,3/10 Nicole Avenue,DANDENONG NORTH,VIC,3175,-37.9694672,145.2155,3,2,1,Townhouse,Townhouse,False,0,m2,False
2018113704,listing,/3-78-scott-street-dandenong-vic-3175-2018113704,524000,is-sold,Sold by private treaty 30 Jan 2023,20230130,3/78 Scott Street,DANDENONG,VIC,3175,-37.9852943,145.206573,2,1,1,ApartmentUnitFlat,Apartment / Unit / Flat,False,0,m2,False
2018122660,listing,/42a-stud-road-dandenong-vic-3175-2018122660,,is-sold,Sold by private treaty 28 Jan 2023,20230128,42A Stud Road,DANDENONG,VIC,3175,-37.9813881,145.221756,,,,VacantLand,Vacant land,False,596,m2,False
2018131044,listing,/5-8a-peter-court-dandenong-vic-3175-2018131044,545000,is-sold,Sold by private treaty 18 Jan 2023,20230118,5/8A Peter Court,DANDENONG,VIC,3175,-37.9720535,145.222092,3,2,2,Townhouse,Townhouse,False,0,m2,False
2018136469,listing,/230-gladstone-road-dandenong-north-vic-3175-2018136469,665000,is-sold,Sold by private treaty 20 Jan 2023,20230120,230 Gladstone Road,DANDENONG NORTH,VIC,3175,-37.9452133,145.209152,3,2,1,House,House,False,542,m2,False
2018165055,listing,/8-27-stud-road-dandenong-vic-3175-2018165055,383000,is-sold,Sold by private treaty 31 Jan 2023,20230131,8/27 Stud Road,DANDENONG,VIC,3175,-37.9824677,145.2204,2,1,1,ApartmentUnitFlat,Apartment / Unit / Flat,False,0,m2,False
2018173943,listing,/2-11-jeffrey-street-dandenong-north-vic-3175-2018173943,520000,is-sold,Sold by private treaty 26 Jan 2023,20230126,2/11 Jeffrey Street,DANDENONG NORTH,VIC,3175,-37.96813,145.216827,2,1,1,ApartmentUnitFlat,Apartment / Unit / Flat,False,0,m2,False
2018194454,listing,/1-landsby-lane-dandenong-vic-3175-2018194454,600000,is-sold,Sold by private treaty 31 Jan 2023,20230131,1 Landsby Lane,DANDENONG,VIC,3175,-37.9991951,145.197021,3,2,1,Terrace,Terrace,False,304,m2,False
2018229433,listing,/34-illawarra-crescent-dandenong-north-vic-3175-2018229433,700000,is-sold,Sold by private treaty 23 Jan 2023,20230123,34 Illawarra Crescent,DANDENONG NORTH,VIC,3175,-37.9552,145.202087,5,1,2,House,House,False,647,m2,False
2018241591,listing,/123-harwood-road-bangholme-vic-3175-2018241591,710000,is-sold,Sold by private treaty 30 Jan 2023,20230130,123 Harwood Road,BANGHOLME,VIC,3175,-38.05695,145.192139,4,2,4,House,House,False,4160,m2,False
2018265117,listing,/10-99-mccrae-street-dandenong-vic-3175-2018265117,265000,is-sold,Sold by private treaty 18 Jan 2023,20230118,10/99 Mccrae Street,DANDENONG,VIC,3175,-37.9920959,145.222137,2,1,1,ApartmentUnitFlat,Apartment / Unit / Flat,False,0,m2,False
2018268375,listing,/2-11-janet-street-dandenong-north-vic-3175-2018268375,525000,is-sold,Sold by private treaty 27 Jan 2023,20230127,2/11 Janet Street,DANDENONG NORTH,VIC,3175,-37.962368,145.20961,2,1,1,ApartmentUnitFlat,Apartment / Unit / Flat,False,337,m2,False
2018274423,listing,/180a-pillars-road-bangholme-vic-3175-2018274423,3000000,is-sold,Sold by private treaty 27 Jan 2023,20230127,180A Pillars Road,BANGHOLME,VIC,3175,-38.0321465,145.1523,,,,Rural,Rural,True,14,ha,False
2018274704,listing,/4b-koonalda-grove-dandenong-north-vic-3175-2018274704,711600,is-sold,Sold at auction 25 Jan 2023,20230125,4B Koonalda Grove,DANDENONG NORTH,VIC,3175,-37.96762,145.1999,3,2,2,Townhouse,Townhouse,False,0,m2,False
2018275928,listing,/127-brady-road-dandenong-north-vic-3175-2018275928,860000,is-sold,Sold by private treaty 02 Feb 2023,20230202,127 Brady Road,DANDENONG NORTH,VIC,3175,-37.95511,145.223633,3,1,6,House,House,False,658,m2,False
2018276882,listing,/7a-huckson-street-dandenong-vic-3175-2018276882,483000,is-sold,Sold by private treaty 20 Jan 2023,20230120,7A Huckson Street,DANDENONG,VIC,3175,-37.9922066,145.206482,2,1,2,Townhouse,Townhouse,False,0,m2,False
2018290388,listing,/7-42-princes-highway-dandenong-vic-3175-2018290388,196000,is-sold,Sold by private treaty 25 Jan 2023,20230125,7/42 Princes Highway,DANDENONG,VIC,3175,-37.982502,145.2126,1,1,1,ApartmentUnitFlat,Apartment / Unit / Flat,False,0,m2,False
2017696612,listing,/110-loch-road-dandenong-north-vic-3175-2017696612,690000,is-sold,Sold by private treaty 28 Dec 2022,20221228,110 Loch Road,DANDENONG NORTH,VIC,3175,-37.95581,145.216232,3,2,3,House,House,False,0,m2,False
2017790472,listing,/16-80-cheltenham-road-dandenong-vic-3175-2017790472,237000,is-sold,Sold by private treaty 06 Jan 2023,20230106,16/80 Cheltenham Road,DANDENONG,VIC,3175,-37.9900436,145.203629,1,1,1,ApartmentUnitFlat,Apartment / Unit / Flat,False,0,m2,False
2017917726,listing,/24-teal-court-dandenong-north-vic-3175-2017917726,,is-sold,Sold by private treaty 09 Jan 2023,20230109,24 Teal Court,DANDENONG NORTH,VIC,3175,-37.9618,145.22052,3,1,2,House,House,False,561,m2,False
2017919532,listing,/8-marion-street-dandenong-vic-3175-2017919532,440000,is-sold,Sold by private treaty 12 Jan 2023,20230112,8 Marion Street,DANDENONG,VIC,3175,-37.98376,145.202454,2,2,1,Townhouse,Townhouse,False,0,m2,False
2017936534,listing,/13-sherwood-crescent-dandenong-north-vic-3175-2017936534,965000,is-sold,Sold by private treaty 07 Jan 2023,20230107,13 Sherwood Crescent,DANDENONG NORTH,VIC,3175,-37.95332,145.2204,4,3,4,House,House,False,650,m2,False
2018072714,listing,/49-ross-street-dandenong-vic-3175-2018072714,632000,is-sold,Sold by private treaty 09 Jan 2023,20230109,49 Ross Street,DANDENONG,VIC,3175,-37.9786949,145.226547,4,2,1,House,House,False,599,m2,False
2018094911,listing,/13-nicole-avenue-dandenong-north-vic-3175-2018094911,376000,is-sold,Sold by private treaty 02 Jan 2023,20230102,13 Nicole Avenue,DANDENONG NORTH,VIC,3175,-37.9690056,145.215546,1,1,1,House,House,False,0,m2,False
2018100817,listing,/46-carlton-road-dandenong-north-vic-3175-2018100817,740000,is-sold,Sold by private treaty 18 Jan 2023,20230118,46 Carlton Road,DANDENONG NORTH,VIC,3175,-37.96016,145.212784,3,1,4,House,House,False,554,m2,False
2018150610,listing,/603-80-cheltenham-road-dandenong-vic-3175-2018150610,380000,is-sold,Sold by private treaty 09 Jan 2023,20230109,603/80 Cheltenham Road,DANDENONG,VIC,3175,-37.9900436,145.203629,2,2,1,ApartmentUnitFlat,Apartment / Unit / Flat,False,0,m2,False
2018171673,listing,/2-19-gretana-street-dandenong-vic-3175-2018171673,550000,is-sold,Sold by private treaty 17 Jan 2023,20230117,2/19 Gretana Street,DANDENONG,VIC,3175,-38.0006866,145.207779,3,1,2,ApartmentUnitFlat,Apartment / Unit / Flat,False,0,m2,False
2018177336,listing,/425-80-cheltenham-road-dandenong-vic-3175-2018177336,360000,is-sold,Sold by private treaty 30 Dec 2022,20221230,425/80 Cheltenham Road,DANDENONG,VIC,3175,-37.9900436,145.203629,2,2,1,ApartmentUnitFlat,Apartment / Unit / Flat,False,0,m2,False
2018197284,listing,/4-27-belfort-street-dandenong-vic-3175-2018197284,650000,is-sold,Sold by private treaty 03 Jan 2023,20230103,4/27 Belfort Street,DANDENONG,VIC,3175,-37.9792938,145.199249,3,1,2,ApartmentUnitFlat,Apartment / Unit / Flat,False,0,m2,False
2018199988,listing,/2a-steven-street-dandenong-vic-3175-2018199988,456000,is-sold,Sold by private treaty 09 Jan 2023,20230109,2A Steven Street,DANDENONG,VIC,3175,-37.99065,145.200989,2,1,1,ApartmentUnitFlat,Apartment / Unit / Flat,False,0,m2,False
2018215925,listing,/205-80-cheltenham-road-dandenong-vic-3175-2018215925,250000,is-sold,Sold by private treaty 16 Jan 2023,20230116,205/80 Cheltenham Road,DANDENONG,VIC,3175,-37.9900436,145.203629,1,1,,ApartmentUnitFlat,Apartment / Unit / Flat,False,0,m2,False
2018223919,listing,/63-benga-avenue-dandenong-vic-3175-2018223919,645000,is-sold,Sold by private treaty 23 Dec 2022,20221223,63 Benga Avenue,DANDENONG,VIC,3175,-37.97759,145.200958,4,1,1,House,House,False,602,m2,False
2018239719,listing,/236-80-cheltenham-road-dandenong-vic-3175-2018239719,250000,is-sold,Sold by private treaty 28 Dec 2022,20221228,236/80 Cheltenham Road,DANDENONG,VIC,3175,-37.9900436,145.203629,1,1,1,ApartmentUnitFlat,Apartment / Unit / Flat,False,0,m2,False
2018247643,listing,/13-birdwood-avenue-dandenong-vic-3175-2018247643,610000,is-sold,Sold by private treaty 16 Jan 2023,20230116,13 Birdwood Avenue,DANDENONG,VIC,3175,-37.9808731,145.20401,2,1,1,House,House,False,0,m2,False
2018254787,listing,/1-39-hammond-road-dandenong-vic-3175-2018254787,,is-sold,Sold by private treaty 13 Jan 2023,20230113,1/39 Hammond Road,DANDENONG,VIC,3175,-37.995163,145.209686,2,1,1,ApartmentUnitFlat,Apartment / Unit / Flat,False,0,m2,False
2018266038,listing,/412-80-cheltenham-road-dandenong-vic-3175-2018266038,258000,is-sold,Sold by private treaty 12 Jan 2023,20230112,412/80 Cheltenham Road,DANDENONG,VIC,3175,-37.9900436,145.203629,1,1,1,ApartmentUnitFlat,Apartment / Unit / Flat,False,50,m2,False
2018353837,listing,/2-23-burrows-avenue-dandenong-vic-3175-2018353837,615000,is-sold,Sold by private treaty 14 Jan 2023,20230114,2/23 Burrows Avenue,DANDENONG,VIC,3175,-37.9786873,145.2254,3,2,1,ApartmentUnitFlat,Apartment / Unit / Flat,False,245,m2,False
2018024849,listing,/17-3-5-hutton-street-dandenong-vic-3175-2018024849,295000,is-sold,Sold by private treaty 16 Dec 2022,20221216,17/3-5 Hutton Street,DANDENONG,VIC,3175,-37.98734,145.2102,2,2,1,ApartmentUnitFlat,Apartment / Unit / Flat,False,0,m2,False
2018127652,listing,/45-laemmle-street-dandenong-north-vic-3175-2018127652,580000,is-sold,Sold by private treaty 21 Dec 2022,20221221,45 Laemmle Street,DANDENONG NORTH,VIC,3175,-37.96066,145.201828,3,1,3,House,House,False,541,m2,False
2018131882,listing,/8-56-potter-street-dandenong-vic-3175-2018131882,280000,is-sold,Sold by private treaty 20 Dec 2022,20221220,8/56 Potter Street,DANDENONG,VIC,3175,-37.98025,145.206909,2,1,1,ApartmentUnitFlat,Apartment / Unit / Flat,False,0,m2,False
2018136837,listing,/24-stud-road-dandenong-vic-3175-2018136837,715000,is-sold,Sold by private treaty 14 Dec 2022,20221214,24 Stud Road,DANDENONG,VIC,3175,-37.9831467,145.221451,3,1,2,House,House,False,730,m2,False
2018139811,listing,/8-louis-avenue-dandenong-vic-3175-2018139811,930000,is-sold,Sold by private treaty 16 Dec 2022,20221216,8 Louis Avenue,DANDENONG,VIC,3175,-37.9727364,145.2239,3,2,2,House,House,False,1094,m2,False
2018146728,listing,/13-gibb-street-dandenong-north-vic-3175-2018146728,685000,is-sold,Sold by private treaty 22 Dec 2022,20221222,13 Gibb Street,DANDENONG NORTH,VIC,3175,-37.95862,145.21666,3,1,2,House,House,False,545,m2,False
2018157296,listing,/45-simpson-drive-dandenong-north-vic-3175-2018157296,775000,is-sold,Sold by private treaty 19 Dec 2022,20221219,45 Simpson Drive,DANDENONG NORTH,VIC,3175,-37.966,145.22081,3,2,4,House,House,False,535,m2,False
2018161702,listing,/1-56-hemmings-street-dandenong-vic-3175-2018161702,535000,is-sold,Sold by private treaty 14 Dec 2022,20221214,1/56 Hemmings Street,DANDENONG,VIC,3175,-37.98273,145.203979,3,2,1,ApartmentUnitFlat,Apartment / Unit / Flat,False,0,m2,False
2018165243,listing,/1449-1451-heatherton-road-dandenong-north-vic-3175-2018165243,750000,is-sold,Sold by private treaty 19 Dec 2022,20221219,1449-1451 Heatherton Road,DANDENONG NORTH,VIC,3175,-37.96927,145.210144,5,2,4,House,House,False,938,m2,False
2018193452,listing,/2-52-jones-road-dandenong-vic-3175-2018193452,,is-sold,Sold by private treaty 21 Dec 2022,20221221,2/52 Jones Road,DANDENONG,VIC,3175,-37.9789,145.201828,3,3,2,Townhouse,Townhouse,False,0,m2,False
2018203201,listing,/8-neasham-drive-dandenong-north-vic-3175-2018203201,680000,is-sold,Sold by private treaty 15 Dec 2022,20221215,8 Neasham Drive,DANDENONG NORTH,VIC,3175,-37.94306,145.199615,3,2,2,House,House,False,534,m2,False
2018203285,listing,/56-simpson-drive-dandenong-north-vic-3175-2018203285,705000,is-sold,Sold by private treaty 19 Dec 2022,20221219,56 Simpson Drive,DANDENONG NORTH,VIC,3175,-37.965847,145.220245,3,1,4,House,House,False,554,m2,False
2018204544,listing,/42-waratah-drive-dandenong-north-vic-3175-2018204544,600000,is-sold,Sold by private treaty 16 Dec 2022,20221216,42 Waratah Drive,DANDENONG NORTH,VIC,3175,-37.9587631,145.202255,3,1,2,House,House,False,525,m2,False
2018207227,listing,/18-downard-crescent-dandenong-north-vic-3175-2018207227,,is-sold,Sold by private treaty 22 Dec 2022,20221222,18 Downard Crescent,DANDENONG NORTH,VIC,3175,-37.9612923,145.211273,3,1,2,House,House,False,528,m2,False
2018216017,listing,/1-cooma-court-dandenong-vic-3175-2018216017,755000,is-sold,Sold by private treaty 19 Dec 2022,20221219,1 Cooma Court,DANDENONG,VIC,3175,-37.9787521,145.227585,3,1,1,House,House,False,530,m2,False
2018217323,listing,/25-exner-drive-dandenong-north-vic-3175-2018217323,750000,is-sold,Sold by private treaty 20 Dec 2022,20221220,25 Exner Drive,DANDENONG NORTH,VIC,3175,-37.9519043,145.211578,5,2,2,House,House,False,655,m2,False
2018229487,listing,/19-40-princes-highway-dandenong-vic-3175-2018229487,232000,is-sold,Sold by private treaty 22 Dec 2022,20221222,19/40 Princes Highway,DANDENONG,VIC,3175,-37.9826,145.2129,1,1,1,ApartmentUnitFlat,Apartment / Unit / Flat,False,0,m2,False
2018232968,listing,/2-74-james-street-dandenong-vic-3175-2018232968,440000,is-sold,Sold by private treaty 19 Dec 2022,20221219,2/74 James Street,DANDENONG,VIC,3175,-37.9724655,145.21022,2,1,1,ApartmentUnitFlat,Apartment / Unit / Flat,False,0,m2,False
2018235097,listing,/120-gladstone-road-dandenong-north-vic-3175-2018235097,639500,is-sold,Sold at auction 17 Dec 2022,20221217,120 Gladstone Road,DANDENONG NORTH,VIC,3175,-37.96235,145.205963,3,1,1,House,House,False,534,m2,False
2018243775,listing,/51-sylvia-street-dandenong-north-vic-3175-2018243775,686000,is-sold,Sold by private treaty 21 Dec 2022,20221221,51 Sylvia Street,DANDENONG NORTH,VIC,3175,-37.96195,145.211914,3,1,2,House,House,False,614,m2,False
2017741419,listing,/13-azalea-crescent-dandenong-north-vic-3175-2017741419,700000,is-sold,Sold by private treaty 09 Dec 2022,20221209,13 Azalea Crescent,DANDENONG NORTH,VIC,3175,-37.95862,145.2054,3,1,4,House,House,False,780,m2,False
2017840054,listing,/6-8-podmore-street-dandenong-vic-3175-2017840054,,is-sold,Sold by private treaty 02 Dec 2022,20221202,6-8 Podmore Street,DANDENONG,VIC,3175,-37.9975471,145.215012,2,1,1,ApartmentUnitFlat,Apartment / Unit / Flat,False,0,m2,False
2017918844,listing,/25-galloway-street-dandenong-north-vic-3175-2017918844,1150000,is-sold,Sold by private treaty 05 Dec 2022,20221205,25 Galloway Street,DANDENONG NORTH,VIC,3175,-37.95246,145.197845,5,2,1,House,House,False,535,m2,False
2017919535,listing,/10-marion-street-dandenong-vic-3175-2017919535,445000,is-sold,Sold by private treaty 12 Dec 2022,20221212,10 Marion Street,DANDENONG,VIC,3175,-37.9837761,145.202576,2,2,1,Townhouse,Townhouse,False,0,m2,False
2018062468,listing,/44-first-avenue-dandenong-north-vic-3175-2018062468,682000,is-sold,Sold by private treaty 02 Dec 2022,20221202,44 First Avenue,DANDENONG NORTH,VIC,3175,-37.95778,145.212433,3,1,1,House,House,False,540,m2,False
2018113437,listing,/19-wingham-street-dandenong-north-vic-3175-2018113437,890000,is-sold,Sold prior to auction 10 Dec 2022,20221210,19 Wingham Street,DANDENONG NORTH,VIC,3175,-37.944046,145.218689,4,2,2,House,House,False,674,m2,False
2018115435,listing,/12-waranga-street-dandenong-north-vic-3175-2018115435,660000,is-sold,Sold at auction 09 Dec 2022,20221209,12 Waranga Street,DANDENONG NORTH,VIC,3175,-37.942543,145.2119,3,2,1,House,House,False,649,m2,False
2018127618,listing,/4-103-mccrae-street-dandenong-vic-3175-2018127618,425000,is-sold,Sold by private treaty 14 Dec 2022,20221214,4/103 Mccrae Street,DANDENONG,VIC,3175,-37.99243,145.222443,3,1,1,ApartmentUnitFlat,Apartment / Unit / Flat,False,0,m2,False
2018134177,listing,/121-mcfees-road-dandenong-north-vic-3175-2018134177,685000,is-sold,Sold by private treaty 11 Dec 2022,20221211,121 Mcfees Road,DANDENONG NORTH,VIC,3175,-37.9647141,145.222626,3,2,2,House,House,False,536,m2,False
2018160800,listing,/13-47-stud-road-dandenong-vic-3175-2018160800,350000,is-sold,Sold by private treaty 08 Dec 2022,20221208,13/47 Stud Road,DANDENONG,VIC,3175,-37.9805679,145.2209,2,1,1,ApartmentUnitFlat,Apartment / Unit / Flat,False,0,m2,False
2018171849,listing,/40-oakwood-avenue-dandenong-north-vic-3175-2018171849,670000,is-sold,Sold by private treaty 14 Dec 2022,20221214,40 Oakwood Avenue,DANDENONG NORTH,VIC,3175,-37.96367,145.201218,3,1,3,House,House,False,578,m2,False
2018172592,listing,/51-power-street-dandenong-vic-3175-2018172592,750000,is-sold,Sold by private treaty 03 Dec 2022,20221203,51 Power Street,DANDENONG,VIC,3175,-37.9883652,145.226547,5,4,2,House,House,False,304,m2,False
2018174799,listing,/38-grandview-avenue-dandenong-vic-3175-2018174799,750000,is-sold,Sold by private treaty 05 Dec 2022,20221205,38 Grandview Avenue,DANDENONG,VIC,3175,-37.9836349,145.228317,4,2,5,House,House,False,585,m2,False
2018177587,listing,/20-purdy-avenue-dandenong-vic-3175-2018177587,770000,is-sold,Sold by private treaty 06 Dec 2022,20221206,20 Purdy Avenue,DANDENONG,VIC,3175,-37.9801979,145.20372,3,1,2,House,House,False,862,m2,False
2018181998,listing,/49-shalimar-crescent-dandenong-north-vic-3175-2018181998,595000,is-sold,Sold by private treaty 14 Dec 2022,20221214,49 Shalimar Crescent,DANDENONG NORTH,VIC,3175,-37.9568253,145.2146,3,1,2,House,House,False,0,m2,False
2018194798,listing,/10-116-princes-highway-dandenong-north-vic-3175-2018194798,290000,is-sold,Sold by private treaty 06 Dec 2022,20221206,10/116 Princes Highway,DANDENONG NORTH,VIC,3175,-37.97781,145.207352,2,1,1,ApartmentUnitFlat,Apartment / Unit / Flat,False,0,m2,False
2018197148,listing,/3-jacks-place-dandenong-vic-3175-2018197148,590000,is-sold,Sold by private treaty 06 Dec 2022,20221206,3 Jacks Place,DANDENONG,VIC,3175,-37.9721642,145.198074,3,2,2,Townhouse,Townhouse,False,0,m2,False
2018201147,listing,/1-2-8-third-avenue-dandenong-north-vic-3175-2018201147,,is-sold,Sold by private treaty 02 Dec 2022,20221202,1-2/8 Third Avenue,DANDENONG NORTH,VIC,3175,-37.95549,145.208847,4,2,2,BlockOfUnits,Block of Units,False,758,m2,False
2018201254,listing,/33-2-4-tarene-street-dandenong-vic-3175-2018201254,400150,is-sold,Sold by private treaty 05 Dec 2022,20221205,33/2-4 Tarene Street,DANDENONG,VIC,3175,-38.00116,145.206909,2,1,1,ApartmentUnitFlat,Apartment / Unit / Flat,False,0,m2,False
2018209114,listing,/220a-outlook-drive-dandenong-north-vic-3175-2018209114,831000,is-sold,Sold at auction 10 Dec 2022,20221210,220A Outlook Drive,DANDENONG NORTH,VIC,3175,-37.9404144,145.21106,3,2,2,House,House,False,0,m2,False
2017255306,listing,/1-87-keneally-street-dandenong-vic-3175-2017255306,380000,is-sold,Sold by private treaty 25 Nov 2022,20221125,1/87 Keneally Street,DANDENONG,VIC,3175,-37.99223,145.205246,2,1,2,ApartmentUnitFlat,Apartment / Unit / Flat,False,0,m2,False
2017609052,listing,/3-16-stud-road-dandenong-vic-3175-2017609052,275000,is-sold,Sold by private treaty 23 Nov 2022,20221123,3/16 Stud Road,DANDENONG,VIC,3175,-37.98419,145.221176,2,1,1,ApartmentUnitFlat,Apartment / Unit / Flat,False,0,m2,False
2017633327,listing,/26-benga-avenue-dandenong-vic-3175-2017633327,730000,is-sold,Sold by private treaty 22 Nov 2022,20221122,26 Benga Avenue,DANDENONG,VIC,3175,-37.9803543,145.199539,3,2,2,House,House,False,576,m2,False
2017934026,listing,/101-mcfees-road-dandenong-north-vic-3175-2017934026,690000,is-sold,Sold at auction 23 Nov 2022,20221123,101 McFees Road,DANDENONG NORTH,VIC,3175,-37.9645042,145.22081,3,1,2,House,House,False,551,m2,False
2018002382,listing,/61-jones-road-dandenong-vic-3175-2018002382,735000,is-sold,Sold by private treaty 24 Nov 2022,20221124,61 Jones Road,DANDENONG,VIC,3175,-37.978,145.201447,3,1,2,House,House,False,734,m2,False
2018092046,listing,/26-3-5-hutton-street-dandenong-vic-3175-2018092046,365000,is-sold,Sold by private treaty 25 Nov 2022,20221125,26/3-5 Hutton Street,DANDENONG,VIC,3175,-37.98734,145.2102,3,2,1,ApartmentUnitFlat,Apartment / Unit / Flat,False,0,m2,False
2018117972,listing,/1-29-frederick-street-dandenong-vic-3175-2018117972,390000,is-sold,Sold by private treaty 21 Nov 2022,20221121,1/29 Frederick Street,DANDENONG,VIC,3175,-37.9987,145.216965,2,1,1,ApartmentUnitFlat,Apartment / Unit / Flat,False,328,m2,False
2018127698,listing,/6-albert-street-dandenong-vic-3175-2018127698,672000,is-sold,Sold by private treaty 24 Nov 2022,20221124,6 Albert Street,DANDENONG,VIC,3175,-38.00001,145.2096,3,1,2,House,House,False,0,m2,False
2018151126,listing,/5-65-blaxland-drive-dandenong-north-vic-3175-2018151126,580000,is-sold,Sold by private treaty 25 Nov 2022,20221125,5/65 Blaxland Drive,DANDENONG NORTH,VIC,3175,-37.9416275,145.20195,2,1,1,Townhouse,Townhouse,False,0,m2,False
2018159553,listing,/17-68-cheltenham-road-dandenong-vic-3175-2018159553,600000,is-sold,Sold by private treaty 23 Nov 2022,20221123,17/68 Cheltenham Road,DANDENONG,VIC,3175,-37.99042,145.20575,3,3,2,Townhouse,Townhouse,False,0,m2,False
2018159929,listing,/69-brady-road-dandenong-north-vic-3175-2018159929,730000,is-sold,Sold by private treaty 01 Dec 2022,20221201,69 Brady Road,DANDENONG NORTH,VIC,3175,-37.95411,145.2152,3,1,4,House,House,False,654,m2,False
2018164741,listing,/53-loch-road-dandenong-north-vic-3175-2018164741,668000,is-sold,Sold at auction 28 Nov 2022,20221128,53 Loch Road,DANDENONG NORTH,VIC,3175,-37.9598122,145.222855,3,1,4,House,House,False,542,m2,False
2018173565,listing,/2-53-james-street-dandenong-vic-3175-2018173565,357000,is-sold,Sold by private treaty 27 Nov 2022,20221127,2/53 James Street,DANDENONG,VIC,3175,-37.9723854,145.2111,2,1,1,ApartmentUnitFlat,Apartment / Unit / Flat,False,161,m2,False
2018174275,listing,/5-3-aratula-street-dandenong-vic-3175-2018174275,550000,is-sold,Sold prior to auction 23 Nov 2022,20221123,5/3 Aratula Street,DANDENONG,VIC,3175,-37.9845467,145.224152,3,2,2,Townhouse,Townhouse,False,144,m2,False
2018177850,listing,/27-114-princes-highway-dandenong-vic-3175-2018177850,270000,is-sold,Sold by private treaty 22 Nov 2022,20221122,27/114 Princes Highway,DANDENONG,VIC,3175,-37.97778,145.207687,2,1,1,ApartmentUnitFlat,Apartment / Unit / Flat,False,2199,m2,False
2018188376,listing,/4-grandview-avenue-dandenong-vic-3175-2018188376,710000,is-sold,Sold at auction 30 Nov 2022,20221130,4 Grandview Avenue,DANDENONG,VIC,3175,-37.98312,145.223877,3,1,4,House,House,False,704,m2,False
2018190515,listing,/1-18-sylvia-street-dandenong-north-vic-3175-2018190515,572000,is-sold,Sold by private treaty 30 Nov 2022,20221130,1/18 Sylvia Street,DANDENONG NORTH,VIC,3175,-37.961956,145.208817,3,1,1,ApartmentUnitFlat,Apartment / Unit / Flat,False,279,m2,False
2018191923,listing,/102-80-cheltenham-road-dandenong-vic-3175-2018191923,335000,is-sold,Sold by private treaty 25 Nov 2022,20221125,102/80 Cheltenham Road,DANDENONG,VIC,3175,-37.9900436,145.203629,2,1,1,ApartmentUnitFlat,Apartment / Unit / Flat,False,0,m2,False
2018198142,listing,/7-104-railway-parade-dandenong-vic-3175-2018198142,430000,is-sold,Sold by private treaty 24 Nov 2022,20221124,7/104 Railway Parade,DANDENONG,VIC,3175,-37.9809036,145.1977,2,1,1,ApartmentUnitFlat,Apartment / Unit / Flat,False,161,m2,False
2018202726,listing,/66-first-avenue-dandenong-north-vic-3175-2018202726,880000,is-sold,Sold by private treaty 28 Nov 2022,20221128,66 First Avenue,DANDENONG NORTH,VIC,3175,-37.9579849,145.2144,4,2,1,House,House,False,0,m2,False
2017074895,listing,/21-close-avenue-dandenong-vic-3175-2017074895,2100000,is-sold,Sold by private treaty 10 Nov 2022,20221110,21 Close Avenue,DANDENONG,VIC,3175,-37.98269,145.208878,16,8,8,BlockOfUnits,Block of Units,False,0,m2,False
2017698784,listing,/5-36-ann-street-dandenong-vic-3175-2017698784,365000,is-sold,Sold by private treaty 11 Nov 2022,20221111,5/36 Ann Street,DANDENONG,VIC,3175,-37.9790764,145.21489,2,2,1,ApartmentUnitFlat,Apartment / Unit / Flat,False,0,m2,False
2017831347,listing,/6-12-new-street-dandenong-vic-3175-2017831347,329000,is-sold,Sold by private treaty 07 Nov 2022,20221107,6/12 New Street,DANDENONG,VIC,3175,-37.98921,145.21994,2,1,1,ApartmentUnitFlat,Apartment / Unit / Flat,False,0,m2,False
2017840624,listing,/3-247-gladstone-road-dandenong-north-vic-3175-2017840624,395000,is-sold,Sold by private treaty 09 Nov 2022,20221109,3/247 Gladstone Road,DANDENONG NORTH,VIC,3175,-37.95477,145.208038,2,1,2,ApartmentUnitFlat,Apartment / Unit / Flat,False,0,m2,False
2017850667,listing,/710-157-lonsdale-street-dandenong-vic-3175-2017850667,261000,is-sold,Sold by private treaty 16 Nov 2022,20221116,710/157 Lonsdale Street,DANDENONG,VIC,3175,-37.99044,145.214279,1,1,1,ApartmentUnitFlat,Apartment / Unit / Flat,False,0,m2,False
2017891595,listing,/8-coolidge-court-dandenong-north-vic-3175-2017891595,706000,is-sold,Sold by private treaty 12 Nov 2022,20221112,8 Coolidge Court,DANDENONG NORTH,VIC,3175,-37.940258,145.20842,3,2,2,House,House,False,0,m2,False
2017899882,listing,/20-153-princes-highway-dandenong-vic-3175-2017899882,237500,is-sold,Sold by private treaty 14 Nov 2022,20221114,20/153 Princes Highway,DANDENONG,VIC,3175,-37.9762077,145.203674,1,1,1,ApartmentUnitFlat,Apartment / Unit / Flat,False,0,m2,False
2017955873,listing,/230-80-cheltenham-road-dandenong-vic-3175-2017955873,327500,is-sold,Sold by private treaty 14 Nov 2022,20221114,230/80 Cheltenham Road,DANDENONG,VIC,3175,-37.9900436,145.203629,2,1,1,ApartmentUnitFlat,Apartment / Unit / Flat,False,0,m2,False
2017991413,listing,/40-burchall-grove-dandenong-north-vic-3175-2017991413,895000,is-sold,Sold by private treaty 21 Nov 2022,20221121,40 Burchall Grove,DANDENONG NORTH,VIC,3175,-37.93929,145.208679,5,3,2,House,House,False,587,m2,False
2017998077,listing,/7-44-46-potter-street-dandenong-vic-3175-2017998077,295000,is-sold,Sold by private treaty 15 Nov 2022,20221115,7/44-46 Potter Street,DANDENONG,VIC,3175,-37.981205,145.206528,2,1,1,ApartmentUnitFlat,Apartment / Unit / Flat,False,0,m2,False
2018019519,listing,/6-2-podmore-street-dandenong-vic-3175-2018019519,436000,is-sold,Sold by private treaty 07 Nov 2022,20221107,6/2 Podmore Street,DANDENONG,VIC,3175,-37.997467,145.214615,2,1,1,ApartmentUnitFlat,Apartment / Unit / Flat,False,0,m2,False
2018046390,listing,/102-james-street-dandenong-vic-3175-2018046390,685000,is-sold,Sold by private treaty 11 Nov 2022,20221111,102 James Street,DANDENONG,VIC,3175,-37.9704056,145.210709,3,1,2,House,House,False,718,m2,False
2018061684,listing,/705-157-lonsdale-street-dandenong-vic-3175-2018061684,265000,is-sold,Sold by private treaty 14 Nov 2022,20221114,705/157 Lonsdale Street,DANDENONG,VIC,3175,-37.99044,145.214279,1,1,1,ApartmentUnitFlat,Apartment / Unit / Flat,False,0,m2,False
2018094600,listing,/16-46-princes-highway-dandenong-vic-3175-2018094600,245000,is-sold,Sold by private treaty 16 Nov 2022,20221116,16/46 Princes Highway,DANDENONG,VIC,3175,-37.9823341,145.212219,2,1,1,ApartmentUnitFlat,Apartment / Unit / Flat,False,0,m2,False
2018114427,listing,/10-seely-street-dandenong-vic-3175-2018114427,610000,is-sold,Sold by private treaty 14 Nov 2022,20221114,10 Seely Street,DANDENONG,VIC,3175,-37.9919243,145.203583,3,2,4,House,House,False,217,m2,False
2018144344,listing,/12-fair-crescent-dandenong-north-vic-3175-2018144344,670000,is-sold,Sold by private treaty 11 Nov 2022,20221111,12 Fair Crescent,DANDENONG NORTH,VIC,3175,-37.9615364,145.22348,3,1,2,House,House,False,0,m2,False
2018156232,listing,/3-lyndale-court-dandenong-north-vic-3175-2018156232,665000,is-sold,Sold by private treaty 19 Nov 2022,20221119,3 Lyndale Court,DANDENONG NORTH,VIC,3175,-37.9542465,145.200439,3,1,2,House,House,False,529,m2,False
2018166031,listing,/10-bellbrook-drive-dandenong-north-vic-3175-2018166031,951250,is-sold,Sold by private treaty 17 Nov 2022,20221117,10 Bellbrook Drive,DANDENONG NORTH,VIC,3175,-37.94878,145.210754,4,2,6,House,House,False,828,m2,False
2018187671,listing,/11-cordova-court-dandenong-north-vic-3175-2018187671,780000,is-sold,Sold by private treaty 20 Nov 2022,20221120,11 Cordova Court,DANDENONG NORTH,VIC,3175,-37.945118,145.208267,4,2,2,House,House,False,574,m2,False
2018194417,listing,/2-15-close-avenue-dandenong-vic-3175-2018194417,310000,is-sold,Sold by private treaty 16 Nov 2022,20221116,2/15 Close Avenue,DANDENONG,VIC,3175,-37.98285,145.209412,2,1,1,ApartmentUnitFlat,Apartment / Unit / Flat,False,71,m2,False
2016394367,listing,/605-157-lonsdale-street-dandenong-vic-3175-2016394367,260000,is-sold,Sold by private treaty 26 Oct 2022,20221026,605/157 Lonsdale Street,DANDENONG,VIC,3175,-37.99044,145.214279,1,1,1,ApartmentUnitFlat,Apartment / Unit / Flat,False,0,m2,False
2017071495,listing,/3-21-wilma-avenue-dandenong-vic-3175-2017071495,725000,is-sold,Sold by private treaty 04 Nov 2022,20221104,3/21 Wilma Avenue,DANDENONG,VIC,3175,-37.9820175,145.202087,3,3,2,ApartmentUnitFlat,Apartment / Unit / Flat,False,0,m2,False
2017331898,listing,/225-80-cheltenham-road-dandenong-vic-3175-2017331898,350000,is-sold,Sold by private treaty 27 Oct 2022,20221027,225/80 Cheltenham Road,DANDENONG,VIC,3175,-37.9900436,145.203629,2,2,1,ApartmentUnitFlat,Apartment / Unit / Flat,False,72,m2,False
2017602573,listing,/605-157-lonsdale-street-dandenong-vic-3175-2017602573,268000,is-sold,Sold by private treaty 28 Oct 2022,20221028,605/157 Lonsdale Street,DANDENONG,VIC,3175,-37.99044,145.214279,1,1,1,ApartmentUnitFlat,Apartment / Unit / Flat,False,0,m2,False
2017626194,listing,/3-elms-court-dandenong-north-vic-3175-2017626194,700000,is-sold,Sold prior to auction 28 Oct 2022,20221028,3 Elms Court,DANDENONG NORTH,VIC,3175,-37.95884,145.221542,3,1,2,House,House,False,673,m2,False
2017639351,listing,/1-87-93-jones-street-dandenong-vic-3175-2017639351,341000,is-sold,Sold by private treaty 25 Oct 2022,20221025,1/87-93 Jones Street,DANDENONG,VIC,3175,-37.975563,145.202835,2,2,1,ApartmentUnitFlat,Apartment / Unit / Flat,False,0,m2,False
2017646657,listing,/20-3-market-street-dandenong-vic-3175-2017646657,250000,is-sold,Sold by private treaty 24 Oct 2022,20221024,20/3 Market Street,DANDENONG,VIC,3175,-37.98247,145.216171,1,1,1,ApartmentUnitFlat,Apartment / Unit / Flat,False,0,m2,False
2017962528,listing,/19-114-princes-highway-dandenong-vic-3175-2017962528,265000,is-sold,Sold by private treaty 04 Nov 2022,20221104,19/114 Princes Highway,DANDENONG,VIC,3175,-37.97778,145.207687,2,1,1,ApartmentUnitFlat,Apartment / Unit / Flat,False,0,m2,False
2017975556,listing,/7-84-clow-street-dandenong-vic-3175-2017975556,400000,is-sold,Sold by private treaty 27 Oct 2022,20221027,7/84 Clow Street,DANDENONG,VIC,3175,-37.98671,145.224365,2,1,1,House,House,False,0,m2,False
2017983769,listing,/11-55-clow-street-dandenong-vic-3175-2017983769,280000,is-sold,Sold by private treaty 07 Nov 2022,20221107,11/55 Clow Street,DANDENONG,VIC,3175,-37.98511,145.219376,2,1,1,ApartmentUnitFlat,Apartment / Unit / Flat,False,0,m2,False
2018012643,listing,/4-podmore-street-dandenong-vic-3175-2018012643,850000,is-sold,Sold by private treaty 02 Nov 2022,20221102,4 Podmore Street,DANDENONG,VIC,3175,-37.99754,145.214813,,,,VacantLand,Vacant land,False,980,m2,False
2018037493,listing,/3-tooronga-street-dandenong-north-vic-3175-2018037493,646000,is-sold,Sold by private treaty 03 Nov 2022,20221103,3 Tooronga Street,DANDENONG NORTH,VIC,3175,-37.9662437,145.218613,3,1,1,House,House,False,596,m2,False
2018061332,listing,/2-21-stud-road-dandenong-vic-3175-2018061332,450000,is-sold,Sold by private treaty 03 Nov 2022,20221103,2/21 Stud Road,DANDENONG,VIC,3175,-37.9829445,145.220566,2,1,2,ApartmentUnitFlat,Apartment / Unit / Flat,False,0,m2,False
2018072438,listing,/15-6-huckson-street-dandenong-vic-3175-2018072438,426000,is-sold,Sold by private treaty 07 Nov 2022,20221107,15/6 Huckson Street,DANDENONG,VIC,3175,-37.99222,145.207489,2,1,1,Townhouse,Townhouse,False,0,m2,False
2018109787,listing,/5-kiewa-court-dandenong-north-vic-3175-2018109787,782000,is-sold,Sold at auction 29 Oct 2022,20221029,5 Kiewa Court,DANDENONG NORTH,VIC,3175,-37.9412956,145.212265,4,2,2,House,House,False,697,m2,False
2018129547,listing,/27-3-5-hutton-street-dandenong-vic-3175-2018129547,376000,is-sold,Sold by private treaty 05 Nov 2022,20221105,27/3-5 Hutton Street,DANDENONG,VIC,3175,-37.98734,145.2102,2,2,1,ApartmentUnitFlat,Apartment / Unit / Flat,False,0,m2,False
2018136499,listing,/206-80-cheltenham-road-dandenong-vic-3175-2018136499,255000,is-sold,Sold by private treaty 31 Oct 2022,20221031,206/80 Cheltenham Road,DANDENONG,VIC,3175,-37.9900436,145.203629,1,1,,ApartmentUnitFlat,Apartment / Unit / Flat,False,0,m2,False
2018136972,listing,/22-power-street-dandenong-vic-3175-2018136972,802000,is-sold,Sold by private treaty 05 Nov 2022,20221105,22 Power Street,DANDENONG,VIC,3175,-37.9905853,145.223618,3,1,1,House,House,False,719,m2,False
2018139849,listing,/25-apex-street-dandenong-north-vic-3175-2018139849,665000,is-sold,Sold by private treaty 04 Nov 2022,20221104,25 Apex Street,DANDENONG NORTH,VIC,3175,-37.9574471,145.215454,3,1,1,House,House,False,535,m2,False
2018157323,listing,/12-64-66-scott-street-dandenong-vic-3175-2018157323,270000,is-sold,Sold by private treaty 05 Nov 2022,20221105,12/64-66 Scott Street,DANDENONG,VIC,3175,-37.9858475,145.208237,2,1,1,ApartmentUnitFlat,Apartment / Unit / Flat,False,0,m2,False
2016834327,listing,/dandenong-vic-3175-2016834327,490000,is-sold,Sold by private treaty 19 Oct 2022,20221019,,DANDENONG,VIC,3175,-38.0204163,145.22113,3,2,2,Townhouse,Townhouse,False,128,m2,False
2017676454,listing,/10-o-brien-street-dandenong-vic-3175-2017676454,1068000,is-sold,Sold by private treaty 10 Oct 2022,20221010,10 O'Brien Street,DANDENONG,VIC,3175,-37.99176,145.2048,4,2,2,House,House,False,0,m2,False
2017811735,listing,/614-157-lonsdale-street-dandenong-vic-3175-2017811735,261000,is-sold,Sold by private treaty 18 Oct 2022,20221018,614/157 Lonsdale Street,DANDENONG,VIC,3175,-37.99044,145.214279,1,1,1,ApartmentUnitFlat,Apartment / Unit / Flat,False,0,m2,False
2017844081,listing,/2-7-birdwood-avenue-dandenong-vic-3175-2017844081,695000,is-sold,Sold by private treaty 10 Oct 2022,20221010,2/7 Birdwood Avenue,DANDENONG,VIC,3175,-37.9808846,145.20459,3,2,3,ApartmentUnitFlat,Apartment / Unit / Flat,False,222,m2,False
2017920112,listing,/4-21-wilma-avenue-dandenong-vic-3175-2017920112,550000,is-sold,Sold by private treaty 18 Oct 2022,20221018,4/21 Wilma Avenue,DANDENONG,VIC,3175,-37.9820175,145.202087,2,2,2,House,House,False,150,m2,False
2017927233,listing,/1-27-simpson-drive-dandenong-north-vic-3175-2017927233,540000,is-sold,Sold by private treaty 21 Oct 2022,20221021,1/27 Simpson Drive,DANDENONG NORTH,VIC,3175,-37.9674072,145.220169,3,1,2,ApartmentUnitFlat,Apartment / Unit / Flat,False,251,m2,False
2017969018,listing,/8-brady-road-dandenong-north-vic-3175-2017969018,500000,is-sold,Sold by private treaty 11 Oct 2022,20221011,8 Brady Road,DANDENONG NORTH,VIC,3175,-37.9538651,145.209152,3,1,2,ApartmentUnitFlat,Apartment / Unit / Flat,False,365,m2,False
2017976875,listing,/2-1-grace-avenue-dandenong-vic-3175-2017976875,535000,is-sold,Sold by private treaty 10 Oct 2022,20221010,2/1 Grace Avenue,DANDENONG,VIC,3175,-37.9802856,145.222336,2,1,1,ApartmentUnitFlat,Apartment / Unit / Flat,False,0,m2,False
2017981800,listing,/11-jacks-place-dandenong-vic-3175-2017981800,570000,is-sold,Sold by private treaty 10 Oct 2022,20221010,11 Jacks Place,DANDENONG,VIC,3175,-37.9719353,145.198135,3,2,2,Townhouse,Townhouse,False,0,m2,False
2018002010,listing,/27-ray-street-dandenong-vic-3175-2018002010,870000,is-sold,Sold by private treaty 15 Oct 2022,20221015,27 Ray Street,DANDENONG,VIC,3175,-37.97326,145.196777,3,1,2,House,House,False,624,m2,False
2018020528,listing,/35-booth-crescent-dandenong-north-vic-3175-2018020528,630000,is-sold,Sold by private treaty 17 Oct 2022,20221017,35 Booth Crescent,DANDENONG NORTH,VIC,3175,-37.9607162,145.210327,3,1,3,House,House,False,577,m2,False
2018043290,listing,/2-57-hemmings-street-dandenong-vic-3175-2018043290,435000,is-sold,Sold by private treaty 10 Oct 2022,20221010,2/57 Hemmings Street,DANDENONG,VIC,3175,-37.9831276,145.204086,2,1,1,Townhouse,Townhouse,False,0,m2,False
2018047540,listing,/12-searle-court-dandenong-north-vic-3175-2018047540,700000,is-sold,Sold by private treaty 18 Oct 2022,20221018,12 Searle Court,DANDENONG NORTH,VIC,3175,-37.9533463,145.214981,3,2,2,House,House,False,654,m2,False
2018057737,listing,/43-loch-road-dandenong-north-vic-3175-2018057737,700000,is-sold,Sold by private treaty 20 Oct 2022,20221020,43 Loch Road,DANDENONG NORTH,VIC,3175,-37.9607124,145.222656,3,1,6,House,House,False,0,m2,False
2018068815,listing,/2a-oakwood-avenue-dandenong-north-vic-3175-2018068815,710000,is-sold,Sold by private treaty 12 Oct 2022,20221012,2A Oakwood Avenue,DANDENONG NORTH,VIC,3175,-37.9656868,145.20517,3,2,1,Townhouse,Townhouse,False,227,m2,False
2018075012,listing,/78-king-street-dandenong-vic-3175-2018075012,790000,is-sold,Sold by private treaty 17 Oct 2022,20221017,78 King Street,DANDENONG,VIC,3175,-37.98432,145.225388,3,1,2,House,House,False,729,m2,False
2018078763,listing,/15-gladesville-court-dandenong-north-vic-3175-2018078763,710000,is-sold,Sold by private treaty 21 Oct 2022,20221021,15 Gladesville Court,DANDENONG NORTH,VIC,3175,-37.9576874,145.20903,3,1,2,House,House,False,0,m2,False
2018095556,listing,/136-outlook-drive-dandenong-north-vic-3175-2018095556,820500,is-sold,Sold by private treaty 22 Oct 2022,20221022,136 Outlook Drive,DANDENONG NORTH,VIC,3175,-37.94517,145.218124,,,,House,House,False,690,m2,False
2018101071,listing,/2a-belmont-avenue-dandenong-north-vic-3175-2018101071,620000,is-sold,Sold at auction 17 Oct 2022,20221017,2A Belmont Avenue,DANDENONG NORTH,VIC,3175,-37.966,145.2025,3,2,2,ApartmentUnitFlat,Apartment / Unit / Flat,False,369,m2,False
2018108701,listing,/4-6-rhoden-court-dandenong-north-vic-3175-2018108701,430000,is-sold,Sold by private treaty 11 Oct 2022,20221011,4/6 Rhoden Court,DANDENONG NORTH,VIC,3175,-37.95424,145.209686,2,1,1,ApartmentUnitFlat,Apartment / Unit / Flat,False,0,m2,False
2017746282,listing,/34-waranga-street-dandenong-north-vic-3175-2017746282,710000,is-sold,Sold by private treaty 06 Oct 2022,20221006,34 Waranga Street,DANDENONG NORTH,VIC,3175,-37.9411354,145.2133,3,2,1,House,House,False,774,m2,False
2017752411,listing,/6-janet-street-dandenong-north-vic-3175-2017752411,,is-sold,Sold by private treaty 01 Oct 2022,20221001,6 Janet Street,DANDENONG NORTH,VIC,3175,-37.96268,145.2091,3,1,1,ApartmentUnitFlat,Apartment / Unit / Flat,False,0,m2,False
2017804166,listing,/6-3-hemmings-street-dandenong-vic-3175-2017804166,251500,is-sold,Sold by private treaty 09 Oct 2022,20221009,6/3 Hemmings Street,DANDENONG,VIC,3175,-37.9841576,145.210434,2,1,1,ApartmentUnitFlat,Apartment / Unit / Flat,False,0,m2,False
2017884028,listing,/14-barbara-avenue-dandenong-north-vic-3175-2017884028,570000,is-sold,Sold at auction 01 Oct 2022,20221001,14 Barbara Avenue,DANDENONG NORTH,VIC,3175,-37.9659424,145.196381,3,1,2,House,House,False,573,m2,False
2017961741,listing,/16-olive-street-dandenong-vic-3175-2017961741,980000,is-sold,Sold by private treaty 07 Oct 2022,20221007,16 Olive Street,DANDENONG,VIC,3175,-37.9803429,145.217575,3,1,2,House,House,False,851,m2,False
2017998639,listing,/34-herbert-street-dandenong-vic-3175-2017998639,850000,is-sold,Sold by private treaty 05 Oct 2022,20221005,34 Herbert Street,DANDENONG,VIC,3175,-37.9804955,145.21283,3,1,4,House,House,False,705,m2,False
2018006310,listing,/8-35-herbert-street-dandenong-vic-3175-2018006310,299999,is-sold,Sold by private treaty 06 Oct 2022,20221006,8/35 Herbert Street,DANDENONG,VIC,3175,-37.9799538,145.214111,2,1,1,ApartmentUnitFlat,Apartment / Unit / Flat,False,0,m2,False
2018009893,listing,/3-60-62-cleeland-street-dandenong-vic-3175-2018009893,270000,is-sold,Sold at auction 04 Oct 2022,20221004,3/60-62 Cleeland Street,DANDENONG,VIC,3175,-37.9815369,145.215439,2,1,1,ApartmentUnitFlat,Apartment / Unit / Flat,False,0,m2,False
2018015574,listing,/2-46-wedge-street-dandenong-vic-3175-2018015574,725000,is-sold,Sold by private treaty 01 Oct 2022,20221001,2/46 Wedge Street,DANDENONG,VIC,3175,-37.9917259,145.22583,4,3,2,Townhouse,Townhouse,False,0,m2,False
2018023999,listing,/113-gladstone-road-dandenong-north-vic-3175-2018023999,615000,is-sold,Sold by private treaty 07 Oct 2022,20221007,113 Gladstone Road,DANDENONG NORTH,VIC,3175,-37.9677124,145.205536,3,2,4,House,House,False,563,m2,False
2018040098,listing,/3-ural-court-dandenong-north-vic-3175-2018040098,735010,is-sold,Sold by private treaty 28 Sep 2022,20220928,3 Ural Court,DANDENONG NORTH,VIC,3175,-37.96071,145.224167,3,2,2,House,House,False,806,m2,False
2018040872,listing,/70-carlton-road-dandenong-north-vic-3175-2018040872,730000,is-sold,Sold by private treaty 30 Sep 2022,20220930,70 Carlton Road,DANDENONG NORTH,VIC,3175,-37.9604454,145.214935,3,2,2,House,House,False,557,m2,False
2018048784,listing,/1-13-burrows-avenue-dandenong-vic-3175-2018048784,565000,is-sold,Sold by private treaty 29 Sep 2022,20220929,1/13 Burrows Avenue,DANDENONG,VIC,3175,-37.9787636,145.224472,2,2,1,Townhouse,Townhouse,False,0,m2,False
2018069454,listing,/79-boyd-street-dandenong-north-vic-3175-2018069454,585000,is-sold,Sold by private treaty 07 Oct 2022,20221007,79 Boyd Street,DANDENONG NORTH,VIC,3175,-37.9645844,145.21434,3,1,1,House,House,False,557,m2,False
2018075646,listing,/2-10-olive-street-dandenong-vic-3175-2018075646,490000,is-sold,Sold by private treaty 06 Oct 2022,20221006,2/10 Olive Street,DANDENONG,VIC,3175,-37.9804153,145.217026,2,1,2,ApartmentUnitFlat,Apartment / Unit / Flat,False,0,m2,False
2018079236,listing,/85-hennessy-way-dandenong-north-vic-3175-2018079236,762000,is-sold,Sold at auction 08 Oct 2022,20221008,85 Hennessy Way,DANDENONG NORTH,VIC,3175,-37.9462738,145.202347,3,2,2,House,House,False,553,m2,False
2018080998,listing,/5-63-83-james-street-dandenong-vic-3175-2018080998,465000,is-sold,Sold by private treaty 02 Oct 2022,20221002,5/63-83 James Street,DANDENONG,VIC,3175,-37.97072,145.211243,2,1,2,ApartmentUnitFlat,Apartment / Unit / Flat,False,0,m2,False
2018091813,listing,/107-8-podmore-street-dandenong-vic-3175-2018091813,295000,is-sold,Sold by private treaty 06 Oct 2022,20221006,107/8 Podmore Street,DANDENONG,VIC,3175,-37.9975853,145.215149,1,1,1,ApartmentUnitFlat,Apartment / Unit / Flat,False,0,m2,False
2018229515,listing,/27-homestead-road-bangholme-vic-3175-2018229515,2200000,is-sold,Sold by private treaty 07 Oct 2022,20221007,27 Homestead road,BANGHOLME,VIC,3175,-38.04607,145.1633,4,2,2,AcreageSemiRural,Acreage / Semi-Rural,True,2.03,ha,False
2018239620,listing,/45-king-george-parade-dandenong-vic-3175-2018239620,675000,is-sold,Sold by private treaty 08 Oct 2022,20221008,45 King George Parade,DANDENONG,VIC,3175,-37.976593,145.197678,3,2,,House,House,False,599,m2,False
2017665673,listing,/3-tambo-court-dandenong-north-vic-3175-2017665673,1000000,is-sold,Sold by private treaty 25 Sep 2022,20220925,3 Tambo Court,DANDENONG NORTH,VIC,3175,-37.94317,145.210968,5,3,2,House,House,False,853,m2,False
2017669788,listing,/7-16-stud-road-dandenong-vic-3175-2017669788,245000,is-sold,Sold by private treaty 26 Sep 2022,20220926,7/16 Stud Road,DANDENONG,VIC,3175,-37.98419,145.221176,2,1,1,ApartmentUnitFlat,Apartment / Unit / Flat,False,0,m2,False
2017958036,listing,/64-everitt-street-dandenong-vic-3175-2017958036,425000,is-sold,Sold by private treaty 16 Sep 2022,20220916,64 Everitt Street,DANDENONG,VIC,3175,-37.9918976,145.201111,2,1,1,ApartmentUnitFlat,Apartment / Unit / Flat,False,0,m2,False
2017967242,listing,/1-16-edgewood-road-dandenong-vic-3175-2017967242,495000,is-sold,Sold by private treaty 26 Sep 2022,20220926,1/16 Edgewood Road,DANDENONG,VIC,3175,-37.97405,145.200287,2,1,1,BlockOfUnits,Block of Units,False,262,m2,False
2017977747,listing,/16-69-clow-street-dandenong-vic-3175-2017977747,420000,is-sold,Sold by private treaty 21 Sep 2022,20220921,16/69 Clow Street,DANDENONG,VIC,3175,-37.98534,145.221741,3,2,1,ApartmentUnitFlat,Apartment / Unit / Flat,False,0,m2,False
2017991742,listing,/2-60-cheltenham-road-dandenong-vic-3175-2017991742,640000,is-sold,Sold by private treaty 15 Sep 2022,20220915,2/60 Cheltenham Road,DANDENONG,VIC,3175,-37.99119,145.207062,3,3,2,ApartmentUnitFlat,Apartment / Unit / Flat,False,0,m2,False
2017994366,listing,/2-1-dalgety-street-dandenong-vic-3175-2017994366,525000,is-sold,Sold by private treaty 19 Sep 2022,20220919,2/1 Dalgety Street,DANDENONG,VIC,3175,-37.9948235,145.209351,3,1,2,ApartmentUnitFlat,Apartment / Unit / Flat,False,334,m2,False
2018017784,listing,/49-gerard-street-dandenong-vic-3175-2018017784,892500,is-sold,Sold at auction 21 Sep 2022,20220921,49 Gerard Street,DANDENONG,VIC,3175,-37.9729156,145.209717,3,2,2,House,House,False,625,m2,False
2018022251,listing,/1-22-mckeon-circuit-dandenong-north-vic-3175-2018022251,550000,is-sold,Sold by private treaty 26 Sep 2022,20220926,1/22 Mckeon Circuit,DANDENONG NORTH,VIC,3175,-37.9536438,145.217773,2,1,2,ApartmentUnitFlat,Apartment / Unit / Flat,False,0,m2,False
2018028296,listing,/1-17-norman-court-dandenong-vic-3175-2018028296,423000,is-sold,Sold by private treaty 17 Sep 2022,20220917,1/17 Norman Court,DANDENONG,VIC,3175,-38.0021,145.208847,2,1,1,ApartmentUnitFlat,Apartment / Unit / Flat,False,0,m2,False
2018035139,listing,/1-13-dunvegan-crescent-dandenong-vic-3175-2018035139,663300,is-sold,Sold by private treaty 19 Sep 2022,20220919,1/13 Dunvegan Crescent,DANDENONG,VIC,3175,-37.96919,145.202988,4,3,2,Townhouse,Townhouse,False,0,m2,False
2018043762,listing,/23-mclean-crescent-dandenong-north-vic-3175-2018043762,590000,is-sold,Sold by private treaty 22 Sep 2022,20220922,23 McLean Crescent,DANDENONG NORTH,VIC,3175,-37.966362,145.212128,2,1,1,House,House,False,555,m2,False
2018044978,listing,/22-sherwood-crescent-dandenong-north-vic-3175-2018044978,935000,is-sold,Sold by private treaty 14 Sep 2022,20220914,22 Sherwood Crescent,DANDENONG NORTH,VIC,3175,-37.9526367,145.220032,5,2,2,House,House,False,652,m2,False
2018048658,listing,/13-southbourne-avenue-dandenong-vic-3175-2018048658,825000,is-sold,Sold by private treaty 21 Sep 2022,20220921,13 Southbourne Avenue,DANDENONG,VIC,3175,-37.9955063,145.2066,4,1,1,House,House,False,708,m2,False
2018049592,listing,/1-12-burrows-avenue-dandenong-vic-3175-2018049592,480000,is-sold,Sold by private treaty 15 Sep 2022,20220915,1/12 Burrows Avenue,DANDENONG,VIC,3175,-37.9791,145.224243,3,2,3,ApartmentUnitFlat,Apartment / Unit / Flat,False,0,m2,False
2018050643,listing,/56-bellbrook-drive-dandenong-north-vic-3175-2018050643,750000,is-sold,Sold by private treaty 14 Sep 2022,20220914,56 Bellbrook Drive,DANDENONG NORTH,VIC,3175,-37.95138,145.214462,4,2,2,House,House,False,690,m2,False
2018053783,listing,/14-55-clow-street-dandenong-vic-3175-2018053783,277000,is-sold,Sold by private treaty 20 Sep 2022,20220920,14/55 Clow Street,DANDENONG,VIC,3175,-37.98511,145.219376,2,1,1,ApartmentUnitFlat,Apartment / Unit / Flat,False,0,m2,False
2018058240,listing,/65-35-david-street-dandenong-vic-3175-2018058240,595000,is-sold,Sold by private treaty 21 Sep 2022,20220921,65/35 David Street,DANDENONG,VIC,3175,-37.9750443,145.208557,3,2,1,House,House,False,0,m2,False
2018061126,listing,/5-57-clow-street-dandenong-vic-3175-2018061126,,is-sold,Sold by private treaty 26 Sep 2022,20220926,5/57 Clow Street,DANDENONG,VIC,3175,-37.98493,145.219681,2,1,1,ApartmentUnitFlat,Apartment / Unit / Flat,False,0,m2,False
2018065169,listing,/23-grace-avenue-dandenong-vic-3175-2018065169,715000,is-sold,Sold by private treaty 22 Sep 2022,20220922,23 Grace Avenue,DANDENONG,VIC,3175,-37.980648,145.224213,3,1,1,House,House,False,653,m2,False
2016939965,listing,/11-12-close-avenue-dandenong-vic-3175-2016939965,325000,is-sold,Sold by private treaty 06 Sep 2022,20220906,11/12 Close Avenue,DANDENONG,VIC,3175,-37.9820557,145.2094,2,1,1,ApartmentUnitFlat,Apartment / Unit / Flat,False,0,m2,False
2017885299,listing,/2-33-benga-avenue-dandenong-vic-3175-2017885299,425000,is-sold,Sold by private treaty 08 Sep 2022,20220908,2/33 Benga Avenue,DANDENONG,VIC,3175,-37.9799232,145.20047,2,1,1,ApartmentUnitFlat,Apartment / Unit / Flat,False,0,m2,False
2017896793,listing,/1-2-34-ferndale-crescent-dandenong-north-vic-3175-2017896793,747500,is-sold,Sold by private treaty 06 Sep 2022,20220906,1-2/34 Ferndale Crescent,DANDENONG NORTH,VIC,3175,-37.9578629,145.210846,4,2,3,BlockOfUnits,Block of Units,False,625,m2,False
2017938919,listing,/2-40-princes-highway-dandenong-vic-3175-2017938919,274000,is-sold,Sold by private treaty 06 Sep 2022,20220906,2/40 Princes Highway,DANDENONG,VIC,3175,-37.9826,145.2129,1,1,1,ApartmentUnitFlat,Apartment / Unit / Flat,False,0,m2,False
2017942687,listing,/2-7-third-avenue-dandenong-north-vic-3175-2017942687,464000,is-sold,Sold by private treaty 05 Sep 2022,20220905,2/7 Third Avenue,DANDENONG NORTH,VIC,3175,-37.9552,145.208847,3,1,1,House,House,False,380,m2,False
2017947350,listing,/3-22-close-avenue-dandenong-vic-3175-2017947350,495000,is-sold,Sold by private treaty 12 Sep 2022,20220912,3/22 Close Avenue,DANDENONG,VIC,3175,-37.98203,145.208466,2,1,1,Townhouse,Townhouse,False,0,m2,False
2017947359,listing,/1-1-grandview-avenue-dandenong-vic-3175-2017947359,549000,is-sold,Sold by private treaty 08 Sep 2022,20220908,1/1 Grandview Avenue,DANDENONG,VIC,3175,-37.9827881,145.223785,3,1,2,House,House,False,0,m2,False
2017949018,listing,/19-power-street-dandenong-vic-3175-2017949018,897000,is-sold,Sold by private treaty 12 Sep 2022,20220912,19 Power Street,DANDENONG,VIC,3175,-37.99039,145.222916,4,1,1,House,House,False,915,m2,False
2017956694,listing,/1-53-hemmings-street-dandenong-vic-3175-2017956694,450000,is-sold,Sold by private treaty 08 Sep 2022,20220908,1/53 Hemmings Street,DANDENONG,VIC,3175,-37.98317,145.204468,2,1,1,ApartmentUnitFlat,Apartment / Unit / Flat,False,0,m2,False
2017963628,listing,/37-rodina-terrace-dandenong-vic-3175-2017963628,850000,is-sold,Sold by private treaty 07 Sep 2022,20220907,37 Rodina Terrace,DANDENONG,VIC,3175,-38.0004234,145.199875,4,2,2,House,House,False,0,m2,False
2017972373,listing,/124-mcfees-road-dandenong-north-vic-3175-2017972373,650000,is-sold,Sold by private treaty 07 Sep 2022,20220907,124 Mcfees Road,DANDENONG NORTH,VIC,3175,-37.9647675,145.219208,3,1,2,House,House,False,550,m2,False
2017986282,listing,/28-stevenson-avenue-dandenong-north-vic-3175-2017986282,655000,is-sold,Sold by private treaty 06 Sep 2022,20220906,28 Stevenson Avenue,DANDENONG NORTH,VIC,3175,-37.9652977,145.19902,3,1,2,House,House,False,643,m2,False
2017989272,listing,/34-somerset-drive-dandenong-north-vic-3175-2017989272,945000,is-sold,Sold at auction 10 Sep 2022,20220910,34 Somerset Drive,DANDENONG NORTH,VIC,3175,-37.9510956,145.22435,3,2,2,House,House,False,662,m2,False
2018001600,listing,/3-1-rhoden-court-dandenong-north-vic-3175-2018001600,400000,is-sold,Sold by private treaty 08 Sep 2022,20220908,3/1 Rhoden Court,DANDENONG NORTH,VIC,3175,-37.954277,145.208282,2,1,1,ApartmentUnitFlat,Apartment / Unit / Flat,False,0,m2,False
2018003137,listing,/11-brott-court-dandenong-north-vic-3175-2018003137,710000,is-sold,Sold by private treaty 07 Sep 2022,20220907,11 Brott Court,DANDENONG NORTH,VIC,3175,-37.9556046,145.217133,3,2,2,House,House,False,550,m2,False
2018015344,listing,/13-taurus-avenue-dandenong-north-vic-3175-2018015344,675000,is-sold,Sold by private treaty 10 Sep 2022,20220910,13 Taurus Avenue,DANDENONG NORTH,VIC,3175,-37.957077,145.218475,3,1,2,House,House,False,596,m2,False
2018022962,listing,/3-17-burrows-avenue-dandenong-vic-3175-2018022962,505000,is-sold,Sold by private treaty 06 Sep 2022,20220906,3/17 Burrows Avenue,DANDENONG,VIC,3175,-37.9785652,145.22493,2,1,2,ApartmentUnitFlat,Apartment / Unit / Flat,False,0,m2,False
2018028747,listing,/2-clement-st-dandenong-vic-3175-2018028747,650000,is-sold,Sold prior to auction 07 Sep 2022,20220907,2 Clement St,DANDENONG,VIC,3175,-37.9852028,145.22258,3,1,2,House,House,False,410,m2,False
2018046734,listing,/4-38-stud-road-dandenong-vic-3175-2018046734,575000,is-sold,Sold by private treaty 09 Sep 2022,20220909,4/38 Stud Road,DANDENONG,VIC,3175,-37.98204,145.221832,3,1,2,Townhouse,Townhouse,False,0,m2,False
2018059607,listing,/301-80-cheltenham-road-dandenong-vic-3175-2018059607,265000,is-sold,Sold by private treaty 10 Sep 2022,20220910,301/80 Cheltenham Road,DANDENONG,VIC,3175,-37.9900436,145.203629,1,1,,ApartmentUnitFlat,Apartment / Unit / Flat,False,0,m2,False
2016732215,listing,/803-80-cheltenham-road-dandenong-vic-3175-2016732215,450000,is-sold,Sold by private treaty 30 Aug 2022,20220830,803/80 Cheltenham Road,DANDENONG,VIC,3175,-37.9900436,145.203629,2,2,2,ApartmentUnitFlat,Apartment / Unit / Flat,False,0,m2,False
2017591532,listing,/1-41-43-king-street-dandenong-vic-3175-2017591532,300000,is-sold,Sold by private treaty 26 Aug 2022,20220826,1/41-43 King Street,DANDENONG,VIC,3175,-37.98332,145.219971,2,1,1,ApartmentUnitFlat,Apartment / Unit / Flat,False,0,m2,False
2017692570,listing,/12-9-king-street-dandenong-vic-3175-2017692570,340000,is-sold,Sold by private treaty 02 Sep 2022,20220902,12/9 King Street,DANDENONG,VIC,3175,-37.98279,145.216553,2,1,1,ApartmentUnitFlat,Apartment / Unit / Flat,False,0,m2,False
2017742041,listing,/5-133-princes-highway-dandenong-vic-3175-2017742041,292000,is-sold,Sold by private treaty 23 Aug 2022,20220823,5/133 Princes Highway,DANDENONG,VIC,3175,-37.9784279,145.206055,1,1,1,ApartmentUnitFlat,Apartment / Unit / Flat,False,0,m2,False
2017805968,listing,/2-6-huckson-street-dandenong-vic-3175-2017805968,430000,is-sold,Sold by private treaty 01 Sep 2022,20220901,2/6 Huckson Street,DANDENONG,VIC,3175,-37.9922829,145.206848,2,1,1,Townhouse,Townhouse,False,0,m2,False
2017833608,listing,/8-3-5-edward-avenue-dandenong-vic-3175-2017833608,390000,is-sold,Sold by private treaty 24 Aug 2022,20220824,8/3-5 Edward Avenue,DANDENONG,VIC,3175,-37.9749,145.2112,2,1,1,ApartmentUnitFlat,Apartment / Unit / Flat,False,110,m2,False
2017869539,listing,/13-38a-king-george-parade-dandenong-vic-3175-2017869539,400000,is-sold,Sold by private treaty 29 Aug 2022,20220829,13/38a King George Parade,DANDENONG,VIC,3175,-37.9755325,145.199188,2,1,1,ApartmentUnitFlat,Apartment / Unit / Flat,False,0,m2,False
2017892792,listing,/3-21-wedge-street-dandenong-vic-3175-2017892792,513000,is-sold,Sold by private treaty 30 Aug 2022,20220830,3/21 Wedge Street,DANDENONG,VIC,3175,-37.9926872,145.222839,3,1,2,ApartmentUnitFlat,Apartment / Unit / Flat,False,0,m2,False
2017893044,listing,/1-esk-court-dandenong-vic-3175-2017893044,490000,is-sold,Sold by private treaty 24 Aug 2022,20220824,1 Esk Court,DANDENONG,VIC,3175,-37.9804878,145.227478,,,,VacantLand,Vacant land,False,655,m2,False
2017900406,listing,/18-rogers-street-dandenong-vic-3175-2017900406,900000,is-sold,Sold by private treaty 24 Aug 2022,20220824,18 Rogers Street,DANDENONG,VIC,3175,-37.9716759,145.2095,5,2,2,House,House,False,592,m2,False
2017905919,listing,/16-69-71-potter-street-dandenong-vic-3175-2017905919,500000,is-sold,Sold by private treaty 29 Aug 2022,20220829,16/69-71 Potter Street,DANDENONG,VIC,3175,-37.9795952,145.206375,2,2,1,Townhouse,Townhouse,False,0,m2,False
2017922794,listing,/4-galloway-street-dandenong-north-vic-3175-2017922794,690000,is-sold,Sold by private treaty 01 Sep 2022,20220901,4 Galloway Street,DANDENONG NORTH,VIC,3175,-37.9538269,145.198547,3,1,2,House,House,False,527,m2,False
2017950029,listing,/8-iena-street-dandenong-vic-3175-2017950029,650000,is-sold,Sold by private treaty 25 Aug 2022,20220825,8 Iena Street,DANDENONG,VIC,3175,-38.0017853,145.209335,3,1,,House,House,False,530,m2,False
2017963785,listing,/10-160-gladstone-road-dandenong-north-vic-3175-2017963785,622500,is-sold,Sold by private treaty 24 Aug 2022,20220824,10/160 Gladstone Road,DANDENONG NORTH,VIC,3175,-37.9595261,145.206528,3,2,2,ApartmentUnitFlat,Apartment / Unit / Flat,False,0,m2,False
2017976791,listing,/1-33-herbert-street-dandenong-vic-3175-2017976791,510000,is-sold,Sold by private treaty 26 Aug 2022,20220826,1/33 Herbert Street,DANDENONG,VIC,3175,-37.9805069,145.2137,2,1,2,ApartmentUnitFlat,Apartment / Unit / Flat,False,0,m2,False
2017978527,listing,/1-34-wilma-avenue-dandenong-vic-3175-2017978527,365000,is-sold,Sold by private treaty 24 Aug 2022,20220824,1/34 Wilma Avenue,DANDENONG,VIC,3175,-37.9799,145.202972,2,1,2,ApartmentUnitFlat,Apartment / Unit / Flat,False,0,m2,False
2017980802,listing,/1-3-easton-court-dandenong-north-vic-3175-2017980802,600000,is-sold,Sold by private treaty 31 Aug 2022,20220831,1/3 Easton Court,DANDENONG NORTH,VIC,3175,-37.94755,145.198227,3,2,1,Townhouse,Townhouse,False,0,m2,False
2017986883,listing,/102-clow-street-dandenong-vic-3175-2017986883,750000,is-sold,Sold by private treaty 03 Sep 2022,20220903,102 Clow Street,DANDENONG,VIC,3175,-37.98669,145.22818,6,2,4,House,House,False,559,m2,False
2018020809,listing,/45-edward-avenue-dandenong-vic-3175-2018020809,618000,is-sold,Sold by private treaty 30 Aug 2022,20220830,45 Edward Avenue,DANDENONG,VIC,3175,-37.97545,145.215073,3,1,2,House,House,False,589,m2,False
2018029710,listing,/5-kaye-court-dandenong-north-vic-3175-2018029710,800000,is-sold,Sold by private treaty 29 Aug 2022,20220829,5 Kaye Court,DANDENONG NORTH,VIC,3175,-37.9448357,145.21312,4,2,2,House,House,False,876,m2,False
2017652412,listing,/7-reid-court-dandenong-north-vic-3175-2017652412,648000,is-sold,Sold by private treaty 18 Aug 2022,20220818,7 Reid Court,DANDENONG NORTH,VIC,3175,-37.96872,145.210587,3,1,2,House,House,False,637,m2,False
2017753029,listing,/2-13-grant-street-dandenong-vic-3175-2017753029,505888,is-sold,Sold by private treaty 16 Aug 2022,20220816,2/13 Grant Street,DANDENONG,VIC,3175,-37.98484,145.225082,2,1,1,ApartmentUnitFlat,Apartment / Unit / Flat,False,0,m2,False
2017800920,listing,/52-surrey-road-dandenong-north-vic-3175-2017800920,860000,is-sold,Sold by private treaty 10 Aug 2022,20220810,52 Surrey Road,DANDENONG NORTH,VIC,3175,-37.950798,145.225082,3,2,2,House,House,False,676,m2,False
2017853397,listing,/1-128-outlook-drive-dandenong-north-vic-3175-2017853397,583500,is-sold,Sold by private treaty 10 Aug 2022,20220810,1/128 Outlook Drive,DANDENONG NORTH,VIC,3175,-37.9462,145.217026,2,1,3,BlockOfUnits,Block of Units,False,320,m2,False
2017881463,listing,/6-3-5-edward-avenue-dandenong-vic-3175-2017881463,380000,is-sold,Sold by private treaty 09 Aug 2022,20220809,6/3-5 Edward Avenue,DANDENONG,VIC,3175,-37.97504,145.211166,2,1,1,ApartmentUnitFlat,Apartment / Unit / Flat,False,0,m2,False
2017888727,listing,/107-22-wilma-avenue-dandenong-vic-3175-2017888727,310000,is-sold,Sold by private treaty 12 Aug 2022,20220812,107/22 Wilma Avenue,DANDENONG,VIC,3175,-37.9817429,145.202835,2,1,1,ApartmentUnitFlat,Apartment / Unit / Flat,False,0,m2,False
2017903060,listing,/2-37-sarona-street-dandenong-vic-3175-2017903060,426000,is-sold,Sold by private treaty 13 Aug 2022,20220813,2/37 Sarona Street,DANDENONG,VIC,3175,-37.98565,145.225739,2,1,2,ApartmentUnitFlat,Apartment / Unit / Flat,False,0,m2,False
2017907558,listing,/12-3-5-hutton-street-dandenong-vic-3175-2017907558,350000,is-sold,Sold by private treaty 20 Aug 2022,20220820,12/3-5 Hutton Street,DANDENONG,VIC,3175,-37.98734,145.2102,2,2,1,ApartmentUnitFlat,Apartment / Unit / Flat,False,0,m2,False
2017907801,listing,/89aa-hammond-road-dandenong-vic-3175-2017907801,550000,is-sold,Sold by private treaty 10 Aug 2022,20220810,89Aa Hammond Road,DANDENONG,VIC,3175,-37.99735,145.209061,2,2,1,Townhouse,Townhouse,False,0,m2,False
2017915118,listing,/2-11a-ross-street-dandenong-vic-3175-2017915118,555000,is-sold,Sold by private treaty 19 Aug 2022,20220819,2/11A Ross Street,DANDENONG,VIC,3175,-37.98199,145.225754,2,1,2,ApartmentUnitFlat,Apartment / Unit / Flat,False,404,m2,False
2017915521,listing,/15-lexton-avenue-dandenong-vic-3175-2017915521,671000,is-sold,Sold by private treaty 10 Aug 2022,20220810,15 Lexton Avenue,DANDENONG,VIC,3175,-37.977047,145.200027,3,2,2,House,House,False,600,m2,False
2017916345,listing,/1-nara-court-dandenong-north-vic-3175-2017916345,690000,is-sold,Sold by private treaty 14 Aug 2022,20220814,1 Nara Court,DANDENONG NORTH,VIC,3175,-37.9509468,145.202347,3,1,2,House,House,False,541,m2,False
2017929090,listing,/3-19-robert-street-dandenong-vic-3175-2017929090,705000,is-sold,Sold by private treaty 09 Aug 2022,20220809,3/19 Robert Street,DANDENONG,VIC,3175,-37.979805,145.220383,4,3,2,Townhouse,Townhouse,False,0,m2,False
2017934295,listing,/2-68-scott-street-dandenong-vic-3175-2017934295,435000,is-sold,Sold by private treaty 10 Aug 2022,20220810,2/68 Scott Street,DANDENONG,VIC,3175,-37.9855347,145.208054,2,1,1,ApartmentUnitFlat,Apartment / Unit / Flat,False,0,m2,False
2017944272,listing,/7-64-66-stud-road-dandenong-vic-3175-2017944272,400000,is-sold,Sold at auction 13 Aug 2022,20220813,7/64-66 Stud Road,DANDENONG,VIC,3175,-37.9790421,145.22226,2,1,1,ApartmentUnitFlat,Apartment / Unit / Flat,False,0,m2,False
2017948798,listing,/119-gladstone-road-dandenong-north-vic-3175-2017948798,570000,is-sold,Sold at auction 20 Aug 2022,20220820,119 Gladstone Road,DANDENONG NORTH,VIC,3175,-37.96693,145.2057,3,1,2,House,House,False,557,m2,False
2017956664,listing,/6-84-clow-street-dandenong-vic-3175-2017956664,410000,is-sold,Sold by private treaty 09 Aug 2022,20220809,6/84 Clow Street,DANDENONG,VIC,3175,-37.9866638,145.224564,2,1,1,ApartmentUnitFlat,Apartment / Unit / Flat,False,0,m2,False
2017957901,listing,/1-135-carlton-road-dandenong-north-vic-3175-2017957901,438000,is-sold,Sold at auction 19 Aug 2022,20220819,1/135 Carlton Road,DANDENONG NORTH,VIC,3175,-37.9607735,145.221222,2,1,1,ApartmentUnitFlat,Apartment / Unit / Flat,False,304,m2,False
2018013382,listing,/8-14-railway-parade-dandenong-vic-3175-2018013382,,is-sold,Sold by private treaty 12 Aug 2022,20220812,8-14 Railway Parade,DANDENONG,VIC,3175,-37.987484,145.206039,,,,VacantLand,Vacant land,False,0,m2,False
2018059315,listing,/2-57-dandenong-street-dandenong-vic-3175-2018059315,550000,is-sold,Sold by private treaty 15 Aug 2022,20220815,2/57 Dandenong Street,DANDENONG,VIC,3175,-37.9955635,145.199539,4,2,4,ApartmentUnitFlat,Apartment / Unit / Flat,False,322,m2,False
2017671347,listing,/10-47-stud-road-dandenong-vic-3175-2017671347,350000,is-sold,Sold by private treaty 03 Aug 2022,20220803,10/47 Stud Road,DANDENONG,VIC,3175,-37.98077,145.220718,2,1,1,ApartmentUnitFlat,Apartment / Unit / Flat,False,183,m2,False
2017701283,listing,/1-4-15-menzies-avenue-dandenong-north-vic-3175-2017701283,586888,is-sold,Sold by private treaty 03 Aug 2022,20220803,1- 4/15 Menzies Avenue,DANDENONG NORTH,VIC,3175,-37.96861,145.211655,2,1,1,Townhouse,Townhouse,False,0,m2,False
2017753039,listing,/20-downard-crescent-dandenong-north-vic-3175-2017753039,815000,is-sold,Sold by private treaty 28 Jul 2022,20220728,20 Downard Crescent,DANDENONG NORTH,VIC,3175,-37.96147,145.211273,5,2,2,House,House,False,653,m2,False
2017839171,listing,/15-fraser-street-dandenong-north-vic-3175-2017839171,662500,is-sold,Sold at auction 30 Jul 2022,20220730,15 Fraser Street,DANDENONG NORTH,VIC,3175,-37.966095,145.221191,3,2,4,House,House,False,769,m2,False
2017858642,listing,/78-menzies-avenue-dandenong-north-vic-3175-2017858642,850000,is-sold,Sold by private treaty 05 Aug 2022,20220805,78 Menzies Avenue,DANDENONG NORTH,VIC,3175,-37.9652519,145.208084,4,3,2,House,House,False,0,m2,False
2017872305,listing,/2-351-gladstone-road-dandenong-north-vic-3175-2017872305,660000,is-sold,Sold by private treaty 29 Jul 2022,20220729,2/351 Gladstone Road,DANDENONG NORTH,VIC,3175,-37.9419174,145.210632,3,2,2,ApartmentUnitFlat,Apartment / Unit / Flat,False,0,m2,False
2017881822,listing,/25-alex-scott-way-dandenong-vic-3175-2017881822,525000,is-sold,Sold by private treaty 01 Aug 2022,20220801,25 Alex Scott Way,DANDENONG,VIC,3175,-37.99249,145.206238,3,1,2,Townhouse,Townhouse,False,0,m2,False
2017886566,listing,/32-macpherson-street-dandenong-vic-3175-2017886566,975000,is-sold,Sold at auction 03 Aug 2022,20220803,32 MacPherson Street,DANDENONG,VIC,3175,-37.98874,145.224731,4,1,1,House,House,False,1026,m2,False
2017907091,listing,/210-80-cheltenham-road-dandenong-vic-3175-2017907091,240000,is-sold,Sold by private treaty 08 Aug 2022,20220808,210/80 Cheltenham Road,DANDENONG,VIC,3175,-37.9900436,145.203629,1,1,,House,House,False,0,m2,False
2017913486,listing,/2-14-anthony-street-dandenong-north-vic-3175-2017913486,570000,is-sold,Sold by private treaty 04 Aug 2022,20220804,2/14 Anthony Street,DANDENONG NORTH,VIC,3175,-37.9669724,145.213943,2,1,1,Townhouse,Townhouse,False,0,m2,False
2017915028,listing,/1-5-fox-street-dandenong-vic-3175-2017915028,429000,is-sold,Sold by private treaty 30 Jul 2022,20220730,1/5 Fox Street,DANDENONG,VIC,3175,-37.9936066,145.224091,2,1,1,ApartmentUnitFlat,Apartment / Unit / Flat,False,0,m2,False
2017928849,listing,/12-simpson-drive-dandenong-north-vic-3175-2017928849,685000,is-sold,Sold by private treaty 06 Aug 2022,20220806,12 Simpson Drive,DANDENONG NORTH,VIC,3175,-37.96939,145.219238,3,1,2,House,House,False,600,m2,False
2017929672,listing,/2-8-southdean-street-dandenong-vic-3175-2017929672,652000,is-sold,Sold by private treaty 03 Aug 2022,20220803,2/8 Southdean Street,DANDENONG,VIC,3175,-37.972744,145.212509,3,2,2,ApartmentUnitFlat,Apartment / Unit / Flat,False,275,m2,False
2017936353,listing,/5-4-fox-street-dandenong-vic-3175-2017936353,610000,is-sold,Sold at auction 06 Aug 2022,20220806,5/4 Fox Street,DANDENONG,VIC,3175,-37.99442,145.224548,2,2,2,ApartmentUnitFlat,Apartment / Unit / Flat,False,0,m2,False
2017937133,listing,/41-waranga-street-dandenong-north-vic-3175-2017937133,910000,is-sold,Sold by private treaty 04 Aug 2022,20220804,41 Waranga Street,DANDENONG NORTH,VIC,3175,-37.9431,145.217621,4,2,2,House,House,False,675,m2,False
2017938177,listing,/1-42-first-avenue-dandenong-north-vic-3175-2017938177,480000,is-sold,Sold by private treaty 08 Aug 2022,20220808,1/42 First Avenue,DANDENONG NORTH,VIC,3175,-37.9576378,145.212082,2,1,1,ApartmentUnitFlat,Apartment / Unit / Flat,False,386,m2,False
2017942059,listing,/5-10-fox-street-dandenong-vic-3175-2017942059,570000,is-sold,Sold by private treaty 08 Aug 2022,20220808,5/10 Fox Street,DANDENONG,VIC,3175,-37.99402,145.22522,3,1,2,ApartmentUnitFlat,Apartment / Unit / Flat,False,279,m2,False
2017968188,listing,/26-everitt-street-dandenong-vic-3175-2017968188,600000,is-sold,Sold by private treaty 06 Aug 2022,20220806,26 Everitt Street,DANDENONG,VIC,3175,-37.9918747,145.202957,3,2,1,Townhouse,Townhouse,False,0,m2,False
2017976372,listing,/93a-hammond-road-dandenong-vic-3175-2017976372,545000,is-sold,Sold by private treaty 29 Jul 2022,20220729,93A Hammond Road,DANDENONG,VIC,3175,-37.99962,145.208847,2,2,1,Townhouse,Townhouse,False,0,m2,False
2018013953,listing,/8-46-herbert-street-dandenong-vic-3175-2018013953,360000,is-sold,Sold by private treaty 08 Aug 2022,20220808,8/46 Herbert Street,DANDENONG,VIC,3175,-37.9811058,145.2142,2,1,1,ApartmentUnitFlat,Apartment / Unit / Flat,False,0,m2,False
2016906687,listing,/11-81-83-potter-street-dandenong-vic-3175-2016906687,200000,is-sold,Sold by private treaty 23 Jul 2022,20220723,11/81-83 Potter Street,DANDENONG,VIC,3175,-37.97868,145.206528,2,1,1,ApartmentUnitFlat,Apartment / Unit / Flat,False,0,m2,False
2017508794,listing,/2-35-hammond-road-dandenong-south-vic-3175-2017508794,492000,is-sold,Sold by private treaty 22 Jul 2022,20220722,2/35 Hammond Road,DANDENONG SOUTH,VIC,3175,-38.00938,145.206818,3,1,1,ApartmentUnitFlat,Apartment / Unit / Flat,False,163,m2,False
2017779382,listing,/15-judith-street-dandenong-north-vic-3175-2017779382,870000,is-sold,Sold by private treaty 25 Jul 2022,20220725,15 Judith Street,DANDENONG NORTH,VIC,3175,-37.96697,145.222061,5,3,3,House,House,False,568,m2,False
2017812125,listing,/8-warwick-court-dandenong-north-vic-3175-2017812125,1050000,is-sold,Sold by private treaty 19 Jul 2022,20220719,8 Warwick Court,DANDENONG NORTH,VIC,3175,-37.9495926,145.221069,6,4,5,House,House,False,788,m2,False
2017859282,listing,/3-2-canberra-avenue-dandenong-vic-3175-2017859282,566500,is-sold,Sold by private treaty 25 Jul 2022,20220725,3/2 Canberra Avenue,DANDENONG,VIC,3175,-37.99471,145.207352,3,1,1,House,House,False,0,m2,False
2017862394,listing,/7-cook-court-dandenong-north-vic-3175-2017862394,750000,is-sold,Sold by private treaty 19 Jul 2022,20220719,7 Cook Court,DANDENONG NORTH,VIC,3175,-37.9657364,145.214508,3,1,,House,House,False,837,m2,False
2017863407,listing,/28-bruce-street-dandenong-vic-3175-2017863407,957500,is-sold,Sold at auction 16 Jul 2022,20220716,28 Bruce Street,DANDENONG,VIC,3175,-37.97853,145.219131,4,2,3,House,House,False,853,m2,False
2017871616,listing,/17-birdwood-avenue-dandenong-vic-3175-2017871616,773000,is-sold,Sold at auction 23 Jul 2022,20220723,17 Birdwood Avenue,DANDENONG,VIC,3175,-37.9807243,145.203339,3,1,1,House,House,False,814,m2,False
2017877695,listing,/1-1-hillside-avenue-dandenong-north-vic-3175-2017877695,625000,is-sold,Sold by private treaty 18 Jul 2022,20220718,1/1 Hillside Avenue,DANDENONG NORTH,VIC,3175,-37.96987,145.21846,3,1,2,ApartmentUnitFlat,Apartment / Unit / Flat,False,306,m2,False
2017881948,listing,/1-113-clow-street-dandenong-vic-3175-2017881948,398000,is-sold,Sold by private treaty 27 Jul 2022,20220727,1/113 Clow Street,DANDENONG,VIC,3175,-37.9861031,145.226913,2,1,1,ApartmentUnitFlat,Apartment / Unit / Flat,False,0,m2,False
2017890046,listing,/15-devira-street-dandenong-north-vic-3175-2017890046,825000,is-sold,Sold at auction 23 Jul 2022,20220723,15 Devira Street,DANDENONG NORTH,VIC,3175,-37.96282,145.215363,4,1,4,House,House,False,0,m2,False
2017891413,listing,/1-1-day-street-dandenong-vic-3175-2017891413,627000,is-sold,Sold by private treaty 23 Jul 2022,20220723,1/1 Day Street,DANDENONG,VIC,3175,-37.9807167,145.211,3,1,2,ApartmentUnitFlat,Apartment / Unit / Flat,False,0,m2,False
2017894678,listing,/2-7-ross-street-dandenong-vic-3175-2017894678,615000,is-sold,Sold by private treaty 19 Jul 2022,20220719,2/7 Ross Street,DANDENONG,VIC,3175,-37.9829979,145.225525,3,1,2,ApartmentUnitFlat,Apartment / Unit / Flat,False,348,m2,False
2017900078,listing,/25-central-avenue-dandenong-north-vic-3175-2017900078,790000,is-sold,Sold by private treaty 26 Jul 2022,20220726,25 Central Avenue,DANDENONG NORTH,VIC,3175,-37.9563675,145.2104,3,1,1,House,House,False,736,m2,False
2017900710,listing,/2-de-villiers-drive-dandenong-vic-3175-2017900710,810000,is-sold,Sold by private treaty 23 Jul 2022,20220723,2 De Villiers Drive,DANDENONG,VIC,3175,-37.97268,145.208252,4,1,2,House,House,False,570,m2,False
2017904422,listing,/20-57-59-cleeland-street-dandenong-vic-3175-2017904422,275000,is-sold,Sold by private treaty 22 Jul 2022,20220722,20/57-59 Cleeland Street,DANDENONG,VIC,3175,-37.98151,145.21492,2,1,1,ApartmentUnitFlat,Apartment / Unit / Flat,False,0,m2,False
2017912384,listing,/1-8-boyd-street-dandenong-north-vic-3175-2017912384,631000,is-sold,Sold by private treaty 20 Jul 2022,20220720,1/8 Boyd Street,DANDENONG NORTH,VIC,3175,-37.96929,145.216965,3,1,4,House,House,False,0,m2,False
2017914166,listing,/56-james-street-dandenong-vic-3175-2017914166,,is-sold,Sold at auction 27 Jul 2022,20220727,56 James Street,DANDENONG,VIC,3175,-37.97388,145.2101,3,2,2,ApartmentUnitFlat,Apartment / Unit / Flat,False,260,m2,False
2017920200,listing,/48-steven-street-dandenong-vic-3175-2017920200,620000,is-sold,Sold by private treaty 26 Jul 2022,20220726,48 Steven Street,DANDENONG,VIC,3175,-37.9925537,145.200668,3,2,1,House,House,False,0,m2,False
2017943239,listing,/2-145-princes-highway-service-road-dandenong-vic-3175-2017943239,287000,is-sold,Sold by private treaty 27 Jul 2022,20220727,2/145 Princes Highway ( Service Road ),DANDENONG,VIC,3175,-37.97697,145.204758,2,1,1,ApartmentUnitFlat,Apartment / Unit / Flat,False,0,m2,False
2017685245,listing,/30-lipton-drive-dandenong-north-vic-3175-2017685245,836000,is-sold,Sold by private treaty 07 Jul 2022,20220707,30 Lipton Drive,DANDENONG NORTH,VIC,3175,-37.9469337,145.213455,3,2,2,House,House,False,657,m2,False
2017720132,listing,/7-obrien-street-dandenong-vic-3175-2017720132,760000,is-sold,Sold by private treaty 05 Jul 2022,20220705,7 Obrien Street,DANDENONG,VIC,3175,-37.9914856,145.205032,3,2,2,House,House,False,356,m2,False
2017724799,listing,/15-2-4-hutton-street-dandenong-vic-3175-2017724799,320000,is-sold,Sold by private treaty 06 Jul 2022,20220706,15/2-4 Hutton Street,DANDENONG,VIC,3175,-37.9870071,145.21019,2,1,1,ApartmentUnitFlat,Apartment / Unit / Flat,False,0,m2,False
2017780145,listing,/6-9-king-street-dandenong-vic-3175-2017780145,292000,is-sold,Sold by private treaty 08 Jul 2022,20220708,6/9 King Street,DANDENONG,VIC,3175,-37.9828339,145.216476,2,1,1,ApartmentUnitFlat,Apartment / Unit / Flat,False,0,m2,False
2017819283,listing,/21-63-83-james-street-dandenong-vic-3175-2017819283,418500,is-sold,Sold by private treaty 11 Jul 2022,20220711,21/63-83 James Street,DANDENONG,VIC,3175,-37.9708023,145.211517,2,1,1,ApartmentUnitFlat,Apartment / Unit / Flat,False,235,m2,False
2017832097,listing,/310-80-cheltenham-road-dandenong-vic-3175-2017832097,240000,is-sold,Sold by private treaty 06 Jul 2022,20220706,310/80 Cheltenham Road,DANDENONG,VIC,3175,-37.9900436,145.203629,1,1,,ApartmentUnitFlat,Apartment / Unit / Flat,False,0,m2,False
2017833707,listing,/11-99-mccrae-street-dandenong-vic-3175-2017833707,310000,is-sold,Sold by private treaty 06 Jul 2022,20220706,11/99 McCrae Street,DANDENONG,VIC,3175,-37.9920959,145.222137,2,1,1,ApartmentUnitFlat,Apartment / Unit / Flat,False,0,m2,False
2017837726,listing,/4-fadden-street-dandenong-north-vic-3175-2017837726,600000,is-sold,Sold by private treaty 05 Jul 2022,20220705,4 Fadden Street,DANDENONG NORTH,VIC,3175,-37.9642525,145.207062,3,1,2,House,House,False,469,m2,False
2017842675,listing,/36-somerset-drive-dandenong-north-vic-3175-2017842675,810000,is-sold,Sold by private treaty 07 Jul 2022,20220707,36 Somerset Drive,DANDENONG NORTH,VIC,3175,-37.95099,145.224136,3,2,1,House,House,False,637,m2,False
2017858246,listing,/1-2-23-carlton-road-dandenong-north-vic-3175-2017858246,,is-sold,Sold by private treaty 11 Jul 2022,20220711,1-2/23 Carlton Road,DANDENONG NORTH,VIC,3175,-37.95936,145.209763,4,2,2,BlockOfUnits,Block of Units,False,627,m2,False
2017862076,listing,/82-tarene-street-dandenong-vic-3175-2017862076,740000,is-sold,Sold by private treaty 04 Jul 2022,20220704,82 Tarene Street,DANDENONG,VIC,3175,-37.99893,145.202377,3,1,1,House,House,False,542,m2,False
2017867478,listing,/50-jarvis-crescent-dandenong-north-vic-3175-2017867478,950500,is-sold,Sold at auction 09 Jul 2022,20220709,50 Jarvis Crescent,DANDENONG NORTH,VIC,3175,-37.9676552,145.221069,4,2,2,House,House,False,545,m2,False
2017868788,listing,/1-85-cleeland-street-dandenong-vic-3175-2017868788,330000,is-sold,Sold by private treaty 05 Jul 2022,20220705,1/85 Cleeland Street,DANDENONG,VIC,3175,-37.9793968,145.21524,2,1,1,ApartmentUnitFlat,Apartment / Unit / Flat,False,0,m2,False
2017870926,listing,/28-sylvia-street-dandenong-north-vic-3175-2017870926,590888,is-sold,Sold by private treaty 06 Jul 2022,20220706,28 Sylvia Street,DANDENONG NORTH,VIC,3175,-37.9621,145.2101,3,1,1,House,House,False,628,m2,False
2017876286,listing,/74-jones-road-dandenong-vic-3175-2017876286,870000,is-sold,Sold by private treaty 14 Jul 2022,20220714,74 Jones Road,DANDENONG,VIC,3175,-37.9770126,145.202164,9,2,2,House,House,False,0,m2,False
2017877598,listing,/13-hutton-street-dandenong-vic-3175-2017877598,1445000,is-sold,Sold by private treaty 07 Jul 2022,20220707,13 Hutton Street,DANDENONG,VIC,3175,-37.9872169,145.209076,,,,VacantLand,Vacant land,False,1630,m2,False
2017878200,listing,/52-laemmle-street-dandenong-north-vic-3175-2017878200,630000,is-sold,Sold at auction 09 Jul 2022,20220709,52 Laemmle Street,DANDENONG NORTH,VIC,3175,-37.9609146,145.201385,4,1,2,House,House,False,525,m2,False
2017886832,listing,/13-44-princes-highway-dandenong-vic-3175-2017886832,270000,is-sold,Sold by private treaty 13 Jul 2022,20220713,13/44 Princes Highway,DANDENONG,VIC,3175,-37.98254,145.212341,2,1,1,ApartmentUnitFlat,Apartment / Unit / Flat,False,0,m2,False
2017892258,listing,/7-sandy-court-dandenong-north-vic-3175-2017892258,750000,is-sold,Sold by private treaty 08 Jul 2022,20220708,7 Sandy Court,DANDENONG NORTH,VIC,3175,-37.9632225,145.1998,3,1,4,House,House,False,580,m2,False
2017893894,listing,/54-herbert-street-dandenong-vic-3175-2017893894,1060500,is-sold,Sold at auction 09 Jul 2022,20220709,54 Herbert Street,DANDENONG,VIC,3175,-37.9812279,145.215973,3,1,1,House,House,False,808,m2,False
2017095391,listing,/4-15-menzies-avenue-dandenong-north-vic-3175-2017095391,570000,is-sold,Sold by private treaty 01 Jul 2022,20220701,4/15 Menzies Avenue,DANDENONG NORTH,VIC,3175,-37.96861,145.211655,2,1,1,ApartmentUnitFlat,Apartment / Unit / Flat,False,0,m2,False
2017224473,listing,/7-103-mccrae-street-dandenong-vic-3175-2017224473,350000,is-sold,Sold by private treaty 01 Jul 2022,20220701,7/103 McCrae Street,DANDENONG,VIC,3175,-37.9922142,145.222839,2,1,1,ApartmentUnitFlat,Apartment / Unit / Flat,False,0,m2,False
2017372356,listing,/5-47-wilma-avenue-dandenong-vic-3175-2017372356,465000,is-sold,Sold by private treaty 30 Jun 2022,20220630,5/47 Wilma Avenue,DANDENONG,VIC,3175,-37.9792862,145.202637,2,1,,ApartmentUnitFlat,Apartment / Unit / Flat,False,146,m2,False
2017657645,listing,/3-47-potter-street-dandenong-vic-3175-2017657645,255000,is-sold,Sold by private treaty 01 Jul 2022,20220701,3/47 Potter street,DANDENONG,VIC,3175,-37.9815521,145.2058,2,1,1,ApartmentUnitFlat,Apartment / Unit / Flat,False,0,m2,False
2017693626,listing,/6-38-king-street-dandenong-vic-3175-2017693626,310000,is-sold,Sold by private treaty 28 Jun 2022,20220628,6/38 King Street,DANDENONG,VIC,3175,-37.9835968,145.219467,2,1,1,ApartmentUnitFlat,Apartment / Unit / Flat,False,0,m2,False
2017703261,listing,/10-21-herbert-street-dandenong-vic-3175-2017703261,415000,is-sold,Sold at auction 30 Jun 2022,20220630,10/21 Herbert Street,DANDENONG,VIC,3175,-37.9798546,145.213654,2,1,1,ApartmentUnitFlat,Apartment / Unit / Flat,False,0,m2,False
2017708125,listing,/308-80-cheltenham-road-dandenong-vic-3175-2017708125,295000,is-sold,Sold by private treaty 30 Jun 2022,20220630,308/80 Cheltenham Road,DANDENONG,VIC,3175,-37.9900436,145.203629,2,1,1,ApartmentUnitFlat,Apartment / Unit / Flat,False,0,m2,False
2017714986,listing,/1-5-erica-street-dandenong-north-vic-3175-2017714986,520000,is-sold,Sold by private treaty 01 Jul 2022,20220701,1/5 Erica Street,DANDENONG NORTH,VIC,3175,-37.95497,145.20697,2,1,2,ApartmentUnitFlat,Apartment / Unit / Flat,False,327,m2,False
2017783064,listing,/3-1389-heatherton-road-dandenong-north-vic-3175-2017783064,480000,is-sold,Sold by private treaty 28 Jun 2022,20220628,3/1389 Heatherton Road,DANDENONG NORTH,VIC,3175,-37.9681435,145.203064,2,1,2,ApartmentUnitFlat,Apartment / Unit / Flat,False,280,m2,False
2017794687,listing,/15-wingham-street-dandenong-north-vic-3175-2017794687,965000,is-sold,Sold by private treaty 28 Jun 2022,20220628,15 Wingham Street,DANDENONG NORTH,VIC,3175,-37.94369,145.21817,4,2,2,House,House,False,650,m2,False
2017827465,listing,/47-birdwood-avenue-dandenong-vic-3175-2017827465,745000,is-sold,Sold by private treaty 25 Jun 2022,20220625,47 Birdwood Avenue,DANDENONG,VIC,3175,-37.9801178,145.197845,3,1,2,House,House,False,660,m2,False
2017830095,listing,/90-first-avenue-dandenong-north-vic-3175-2017830095,750000,is-sold,Sold by private treaty 30 Jun 2022,20220630,90 First Avenue,DANDENONG NORTH,VIC,3175,-37.9581528,145.217438,3,1,2,House,House,False,0,m2,False
2017832979,listing,/35-power-street-dandenong-vic-3175-2017832979,800000,is-sold,Sold by private treaty 26 Jun 2022,20220626,35 Power Street,DANDENONG,VIC,3175,-37.9894676,145.224655,4,2,2,House,House,False,610,m2,False
2017861822,listing,/18a-power-street-dandenong-vic-3175-2017861822,680000,is-sold,Sold by private treaty 27 Jun 2022,20220627,18A Power Street,DANDENONG,VIC,3175,-37.9908257,145.223114,3,2,2,House,House,False,531,m2,False
2017865152,listing,/209-david-street-dandenong-vic-3175-2017865152,705000,is-sold,Sold by private treaty 02 Jul 2022,20220702,209 David Street,DANDENONG,VIC,3175,-37.9782333,145.228531,3,1,2,House,House,False,526,m2,False
2017868804,listing,/149-rawdon-hill-drive-dandenong-north-vic-3175-2017868804,765000,is-sold,Sold by private treaty 02 Jul 2022,20220702,149 Rawdon Hill Drive,DANDENONG NORTH,VIC,3175,-37.9494972,145.208267,3,2,4,House,House,False,595,m2,False
2017869325,listing,/91a-hammond-road-dandenong-vic-3175-2017869325,550000,is-sold,Sold by private treaty 27 Jun 2022,20220627,91A Hammond Road,DANDENONG,VIC,3175,-37.99935,145.208862,2,2,1,Townhouse,Townhouse,False,0,m2,False
2017883077,listing,/2-34-ann-street-dandenong-vic-3175-2017883077,250000,is-sold,Sold by private treaty 04 Jul 2022,20220704,2/34 Ann Street,DANDENONG,VIC,3175,-37.97904,145.214676,1,1,1,House,House,False,0,m2,False
2017901703,listing,/2-43-potter-street-dandenong-vic-3175-2017901703,320000,is-sold,Sold by private treaty 02 Jul 2022,20220702,2/43 Potter Street,DANDENONG,VIC,3175,-37.9818878,145.2057,2,1,1,ApartmentUnitFlat,Apartment / Unit / Flat,False,0,m2,False
2017973903,listing,/3-15-menzies-avenue-dandenong-north-vic-3175-2017973903,550000,is-sold,Sold by private treaty 01 Jul 2022,20220701,3/15 Menzies Avenue,DANDENONG NORTH,VIC,3175,-37.96856,145.211609,2,1,1,ApartmentUnitFlat,Apartment / Unit / Flat,False,0,m2,False
2017483038,listing,/25-57-clow-street-dandenong-vic-3175-2017483038,360000,is-sold,Sold by private treaty 23 Jun 2022,20220623,25/57 Clow Street,DANDENONG,VIC,3175,-37.9840927,145.219757,3,1,1,ApartmentUnitFlat,Apartment / Unit / Flat,False,0,m2,False
2017652359,listing,/8-ross-street-dandenong-vic-3175-2017652359,815000,is-sold,Sold by private treaty 16 Jun 2022,20220616,8 Ross Street,DANDENONG,VIC,3175,-37.98519,145.2259,3,1,2,House,House,False,584,m2,False
2017676448,listing,/15-3-market-street-dandenong-vic-3175-2017676448,325000,is-sold,Sold by private treaty 21 Jun 2022,20220621,15/3 Market Street,DANDENONG,VIC,3175,-37.98247,145.216171,2,2,1,ApartmentUnitFlat,Apartment / Unit / Flat,False,0,m2,False
2017701585,listing,/25-3-5-hutton-street-dandenong-vic-3175-2017701585,365000,is-sold,Sold by private treaty 16 Jun 2022,20220616,25/3-5 Hutton Street,DANDENONG,VIC,3175,-37.98734,145.2102,2,1,1,ApartmentUnitFlat,Apartment / Unit / Flat,False,0,m2,False
2017728339,listing,/2-16-18-close-avenue-dandenong-vic-3175-2017728339,280000,is-sold,Sold by private treaty 23 Jun 2022,20220623,2/16-18 Close Avenue,DANDENONG,VIC,3175,-37.98233,145.208939,2,1,1,ApartmentUnitFlat,Apartment / Unit / Flat,False,0,m2,False
2017737575,listing,/23-57-clow-street-dandenong-vic-3175-2017737575,425000,is-sold,Sold by private treaty 23 Jun 2022,20220623,23/57 Clow Street,DANDENONG,VIC,3175,-37.9839668,145.219772,3,1,1,ApartmentUnitFlat,Apartment / Unit / Flat,False,0,m2,False
2017743362,listing,/72-fillmore-road-dandenong-north-vic-3175-2017743362,865000,is-sold,Sold by private treaty 17 Jun 2022,20220617,72 Fillmore Road,DANDENONG NORTH,VIC,3175,-37.9410477,145.20903,3,2,3,House,House,False,577,m2,False
2017746949,listing,/2-brott-court-dandenong-north-vic-3175-2017746949,850000,is-sold,Sold by private treaty 23 Jun 2022,20220623,2 Brott Court,DANDENONG NORTH,VIC,3175,-37.9556465,145.2177,4,2,2,House,House,False,549,m2,False
2017764760,listing,/53-neasham-drive-dandenong-north-vic-3175-2017764760,713000,is-sold,Sold at auction 25 Jun 2022,20220625,53 Neasham Drive,DANDENONG NORTH,VIC,3175,-37.9449844,145.201859,4,2,2,House,House,False,542,m2,False
2017767407,listing,/46-blaxland-drive-dandenong-north-vic-3175-2017767407,790000,is-sold,Sold by private treaty 22 Jun 2022,20220622,46 Blaxland Drive,DANDENONG NORTH,VIC,3175,-37.94146,145.2024,3,2,3,House,House,False,577,m2,False
2017803334,listing,/5-mulgoa-avenue-dandenong-north-vic-3175-2017803334,663000,is-sold,Sold by private treaty 21 Jun 2022,20220621,5 Mulgoa Avenue,DANDENONG NORTH,VIC,3175,-37.96612,145.204926,3,1,1,House,House,False,0,m2,False
2017813203,listing,/48b-sylvia-street-dandenong-north-vic-3175-2017813203,462500,is-sold,Sold by private treaty 24 Jun 2022,20220624,48B Sylvia Street,DANDENONG NORTH,VIC,3175,-37.9624825,145.213013,2,1,3,ApartmentUnitFlat,Apartment / Unit / Flat,False,318,m2,False
2017823896,listing,/2-2-melbe-crescent-dandenong-vic-3175-2017823896,520000,is-sold,Sold by private treaty 16 Jun 2022,20220616,2/2 Melbe Crescent,DANDENONG,VIC,3175,-37.9800377,145.214447,2,1,1,ApartmentUnitFlat,Apartment / Unit / Flat,False,0,m2,False
2017834180,listing,/1-sandy-court-dandenong-north-vic-3175-2017834180,641000,is-sold,Sold at auction 23 Jun 2022,20220623,1 Sandy Court,DANDENONG NORTH,VIC,3175,-37.96358,145.200317,3,1,4,House,House,False,586,m2,False
2017839226,listing,/18-jesson-crescent-dandenong-vic-3175-2017839226,595000,is-sold,Sold by private treaty 24 Jun 2022,20220624,18 Jesson Crescent,DANDENONG,VIC,3175,-37.98138,145.228287,3,1,2,House,House,False,447,m2,False
2017842794,listing,/2-8-anthony-street-dandenong-north-vic-3175-2017842794,540000,is-sold,Sold by private treaty 17 Jun 2022,20220617,2/8 Anthony Street,DANDENONG NORTH,VIC,3175,-37.96731,145.213669,2,2,1,Townhouse,Townhouse,False,132,m2,False
2017845298,listing,/3-29-pickett-street-dandenong-vic-3175-2017845298,630000,is-sold,Sold by private treaty 23 Jun 2022,20220623,3/29 Pickett Street,DANDENONG,VIC,3175,-37.98559,145.207382,3,2,1,Townhouse,Townhouse,False,0,m2,False
2017874496,listing,/1-27-kirkham-road-dandenong-vic-3175-2017874496,520000,is-sold,Sold by private treaty 23 Jun 2022,20220623,1/27 Kirkham Road,DANDENONG,VIC,3175,-37.99938,145.2123,2,1,1,ApartmentUnitFlat,Apartment / Unit / Flat,False,0,m2,False
2017880851,listing,/3-44-king-street-dandenong-vic-3175-2017880851,460000,is-sold,Sold by private treaty 24 Jun 2022,20220624,3/44 King Street,DANDENONG,VIC,3175,-37.9839249,145.220016,2,1,1,ApartmentUnitFlat,Apartment / Unit / Flat,False,0,m2,False
2018077910,listing,/2-brott-court-dandenong-north-vic-3175-2018077910,850000,is-sold,Sold by private treaty 23 Jun 2022,20220623,2 Brott Court,DANDENONG NORTH,VIC,3175,-37.9556122,145.2177,4,2,2,House,House,False,549,m2,False
2017366337,listing,/216-80-cheltenham-rd-dandenong-vic-3175-2017366337,279000,is-sold,Sold by private treaty 07 Jun 2022,20220607,216/80 Cheltenham Rd,DANDENONG,VIC,3175,-37.9900436,145.203629,2,1,1,ApartmentUnitFlat,Apartment / Unit / Flat,False,0,m2,False
2017386578,listing,/9-16-stud-road-dandenong-vic-3175-2017386578,715000,is-sold,Sold by private treaty 11 Jun 2022,20220611,9/16 Stud Road,DANDENONG,VIC,3175,-37.98419,145.221176,3,1,3,ApartmentUnitFlat,Apartment / Unit / Flat,False,0,m2,False
2017462982,listing,/7-london-court-dandenong-north-vic-3175-2017462982,900000,is-sold,Sold by private treaty 15 Jun 2022,20220615,7 London Court,DANDENONG NORTH,VIC,3175,-37.9542046,145.201172,4,2,2,House,House,False,0,m2,False
2017542919,listing,/231-80-cheltenham-road-dandenong-vic-3175-2017542919,220000,is-sold,Sold by private treaty 06 Jun 2022,20220606,231/80 Cheltenham Road,DANDENONG,VIC,3175,-37.9900436,145.203629,1,1,,ApartmentUnitFlat,Apartment / Unit / Flat,False,0,m2,False
2017619653,listing,/1-39-scott-street-dandenong-vic-3175-2017619653,330000,is-sold,Sold by private treaty 07 Jun 2022,20220607,1/39 Scott Street,DANDENONG,VIC,3175,-37.9864,145.209244,2,1,1,ApartmentUnitFlat,Apartment / Unit / Flat,False,0,m2,False
2017630583,listing,/83-hammond-road-dandenong-vic-3175-2017630583,795000,is-sold,Sold by private treaty 09 Jun 2022,20220609,83 Hammond Road,DANDENONG,VIC,3175,-37.99893,145.208984,3,2,2,House,House,False,0,m2,False
2017690109,listing,/7b-nicole-avenue-dandenong-north-vic-3175-2017690109,750000,is-sold,Sold by private treaty 11 Jun 2022,20220611,7B Nicole Avenue,DANDENONG NORTH,VIC,3175,-37.9692154,145.216064,3,3,2,Townhouse,Townhouse,False,0,m2,False
2017693504,listing,/8-huckson-street-dandenong-vic-3175-2017693504,580000,is-sold,Sold by private treaty 09 Jun 2022,20220609,8 Huckson Street,DANDENONG,VIC,3175,-37.9921837,145.206924,3,1,1,Townhouse,Townhouse,False,0,m2,False
2017714299,listing,/2-43-canberra-avenue-dandenong-vic-3175-2017714299,420000,is-sold,Sold by private treaty 09 Jun 2022,20220609,2/43 Canberra Avenue,DANDENONG,VIC,3175,-37.9978256,145.207748,2,1,1,ApartmentUnitFlat,Apartment / Unit / Flat,False,0,m2,False
2017735979,listing,/1-2-margaret-crescent-dandenong-vic-3175-2017735979,660000,is-sold,Sold by private treaty 14 Jun 2022,20220614,1/2 Margaret Crescent,DANDENONG,VIC,3175,-37.97917,145.21347,3,2,2,Townhouse,Townhouse,False,220,m2,False
2017755512,listing,/55-pickett-street-dandenong-vic-3175-2017755512,525000,is-sold,Sold by private treaty 14 Jun 2022,20220614,55 Pickett Street,DANDENONG,VIC,3175,-37.98384,145.207733,2,1,1,House,House,False,0,m2,False
2017768914,listing,/24-murray-road-dandenong-north-vic-3175-2017768914,1180000,is-sold,Sold by private treaty 14 Jun 2022,20220614,24 Murray Road,DANDENONG NORTH,VIC,3175,-37.94438,145.212585,5,3,1,House,House,False,656,m2,False
2017778586,listing,/6-azalea-crescent-dandenong-north-vic-3175-2017778586,670000,is-sold,Sold by private treaty 07 Jun 2022,20220607,6 Azalea Crescent,DANDENONG NORTH,VIC,3175,-37.9589348,145.204712,3,1,3,House,House,False,0,m2,False
2017781468,listing,/4-gretana-street-dandenong-vic-3175-2017781468,1111000,is-sold,Sold by private treaty 14 Jun 2022,20220614,4 Gretana Street,DANDENONG,VIC,3175,-38.00097,145.206482,3,2,2,House,House,False,897,m2,False
2017789823,listing,/30-everitt-street-dandenong-vic-3175-2017789823,605000,is-sold,Sold by private treaty 13 Jun 2022,20220613,30 Everitt Street,DANDENONG,VIC,3175,-37.99191,145.20285,3,2,1,Townhouse,Townhouse,False,0,m2,False
2017797958,listing,/2-64-jones-road-dandenong-vic-3175-2017797958,309999,is-sold,Sold by private treaty 07 Jun 2022,20220607,2/64 Jones Road,DANDENONG,VIC,3175,-37.9779,145.202209,2,1,1,ApartmentUnitFlat,Apartment / Unit / Flat,False,0,m2,False
