id,listingType,url,price,tagClassName,tagText,date,street,suburb,state,postcode,lat,lng,beds,baths,parking,propertyType,propertyTypeFormatted,isRural,landSize,landUnit,isRetirement
2018075452,listing,/112-3-5-st-kilda-road-st-kilda-vic-3182-2018075452,,is-sold,Sold by private treaty 20 Feb 2023,20230220,112/3-5 St Kilda Road,ST KILDA,VIC,3182,-37.8586845,144.983246,1,1,1,ApartmentUnitFlat,Apartment / Unit / Flat,False,0,m2,False
2018134324,listing,/22-2a-robe-street-st-kilda-vic-3182-2018134324,,is-sold,Sold by private treaty 09 Feb 2023,20230209,22/2A Robe Street,ST KILDA,VIC,3182,-37.8657532,144.975861,3,3,3,ApartmentUnitFlat,Apartment / Unit / Flat,False,0,m2,False
2018157066,listing,/36-3-herbert-street-st-kilda-vic-3182-2018157066,340000,is-sold,Sold by private treaty 21 Feb 2023,20230221,36/3 Herbert Street,ST KILDA,VIC,3182,-37.8707161,144.982,1,1,1,ApartmentUnitFlat,Apartment / Unit / Flat,False,0,m2,False
2018188139,listing,/1906-3-5-st-kilda-road-st-kilda-vic-3182-2018188139,,is-sold,Sold by private treaty 23 Feb 2023,20230223,1906/3-5 St Kilda Road,ST KILDA,VIC,3182,-37.8586845,144.983246,1,1,1,ApartmentUnitFlat,Apartment / Unit / Flat,False,0,m2,False
2018220895,listing,/401-315-beaconsfield-parade-st-kilda-west-vic-3182-2018220895,,is-sold,Sold by private treaty 16 Feb 2023,20230216,401/315 Beaconsfield Parade,ST KILDA WEST,VIC,3182,-37.85662,144.967255,4,4,4,ApartmentUnitFlat,Apartment / Unit / Flat,False,0,m2,False
2018222143,listing,/30-92-grey-street-st-kilda-vic-3182-2018222143,,is-sold,Sold by private treaty 09 Feb 2023,20230209,30/92 Grey Street,ST KILDA,VIC,3182,-37.86322,144.981018,1,1,1,Studio,Studio,False,0,m2,False
2018278124,listing,/60-park-street-st-kilda-west-vic-3182-2018278124,,is-sold,Sold at auction 12 Feb 2023,20230212,60 Park Street,ST KILDA WEST,VIC,3182,-37.85844,144.972473,5,5,5,House,House,False,561,m2,False
2018292145,listing,/2-33-eildon-road-st-kilda-vic-3182-2018292145,510000,is-sold,Sold by private treaty 16 Feb 2023,20230216,2/33 Eildon Road,ST KILDA,VIC,3182,-37.861496,144.977661,1,1,1,ApartmentUnitFlat,Apartment / Unit / Flat,False,0,m2,False
2018297406,listing,/g05-88-carlisle-street-st-kilda-vic-3182-2018297406,,is-sold,Sold at auction 09 Feb 2023,20230209,G05/88 Carlisle Street,ST KILDA,VIC,3182,-37.86704,144.986,1,1,1,ApartmentUnitFlat,Apartment / Unit / Flat,False,0,m2,False
2018297561,listing,/10-92-barkly-street-st-kilda-vic-3182-2018297561,,is-sold,Sold at auction 11 Feb 2023,20230211,10/92 Barkly Street,ST KILDA,VIC,3182,-37.8635025,144.982086,3,3,3,ApartmentUnitFlat,Apartment / Unit / Flat,False,0,m2,False
2018298780,listing,/308-173-177-barkly-street-st-kilda-vic-3182-2018298780,,is-sold,Sold by private treaty 15 Feb 2023,20230215,308/173-177 Barkly Street,ST KILDA,VIC,3182,-37.8673973,144.981186,2,2,2,ApartmentUnitFlat,Apartment / Unit / Flat,False,0,m2,False
2018300778,listing,/1-10a-mitford-street-st-kilda-vic-3182-2018300778,,is-sold,Sold by private treaty 13 Feb 2023,20230213,1/10a Mitford Street,ST KILDA,VIC,3182,-37.87098,144.9813,2,2,2,ApartmentUnitFlat,Apartment / Unit / Flat,False,0,m2,False
2018311704,listing,/13-6-redan-street-st-kilda-vic-3182-2018311704,502000,is-sold,Sold by private treaty 09 Feb 2023,20230209,13/6 Redan Street,ST KILDA,VIC,3182,-37.8595963,144.98877,2,2,2,ApartmentUnitFlat,Apartment / Unit / Flat,False,0,m2,False
2018311796,listing,/6-81-grey-street-st-kilda-vic-3182-2018311796,,is-sold,Sold by private treaty 02 Mar 2023,20230302,6/81 Grey Street,ST KILDA,VIC,3182,-37.86257,144.979492,2,2,2,ApartmentUnitFlat,Apartment / Unit / Flat,False,0,m2,False
2018315932,listing,/324-163-fitzroy-street-st-kilda-vic-3182-2018315932,375000,is-sold,Sold by private treaty 09 Feb 2023,20230209,324/163 Fitzroy Street,ST KILDA,VIC,3182,-37.8586044,144.979782,1,1,1,ApartmentUnitFlat,Apartment / Unit / Flat,False,0,m2,False
2018318483,listing,/13-alma-place-st-kilda-vic-3182-2018318483,,is-sold,Sold at auction 25 Feb 2023,20230225,13 Alma Place,ST KILDA,VIC,3182,-37.86178,144.9866,,,,VacantLand,Vacant land,False,309,m2,False
2018319203,listing,/63-spenser-street-st-kilda-vic-3182-2018319203,,is-sold,Sold at auction 25 Feb 2023,20230225,63 Spenser Street,ST KILDA,VIC,3182,-37.87219,144.9777,3,3,3,House,House,False,324,m2,False
2018330605,listing,/2-6-west-beach-road-st-kilda-west-vic-3182-2018330605,,is-sold,Sold prior to auction 02 Mar 2023,20230302,2/6 West Beach Road,ST KILDA WEST,VIC,3182,-37.8596,144.9757,2,2,2,ApartmentUnitFlat,Apartment / Unit / Flat,False,0,m2,False
2018341000,listing,/6-16-mitford-street-st-kilda-vic-3182-2018341000,,is-sold,Sold by private treaty 21 Feb 2023,20230221,6/16 Mitford Street,ST KILDA,VIC,3182,-37.8715744,144.981964,1,1,1,ApartmentUnitFlat,Apartment / Unit / Flat,False,0,m2,False
2018341208,listing,/28-loch-street-st-kilda-west-vic-3182-2018341208,,is-sold,Sold at auction 23 Feb 2023,20230223,28 Loch Street,ST KILDA WEST,VIC,3182,-37.8578,144.973648,4,4,4,House,House,False,0,m2,False
2018333300,listing,/g18-27-31-herbert-street-st-kilda-vic-3182-2018333300,494000,is-sold,Sold at auction 04 Mar 2023,20230304,G18/27-31 Herbert Street,ST KILDA,VIC,3182,-37.87231,144.983215,1,1,1,ApartmentUnitFlat,Apartment / Unit / Flat,False,0,m2,False
2018343245,listing,/205-72-acland-street-st-kilda-vic-3182-2018343245,,is-sold,Sold at auction 05 Mar 2023,20230305,205/72 Acland Street,ST KILDA,VIC,3182,-37.86679,144.978317,2,2,1,ApartmentUnitFlat,Apartment / Unit / Flat,False,0,m2,False
2018372822,listing,/unit-12-35-charles-street-st-kilda-vic-3182-2018372822,,is-sold,Sold 07 Mar 2023,20230307,UNIT 12/35 CHARLES STREET,ST KILDA,VIC,3182,-37.863575,144.984314,1,1,,ApartmentUnitFlat,Apartment / Unit / Flat,False,601,m2,False
2018197154,listing,/609-3-5-st-kilda-road-st-kilda-vic-3182-2018197154,650000,is-sold,Sold by private treaty 10 Mar 2023,20230310,609/3-5 St Kilda Road,ST KILDA,VIC,3182,-37.8586845,144.983246,2,2,1,ApartmentUnitFlat,Apartment / Unit / Flat,False,0,m2,False
2018334544,listing,/101-30-the-esplanade-st-kilda-vic-3182-2018334544,1450000,is-sold,Sold by private treaty 07 Mar 2023,20230307,101/30 The Esplanade,ST KILDA,VIC,3182,-37.866848,144.977249,2,2,2,ApartmentUnitFlat,Apartment / Unit / Flat,False,0,m2,False
2018215471,listing,/25-crimea-street-st-kilda-vic-3182-2018215471,,is-sold,Sold by private treaty 28 Feb 2023,20230228,25 Crimea Street,ST KILDA,VIC,3182,-37.85954,144.98764,2,2,2,House,House,False,0,m2,False
2018215600,listing,/6-5-bundalohn-court-st-kilda-vic-3182-2018215600,435000,is-sold,Sold by private treaty 01 Mar 2023,20230301,6/5 Bundalohn Court,ST KILDA,VIC,3182,-37.8695641,144.9859,1,1,1,ApartmentUnitFlat,Apartment / Unit / Flat,False,0,m2,False
2018315496,listing,/19-havelock-street-st-kilda-vic-3182-2018315496,,is-sold,Sold by private treaty 04 Mar 2023,20230304,19 Havelock Street,ST KILDA,VIC,3182,-37.8662453,144.979935,3,1,2,House,House,False,285,m2,False
2018334078,listing,/130-135-inkerman-street-st-kilda-vic-3182-2018334078,467500,is-sold,Sold by private treaty 22 Feb 2023,20230222,130/135 Inkerman Street,ST KILDA,VIC,3182,-37.86502,144.987671,2,1,1,ApartmentUnitFlat,Apartment / Unit / Flat,False,0,m2,False
2018337263,listing,/31-1-st-kilda-road-st-kilda-vic-3182-2018337263,722000,is-sold,Sold at auction 04 Mar 2023,20230304,31/1 St Kilda Road,ST KILDA,VIC,3182,-37.8572769,144.9825,3,2,1,ApartmentUnitFlat,Apartment / Unit / Flat,False,0,m2,False
2018354128,listing,/4-16-charnwood-road-st-kilda-vic-3182-2018354128,,is-sold,Sold at auction 01 Mar 2023,20230301,4/16 Charnwood Road,ST KILDA,VIC,3182,-37.85838,144.985489,2,1,1,ApartmentUnitFlat,Apartment / Unit / Flat,False,0,m2,False
2018354857,listing,/1402-101-st-kilda-road-st-kilda-vic-3182-2018354857,635000,is-sold,Sold by private treaty 27 Feb 2023,20230227,1402/101 St Kilda Road,ST KILDA,VIC,3182,-37.8597679,144.983582,2,2,1,ApartmentUnitFlat,Apartment / Unit / Flat,False,0,m2,False
2018375297,listing,/8-longmore-street-st-kilda-west-vic-3182-2018375297,,is-sold,Sold at auction 01 Mar 2023,20230301,8 Longmore Street,ST KILDA WEST,VIC,3182,-37.8544,144.969955,3,1,1,House,House,False,274,m2,False
2017942054,listing,/1806-3-5-st-kilda-road-st-kilda-vic-3182-2017942054,470000,is-sold,Sold by private treaty 06 Feb 2023,20230206,1806/3-5 St Kilda Road,ST KILDA,VIC,3182,-37.8586845,144.983246,1,1,1,ApartmentUnitFlat,Apartment / Unit / Flat,False,0,m2,False
2018014643,listing,/g08-3-7a-alma-road-st-kilda-vic-3182-2018014643,,is-sold,Sold prior to auction 02 Feb 2023,20230202,G08/3-7a Alma Road,ST KILDA,VIC,3182,-37.86056,144.9836,1,1,1,ApartmentUnitFlat,Apartment / Unit / Flat,False,0,m2,False
2018157814,listing,/2-24-crimea-street-st-kilda-vic-3182-2018157814,,is-sold,Sold by private treaty 08 Feb 2023,20230208,2/24 Crimea Street,ST KILDA,VIC,3182,-37.8599548,144.988159,2,2,1,ApartmentUnitFlat,Apartment / Unit / Flat,False,0,m2,False
2018180961,listing,/11-81-alma-road-st-kilda-vic-3182-2018180961,,is-sold,Sold by private treaty 16 Feb 2023,20230216,11/81 Alma Road,ST KILDA,VIC,3182,-37.86159,144.990585,3,1,1,ApartmentUnitFlat,Apartment / Unit / Flat,False,0,m2,False
2018185737,listing,/303-181-fitzroy-street-st-kilda-vic-3182-2018185737,470000,is-sold,Sold by private treaty 03 Feb 2023,20230203,303/181 Fitzroy Street,ST KILDA,VIC,3182,-37.8577881,144.981186,1,1,,ApartmentUnitFlat,Apartment / Unit / Flat,False,0,m2,False
2018188966,listing,/18-79-alma-road-st-kilda-vic-3182-2018188966,,is-sold,Sold by private treaty 06 Feb 2023,20230206,18/79 Alma Road,ST KILDA,VIC,3182,-37.861515,144.9904,1,1,,ApartmentUnitFlat,Apartment / Unit / Flat,False,0,m2,False
2018323317,listing,/11-188-barkly-street-st-kilda-vic-3182-2018323317,,is-sold,Sold by private treaty 04 Feb 2023,20230204,11/188 Barkly Street,ST KILDA,VIC,3182,-37.869072,144.981339,2,1,,ApartmentUnitFlat,Apartment / Unit / Flat,False,0,m2,False
2017822805,listing,/82-333-beaconsfield-parade-st-kilda-west-vic-3182-2017822805,,is-sold,Sold by private treaty 20 Jan 2023,20230120,82/333 Beaconsfield Parade,ST KILDA WEST,VIC,3182,-37.8576279,144.96933,1,1,1,ApartmentUnitFlat,Apartment / Unit / Flat,False,0,m2,False
2017960083,listing,/1101-181-st-kilda-road-st-kilda-vic-3182-2017960083,870000,is-sold,Sold by private treaty 13 Jan 2023,20230113,1101/181 St Kilda Road,ST KILDA,VIC,3182,-37.8608437,144.984,2,2,2,ApartmentUnitFlat,Apartment / Unit / Flat,False,0,m2,False
2018016164,listing,/806-3-5-st-kilda-rd-st-kilda-vic-3182-2018016164,440000,is-sold,Sold by private treaty 16 Jan 2023,20230116,806/3-5 St Kilda Rd,ST KILDA,VIC,3182,-37.8586845,144.983246,1,1,1,ApartmentUnitFlat,Apartment / Unit / Flat,False,0,m2,False
2018038875,listing,/105-27-31-herbert-street-st-kilda-vic-3182-2018038875,525000,is-sold,Sold by private treaty 14 Jan 2023,20230114,105/27-31 Herbert Street,ST KILDA,VIC,3182,-37.87231,144.983215,2,2,1,ApartmentUnitFlat,Apartment / Unit / Flat,False,0,m2,False
2018047005,listing,/6-12-charlotte-place-st-kilda-vic-3182-2018047005,470000,is-sold,Sold by private treaty 10 Jan 2023,20230110,6/12 Charlotte Place,ST KILDA,VIC,3182,-37.8581,144.991516,1,1,,ApartmentUnitFlat,Apartment / Unit / Flat,False,0,m2,False
2018091373,listing,/2-18-duke-street-st-kilda-vic-3182-2018091373,,is-sold,Sold by private treaty 20 Jan 2023,20230120,2/18 Duke Street,ST KILDA,VIC,3182,-37.86712,144.98909,2,1,,ApartmentUnitFlat,Apartment / Unit / Flat,False,0,m2,False
2018096262,listing,/10-19-shakespeare-grove-st-kilda-vic-3182-2018096262,610000,is-sold,Sold at auction 25 Jan 2023,20230125,10/19 Shakespeare Grove,ST KILDA,VIC,3182,-37.8688736,144.97699,2,1,1,ApartmentUnitFlat,Apartment / Unit / Flat,False,0,m2,False
2018103432,listing,/403-13-15-wellington-st-st-kilda-vic-3182-2018103432,,is-sold,Sold by private treaty 18 Jan 2023,20230118,403/13-15 Wellington St,ST KILDA,VIC,3182,-37.85623,144.984283,2,2,1,ApartmentUnitFlat,Apartment / Unit / Flat,False,0,m2,False
2018147752,listing,/2-foster-street-st-kilda-vic-3182-2018147752,,is-sold,Sold by private treaty 31 Jan 2023,20230131,2 Foster Street,ST KILDA,VIC,3182,-37.86819,144.982712,3,1,1,House,House,False,0,m2,False
2018155928,listing,/411-7-greeves-street-st-kilda-vic-3182-2018155928,,is-sold,Sold by private treaty 27 Jan 2023,20230127,411/7 Greeves Street,ST KILDA,VIC,3182,-37.8654976,144.982712,2,1,1,ApartmentUnitFlat,Apartment / Unit / Flat,False,0,m2,False
2018159566,listing,/11-225-canterbury-road-st-kilda-west-vic-3182-2018159566,575000,is-sold,Sold by private treaty 28 Jan 2023,20230128,11/225 Canterbury Road,ST KILDA WEST,VIC,3182,-37.857933,144.974487,2,1,1,ApartmentUnitFlat,Apartment / Unit / Flat,False,0,m2,False
2018181457,listing,/309-126-chapel-street-st-kilda-vic-3182-2018181457,540000,is-sold,Sold by private treaty 30 Jan 2023,20230130,309/126 Chapel Street,ST KILDA,VIC,3182,-37.86911,144.990417,2,1,1,ApartmentUnitFlat,Apartment / Unit / Flat,False,0,m2,False
2018193293,listing,/72-313-beaconsfield-parade-st-kilda-west-vic-3182-2018193293,,is-sold,Sold by private treaty 10 Jan 2023,20230110,72/313 Beaconsfield Parade,ST KILDA WEST,VIC,3182,-37.8563881,144.966965,2,1,1,ApartmentUnitFlat,Apartment / Unit / Flat,False,0,m2,False
2018202785,listing,/605-25-29-alma-road-st-kilda-vic-3182-2018202785,,is-sold,Sold by private treaty 23 Jan 2023,20230123,605/25-29 Alma Road,ST KILDA,VIC,3182,-37.86076,144.985428,2,2,1,ApartmentUnitFlat,Apartment / Unit / Flat,False,0,m2,False
2018216627,listing,/83-carlisle-street-st-kilda-vic-3182-2018216627,,is-sold,Sold by private treaty 11 Jan 2023,20230111,83 Carlisle Street,ST KILDA,VIC,3182,-37.867775,144.984619,2,1,1,House,House,False,243,m2,False
2018239700,listing,/409-7-greeves-street-st-kilda-vic-3182-2018239700,,is-sold,Sold by private treaty 31 Jan 2023,20230131,409/7 Greeves Street,ST KILDA,VIC,3182,-37.8654976,144.982712,2,1,1,ApartmentUnitFlat,Apartment / Unit / Flat,False,0,m2,False
2018243949,listing,/47-352-canterbury-road-st-kilda-vic-3182-2018243949,460000,is-sold,Sold by private treaty 21 Jan 2023,20230121,47/352 Canterbury Road,ST KILDA,VIC,3182,-37.8590965,144.976929,1,1,1,ApartmentUnitFlat,Apartment / Unit / Flat,False,0,m2,False
2018248464,listing,/11b-12-marine-parade-st-kilda-vic-3182-2018248464,,is-sold,Sold by private treaty 30 Jan 2023,20230130,11B/12 Marine Parade,ST KILDA,VIC,3182,-37.8701172,144.976654,2,1,1,ApartmentUnitFlat,Apartment / Unit / Flat,False,0,m2,False
2018265618,listing,/1f-12-marine-parade-st-kilda-vic-3182-2018265618,,is-sold,Sold by private treaty 25 Jan 2023,20230125,1F/12 Marine Parade,ST KILDA,VIC,3182,-37.8701172,144.976654,1,1,1,ApartmentUnitFlat,Apartment / Unit / Flat,False,0,m2,False
2018283522,listing,/3-11-17-park-street-st-kilda-west-vic-3182-2018283522,475000,is-sold,Sold by private treaty 28 Jan 2023,20230128,3/11-17 Park Street,ST KILDA WEST,VIC,3182,-37.8605576,144.973679,1,1,1,ApartmentUnitFlat,Apartment / Unit / Flat,False,0,m2,False
2017736649,listing,/701-6-st-kilda-road-st-kilda-vic-3182-2017736649,372000,is-sold,Sold by private treaty 15 Dec 2022,20221215,701/6 St Kilda Road,ST KILDA,VIC,3182,-37.8565979,144.983444,1,1,1,ApartmentUnitFlat,Apartment / Unit / Flat,False,0,m2,False
2018012264,listing,/5-dalgety-street-st-kilda-vic-3182-2018012264,4060000,is-sold,Sold by private treaty 17 Dec 2022,20221217,5 Dalgety Street,ST KILDA,VIC,3182,-37.860733,144.97966,4,3,3,House,House,False,0,m2,False
2018029853,listing,/113-8-10-the-esplanade-st-kilda-vic-3182-2018029853,,is-sold,Sold by private treaty 23 Dec 2022,20221223,113/8-10 The Esplanade,ST KILDA,VIC,3182,-37.86357,144.972855,2,2,1,ApartmentUnitFlat,Apartment / Unit / Flat,False,0,m2,False
2018032208,listing,/807-181-st-kilda-road-st-kilda-vic-3182-2018032208,353000,is-sold,Sold by private treaty 20 Dec 2022,20221220,807/181 St Kilda Road,ST KILDA,VIC,3182,-37.8608437,144.984,1,1,1,ApartmentUnitFlat,Apartment / Unit / Flat,False,0,m2,False
2018120039,listing,/14-93-argyle-street-st-kilda-vic-3182-2018120039,450000,is-sold,Sold by private treaty 30 Dec 2022,20221230,14/93 Argyle Street,ST KILDA,VIC,3182,-37.86322,144.9886,2,1,1,ApartmentUnitFlat,Apartment / Unit / Flat,False,0,m2,False
2018142591,listing,/2-2-robe-street-st-kilda-vic-3182-2018142591,470000,is-sold,Sold by private treaty 17 Dec 2022,20221217,2/2 Robe Street,ST KILDA,VIC,3182,-37.86495,144.977249,1,1,1,ApartmentUnitFlat,Apartment / Unit / Flat,False,0,m2,False
2018189878,listing,/7-princes-street-st-kilda-vic-3182-2018189878,3700000,is-sold,Sold by private treaty 14 Dec 2022,20221214,7 Princes Street,ST KILDA,VIC,3182,-37.8589554,144.980865,14,14,5,House,House,False,0,m2,False
2018191862,listing,/216-27-31-herbert-street-st-kilda-vic-3182-2018191862,410000,is-sold,Sold by private treaty 15 Dec 2022,20221215,216/27-31 Herbert Street,ST KILDA,VIC,3182,-37.87231,144.983215,1,1,1,ApartmentUnitFlat,Apartment / Unit / Flat,False,0,m2,False
2018206885,listing,/7-343-beaconsfield-parade-st-kilda-west-vic-3182-2018206885,,is-sold,Sold by private treaty 10 Jan 2023,20230110,7/343 Beaconsfield Parade,ST KILDA WEST,VIC,3182,-37.8587456,144.971,1,1,1,ApartmentUnitFlat,Apartment / Unit / Flat,False,0,m2,False
2018213622,listing,/13-marlton-crescent-st-kilda-vic-3182-2018213622,2660000,is-sold,Sold at auction 17 Dec 2022,20221217,13 Marlton Crescent,ST KILDA,VIC,3182,-37.85829,144.989716,4,2,1,House,House,False,541,m2,False
2018215206,listing,/202-43-duke-street-st-kilda-vic-3182-2018215206,435000,is-sold,Sold by private treaty 16 Dec 2022,20221216,202/43 Duke Street,ST KILDA,VIC,3182,-37.8676224,144.990219,1,1,1,ApartmentUnitFlat,Apartment / Unit / Flat,False,0,m2,False
2018215661,listing,/2-156-carlisle-street-st-kilda-vic-3182-2018215661,605000,is-sold,Sold at auction 17 Dec 2022,20221217,2/156 Carlisle Street,ST KILDA,VIC,3182,-37.86796,144.9892,2,1,,ApartmentUnitFlat,Apartment / Unit / Flat,False,0,m2,False
2018217968,listing,/37-blanche-street-st-kilda-vic-3182-2018217968,1200000,is-sold,Sold at auction 21 Dec 2022,20221221,37 Blanche Street,ST KILDA,VIC,3182,-37.8657646,144.984222,2,1,,House,House,False,209,m2,False
2018218999,listing,/34-charles-street-st-kilda-vic-3182-2018218999,1000000,is-sold,Sold by private treaty 14 Dec 2022,20221214,34 Charles Street,ST KILDA,VIC,3182,-37.8632164,144.984177,2,1,,House,House,False,0,m2,False
2018219576,listing,/35-waterloo-crescent-st-kilda-vic-3182-2018219576,1235000,is-sold,Sold at auction 17 Dec 2022,20221217,35 Waterloo Crescent,ST KILDA,VIC,3182,-37.862114,144.984283,2,2,1,House,House,False,0,m2,False
2018219671,listing,/9-128-140-chapel-street-st-kilda-vic-3182-2018219671,799950,is-sold,Sold by private treaty 26 Dec 2022,20221226,9/128 - 140 Chapel Street,ST KILDA,VIC,3182,-37.8692932,144.990311,2,1,2,ApartmentUnitFlat,Apartment / Unit / Flat,False,0,m2,False
2018220049,listing,/6-82-wellington-street-st-kilda-vic-3182-2018220049,395000,is-sold,Sold by private treaty 15 Dec 2022,20221215,6/82 Wellington Street,ST KILDA,VIC,3182,-37.85739,144.988617,,1,1,ApartmentUnitFlat,Apartment / Unit / Flat,False,0,m2,False
2018220318,listing,/305-171-173-inkerman-street-st-kilda-vic-3182-2018220318,590000,is-sold,Sold by private treaty 16 Dec 2022,20221216,305/171-173 Inkerman Street,ST KILDA,VIC,3182,-37.8651733,144.988647,2,1,1,ApartmentUnitFlat,Apartment / Unit / Flat,False,0,m2,False
2018221808,listing,/1-73-alma-road-st-kilda-vic-3182-2018221808,675000,is-sold,Sold at auction 17 Dec 2022,20221217,1/73 Alma Road,ST KILDA,VIC,3182,-37.8614,144.9896,2,1,1,ApartmentUnitFlat,Apartment / Unit / Flat,False,0,m2,False
2018296450,listing,/12-135-fitzroy-street-st-kilda-vic-3182-2018296450,815000,is-sold,Sold by private treaty 24 Dec 2022,20221224,12/135 Fitzroy Street,ST KILDA,VIC,3182,-37.8597679,144.978485,2,1,1,ApartmentUnitFlat,Apartment / Unit / Flat,False,0,m2,False
2018052207,listing,/6-70-barkly-street-st-kilda-vic-3182-2018052207,575000,is-sold,Sold by private treaty 09 Dec 2022,20221209,6/70 Barkly Street,ST KILDA,VIC,3182,-37.86196,144.982422,2,1,1,ApartmentUnitFlat,Apartment / Unit / Flat,False,0,m2,False
2018096409,listing,/405-163-fitzroy-street-st-kilda-vic-3182-2018096409,520000,is-sold,Sold by private treaty 02 Dec 2022,20221202,405/163 Fitzroy Street,ST KILDA,VIC,3182,-37.8586044,144.979782,2,1,1,ApartmentUnitFlat,Apartment / Unit / Flat,False,0,m2,False
2018098823,listing,/33-blessington-street-st-kilda-vic-3182-2018098823,,is-sold,Sold by private treaty 02 Dec 2022,20221202,33 Blessington Street,ST KILDA,VIC,3182,-37.87072,144.980316,5,1,,House,House,False,0,m2,False
2018124163,listing,/1-15-burnett-street-st-kilda-vic-3182-2018124163,652000,is-sold,Sold by private treaty 10 Dec 2022,20221210,1/15 Burnett Street,ST KILDA,VIC,3182,-37.86106,144.980667,2,1,1,ApartmentUnitFlat,Apartment / Unit / Flat,False,0,m2,False
2018129222,listing,/38-25-redan-street-st-kilda-vic-3182-2018129222,155000,is-sold,Sold by private treaty 09 Dec 2022,20221209,38/25 Redan Street,ST KILDA,VIC,3182,-37.8602448,144.990311,,1,,Studio,Studio,False,0,m2,False
2018133744,listing,/2-50-fitzroy-street-st-kilda-vic-3182-2018133744,522000,is-sold,Sold by private treaty 10 Dec 2022,20221210,2/50 Fitzroy Street,ST KILDA,VIC,3182,-37.8599625,144.976364,1,1,1,ApartmentUnitFlat,Apartment / Unit / Flat,False,0,m2,False
2018150201,listing,/202-76-barkly-street-st-kilda-vic-3182-2018150201,515000,is-sold,Sold by private treaty 06 Dec 2022,20221206,202/76 Barkly Street,ST KILDA,VIC,3182,-37.86261,144.982285,2,1,1,ApartmentUnitFlat,Apartment / Unit / Flat,False,0,m2,False
2018183541,listing,/6-35-grey-street-st-kilda-vic-3182-2018183541,610000,is-sold,Sold at auction 05 Dec 2022,20221205,6/35 Grey Street,ST KILDA,VIC,3182,-37.8610039,144.9782,2,1,,ApartmentUnitFlat,Apartment / Unit / Flat,False,0,m2,False
2018183677,listing,/6-64-fitzroy-street-st-kilda-vic-3182-2018183677,435000,is-sold,Sold at auction 03 Dec 2022,20221203,6/64 Fitzroy Street,ST KILDA,VIC,3182,-37.8590431,144.977753,2,1,1,ApartmentUnitFlat,Apartment / Unit / Flat,False,0,m2,False
2018188870,listing,/2-waterloo-crescent-st-kilda-vic-3182-2018188870,1210000,is-sold,Sold by private treaty 04 Dec 2022,20221204,2 Waterloo Crescent,ST KILDA,VIC,3182,-37.86142,144.982986,3,2,2,Townhouse,Townhouse,False,0,m2,False
2018193842,listing,/10-22-inkerman-street-st-kilda-vic-3182-2018193842,,is-sold,Sold at auction 10 Dec 2022,20221210,10/22 Inkerman Street,ST KILDA,VIC,3182,-37.8639221,144.982712,2,1,1,ApartmentUnitFlat,Apartment / Unit / Flat,False,0,m2,False
2018199814,listing,/1504-3-5-st-kilda-road-st-kilda-vic-3182-2018199814,400000,is-sold,Sold by private treaty 09 Dec 2022,20221209,1504/3-5 St Kilda Road,ST KILDA,VIC,3182,-37.8586845,144.983246,1,1,1,ApartmentUnitFlat,Apartment / Unit / Flat,False,0,m2,False
2018199934,listing,/9-1-crimea-street-st-kilda-vic-3182-2018199934,410000,is-sold,Sold prior to auction 02 Dec 2022,20221202,9/1 Crimea Street,ST KILDA,VIC,3182,-37.85761,144.987976,1,1,1,ApartmentUnitFlat,Apartment / Unit / Flat,False,0,m2,False
2018200551,listing,/23-19-robe-street-st-kilda-vic-3182-2018200551,745000,is-sold,Sold prior to auction 08 Dec 2022,20221208,23/19 Robe Street,ST KILDA,VIC,3182,-37.8650742,144.977722,3,1,1,ApartmentUnitFlat,Apartment / Unit / Flat,False,0,m2,False
2018204883,listing,/3g-12-marine-parade-st-kilda-vic-3182-2018204883,685000,is-sold,Sold at auction 10 Dec 2022,20221210,3G/12 Marine Parade,ST KILDA,VIC,3182,-37.8701172,144.976654,2,1,1,ApartmentUnitFlat,Apartment / Unit / Flat,False,0,m2,False
2018207674,listing,/12a-86-park-street-st-kilda-west-vic-3182-2018207674,453000,is-sold,Sold at auction 10 Dec 2022,20221210,12A/86 Park Street,ST KILDA WEST,VIC,3182,-37.8567543,144.9702,2,1,1,ApartmentUnitFlat,Apartment / Unit / Flat,False,0,m2,False
2018210302,listing,/8-98-grey-street-st-kilda-vic-3182-2018210302,610000,is-sold,Sold prior to auction 09 Dec 2022,20221209,8/98 Grey Street,ST KILDA,VIC,3182,-37.8636322,144.98143,2,1,,ApartmentUnitFlat,Apartment / Unit / Flat,False,0,m2,False
2018213347,listing,/227-135-inkerman-street-st-kilda-vic-3182-2018213347,440000,is-sold,Sold by private treaty 07 Dec 2022,20221207,227/135 Inkerman Street,ST KILDA,VIC,3182,-37.86502,144.987671,2,1,1,ApartmentUnitFlat,Apartment / Unit / Flat,False,0,m2,False
2018235274,listing,/32-3-herbert-street-st-kilda-vic-3182-2018235274,330000,is-sold,Sold by private treaty 13 Dec 2022,20221213,32/3 Herbert Street,ST KILDA,VIC,3182,-37.8707161,144.982,1,1,,ApartmentUnitFlat,Apartment / Unit / Flat,False,0,m2,False
2018298132,listing,/st-kilda-vic-3182-2018298132,2100000,is-sold,Sold by private treaty 13 Dec 2022,20221213,,ST KILDA,VIC,3182,-37.864,144.982,3,2,3,ApartmentUnitFlat,Apartment / Unit / Flat,False,0,m2,False
2017852517,listing,/46-dalgety-street-st-kilda-vic-3182-2017852517,,is-sold,Sold by private treaty 28 Nov 2022,20221128,46 Dalgety Street,ST KILDA,VIC,3182,-37.85939,144.9807,4,3,2,House,House,False,0,m2,False
2017945335,listing,/6-88-blessington-street-st-kilda-vic-3182-2017945335,505000,is-sold,Sold by private treaty 24 Nov 2022,20221124,6/88 Blessington Street,ST KILDA,VIC,3182,-37.8683319,144.985382,2,1,1,ApartmentUnitFlat,Apartment / Unit / Flat,False,0,m2,False
2018029890,listing,/2b-21-the-esplanade-st-kilda-vic-3182-2018029890,,is-sold,Sold by private treaty 24 Nov 2022,20221124,2b/21 The Esplanade,ST KILDA,VIC,3182,-37.86599,144.975418,1,1,1,ApartmentUnitFlat,Apartment / Unit / Flat,False,0,m2,False
2018084304,listing,/111-363-beaconsfield-parade-st-kilda-west-vic-3182-2018084304,300000,is-sold,Sold by private treaty 01 Dec 2022,20221201,111/363 Beaconsfield Parade,ST KILDA WEST,VIC,3182,-37.86106,144.9732,1,1,,ApartmentUnitFlat,Apartment / Unit / Flat,False,0,m2,False
2018107583,listing,/402-315-beaconsfield-parade-st-kilda-west-vic-3182-2018107583,1750000,is-sold,Sold by private treaty 28 Nov 2022,20221128,402/315 Beaconsfield Parade,ST KILDA WEST,VIC,3182,-37.85662,144.967255,3,2,2,ApartmentUnitFlat,Apartment / Unit / Flat,False,0,m2,False
2018108941,listing,/404-3-5-st-kilda-road-st-kilda-vic-3182-2018108941,387000,is-sold,Sold by private treaty 23 Nov 2022,20221123,404/3-5 St Kilda Road,ST KILDA,VIC,3182,-37.8586845,144.983246,1,1,1,ApartmentUnitFlat,Apartment / Unit / Flat,False,0,m2,False
2018111788,listing,/14-3-alfred-square-st-kilda-vic-3182-2018111788,713950,is-sold,Sold by private treaty 28 Nov 2022,20221128,14/3 Alfred Square,ST KILDA,VIC,3182,-37.8642654,144.974213,2,1,1,ApartmentUnitFlat,Apartment / Unit / Flat,False,0,m2,False
2018135230,listing,/2-50-carlisle-street-st-kilda-vic-3182-2018135230,170000,is-sold,Sold by private treaty 22 Nov 2022,20221122,2/50 Carlisle Street,ST KILDA,VIC,3182,-37.867115,144.983261,,1,,Studio,Studio,False,0,m2,False
2018141176,listing,/5-43-44-marine-parade-st-kilda-vic-3182-2018141176,620000,is-sold,Sold by private treaty 29 Nov 2022,20221129,5/43-44 Marine Parade,ST KILDA,VIC,3182,-37.874218,144.9772,2,2,1,ApartmentUnitFlat,Apartment / Unit / Flat,False,0,m2,False
2018142437,listing,/12-343-beaconsfield-parade-st-kilda-west-vic-3182-2018142437,,is-sold,Sold at auction 23 Nov 2022,20221123,12/343 Beaconsfield Parade,ST KILDA WEST,VIC,3182,-37.8587456,144.971,3,2,1,ApartmentUnitFlat,Apartment / Unit / Flat,False,0,m2,False
2018150029,listing,/26-128-140-chapel-street-st-kilda-vic-3182-2018150029,555000,is-sold,Sold at auction 30 Nov 2022,20221130,26/128-140 Chapel Street,ST KILDA,VIC,3182,-37.86951,144.990311,2,1,1,ApartmentUnitFlat,Apartment / Unit / Flat,False,0,m2,False
2018155368,listing,/5-45-clyde-street-st-kilda-vic-3182-2018155368,390000,is-sold,Sold by private treaty 30 Nov 2022,20221130,5/45 Clyde Street,ST KILDA,VIC,3182,-37.8648643,144.980011,1,1,1,ApartmentUnitFlat,Apartment / Unit / Flat,False,0,m2,False
2018170916,listing,/5-43-acland-street-st-kilda-vic-3182-2018170916,1150000,is-sold,Sold at auction 26 Nov 2022,20221126,5/43 Acland Street,ST KILDA,VIC,3182,-37.8648033,144.975769,2,1,1,ApartmentUnitFlat,Apartment / Unit / Flat,False,0,m2,False
2018172268,listing,/12-41-chapel-street-st-kilda-vic-3182-2018172268,677500,is-sold,Sold at auction 26 Nov 2022,20221126,12/41 Chapel Street,ST KILDA,VIC,3182,-37.8608932,144.991165,3,1,1,ApartmentUnitFlat,Apartment / Unit / Flat,False,0,m2,False
2018180822,listing,/302-109-inkerman-street-st-kilda-vic-3182-2018180822,395000,is-sold,Sold by private treaty 29 Nov 2022,20221129,302/109 Inkerman Street,ST KILDA,VIC,3182,-37.8649368,144.986526,1,1,1,ApartmentUnitFlat,Apartment / Unit / Flat,False,0,m2,False
2018187351,listing,/3-5-mary-street-st-kilda-west-vic-3182-2018187351,455000,is-sold,Sold at auction 02 Dec 2022,20221202,3/5 Mary Street,ST KILDA WEST,VIC,3182,-37.8601265,144.972824,1,1,1,ApartmentUnitFlat,Apartment / Unit / Flat,False,0,m2,False
2018203918,listing,/16-340-beaconsfield-parade-st-kilda-west-vic-3182-2018203918,350000,is-sold,Sold prior to auction 01 Dec 2022,20221201,16/340 Beaconsfield Parade,ST KILDA WEST,VIC,3182,-37.8578835,144.969849,,1,1,ApartmentUnitFlat,Apartment / Unit / Flat,False,0,m2,False
2018216289,listing,/109-111-inkerman-street-st-kilda-vic-3182-2018216289,600000,is-sold,Sold by private treaty 28 Nov 2022,20221128,109/111 Inkerman Street,ST KILDA,VIC,3182,-37.8649521,144.986786,2,1,1,ApartmentUnitFlat,Apartment / Unit / Flat,False,0,m2,False
2018222612,listing,/28-10-tennyson-street-st-kilda-vic-3182-2018222612,1246000,is-sold,Sold at auction 01 Dec 2022,20221201,28/10 Tennyson Street,ST KILDA,VIC,3182,-37.870285,144.985413,2,2,3,Townhouse,Townhouse,False,0,m2,False
2018239451,listing,/2-43-gourlay-street-st-kilda-vic-3182-2018239451,1100000,is-sold,Sold by private treaty 29 Nov 2022,20221129,2/43 Gourlay Street,ST KILDA,VIC,3182,-37.8728142,144.997528,2,2,1,Townhouse,Townhouse,False,0,m2,False
2015979512,listing,/306-101-st-kilda-road-st-kilda-vic-3182-2015979512,500000,is-sold,Sold by private treaty 14 Nov 2022,20221114,306/101 St Kilda Road,ST KILDA,VIC,3182,-37.8597679,144.983612,2,2,1,ApartmentUnitFlat,Apartment / Unit / Flat,False,0,m2,False
2016683668,listing,/37-116-inkerman-street-st-kilda-vic-3182-2016683668,205000,is-sold,Sold by private treaty 17 Nov 2022,20221117,37/116 Inkerman Street,ST KILDA,VIC,3182,-37.86448,144.987122,1,1,1,ApartmentUnitFlat,Apartment / Unit / Flat,False,0,m2,False
2017856867,listing,/204-111-inkerman-street-st-kilda-vic-3182-2017856867,370000,is-sold,Sold by private treaty 15 Nov 2022,20221115,204/111 Inkerman Street,ST KILDA,VIC,3182,-37.8649521,144.986786,1,1,1,ApartmentUnitFlat,Apartment / Unit / Flat,False,0,m2,False
2017976750,listing,/32-333-beaconsfield-parade-st-kilda-west-vic-3182-2017976750,592000,is-sold,Sold by private treaty 18 Nov 2022,20221118,32/333 Beaconsfield Parade,ST KILDA WEST,VIC,3182,-37.8576279,144.96933,1,1,1,ApartmentUnitFlat,Apartment / Unit / Flat,False,0,m2,False
2018054039,listing,/215-173-barkly-street-st-kilda-vic-3182-2018054039,439000,is-sold,Sold by private treaty 09 Nov 2022,20221109,215/173 Barkly Street,ST KILDA,VIC,3182,-37.867794,144.9809,2,1,1,ApartmentUnitFlat,Apartment / Unit / Flat,False,0,m2,False
2018079988,listing,/6-91-97-fitzroy-street-st-kilda-vic-3182-2018079988,630000,is-sold,Sold by private treaty 16 Nov 2022,20221116,6/91-97 Fitzroy Street,ST KILDA,VIC,3182,-37.8603973,144.976944,2,2,,ApartmentUnitFlat,Apartment / Unit / Flat,False,0,m2,False
2018089174,listing,/10-47-alma-road-st-kilda-vic-3182-2018089174,415000,is-sold,Sold by private treaty 15 Nov 2022,20221115,10/47 Alma Road,ST KILDA,VIC,3182,-37.8611069,144.987045,1,1,1,ApartmentUnitFlat,Apartment / Unit / Flat,False,0,m2,False
2018089932,listing,/2-95-grey-street-st-kilda-vic-3182-2018089932,540000,is-sold,Sold by private treaty 16 Nov 2022,20221116,2/95 Grey Street,ST KILDA,VIC,3182,-37.8630753,144.980438,2,1,,ApartmentUnitFlat,Apartment / Unit / Flat,False,0,m2,False
2018108363,listing,/21-167-fitzroy-street-st-kilda-vic-3182-2018108363,508960,is-sold,Sold by private treaty 14 Nov 2022,20221114,21/167 Fitzroy Street,ST KILDA,VIC,3182,-37.85855,144.980164,1,1,1,ApartmentUnitFlat,Apartment / Unit / Flat,False,0,m2,False
2018115879,listing,/401-80-carlisle-street-st-kilda-vic-3182-2018115879,380000,is-sold,Sold prior to auction 07 Nov 2022,20221107,401/80 Carlisle Street,ST KILDA,VIC,3182,-37.8675461,144.9853,1,1,1,ApartmentUnitFlat,Apartment / Unit / Flat,False,0,m2,False
2018121836,listing,/206-7-belford-street-st-kilda-vic-3182-2018121836,315000,is-sold,Sold by private treaty 16 Nov 2022,20221116,206/7 Belford Street,ST KILDA,VIC,3182,-37.8679581,144.98053,1,1,1,ApartmentUnitFlat,Apartment / Unit / Flat,False,0,m2,False
2018124650,listing,/14-27-robe-street-st-kilda-vic-3182-2018124650,400000,is-sold,Sold by private treaty 21 Nov 2022,20221121,14/27 Robe Street,ST KILDA,VIC,3182,-37.86487,144.978348,2,1,1,ApartmentUnitFlat,Apartment / Unit / Flat,False,0,m2,False
2018125363,listing,/2-44-waterloo-crescent-st-kilda-vic-3182-2018125363,410000,is-sold,Sold by private treaty 11 Nov 2022,20221111,2/44 Waterloo Crescent,ST KILDA,VIC,3182,-37.8626366,144.98317,1,1,1,ApartmentUnitFlat,Apartment / Unit / Flat,False,0,m2,False
2018126640,listing,/19-358-beaconsfield-parade-st-kilda-west-vic-3182-2018126640,810000,is-sold,Sold by private treaty 07 Nov 2022,20221107,19/358 Beaconsfield Parade,ST KILDA WEST,VIC,3182,-37.8605957,144.97226,2,1,1,ApartmentUnitFlat,Apartment / Unit / Flat,False,0,m2,False
2018136426,listing,/9-25-octavia-street-st-kilda-vic-3182-2018136426,820000,is-sold,Sold prior to auction 11 Nov 2022,20221111,9/25 Octavia Street,ST KILDA,VIC,3182,-37.8580666,144.985413,2,2,1,ApartmentUnitFlat,Apartment / Unit / Flat,False,0,m2,False
2018145258,listing,/367-beaconsfield-parade-st-kilda-west-vic-3182-2018145258,,is-sold,Sold by private treaty 18 Nov 2022,20221118,367 Beaconsfield Parade,ST KILDA WEST,VIC,3182,-37.8612366,144.973511,6,7,6,House,House,False,0,m2,False
2018155020,listing,/2-29-marine-parade-st-kilda-vic-3182-2018155020,,is-sold,Sold at auction 21 Nov 2022,20221121,2/29 Marine Parade,ST KILDA,VIC,3182,-37.8717842,144.976654,2,1,,ApartmentUnitFlat,Apartment / Unit / Flat,False,0,m2,False
2018165963,listing,/4-30-wellington-street-st-kilda-vic-3182-2018165963,340000,is-sold,Sold by private treaty 18 Nov 2022,20221118,4/30 Wellington Street,ST KILDA,VIC,3182,-37.8568764,144.984955,1,1,1,ApartmentUnitFlat,Apartment / Unit / Flat,False,0,m2,False
2018174811,listing,/73-151-fitzroy-street-st-kilda-vic-3182-2018174811,,is-sold,Sold at auction 17 Nov 2022,20221117,73/151 Fitzroy Street,ST KILDA,VIC,3182,-37.8588448,144.9793,2,1,1,ApartmentUnitFlat,Apartment / Unit / Flat,False,0,m2,False
2018239769,listing,/701-6-victoria-street-st-kilda-vic-3182-2018239769,2400000,is-sold,Sold by private treaty 12 Nov 2022,20221112,701/6 Victoria Street,ST KILDA,VIC,3182,-37.86408,144.973511,2,2,2,ApartmentUnitFlat,Apartment / Unit / Flat,False,0,m2,False
2017902228,listing,/13-16-17-marine-parade-st-kilda-vic-3182-2017902228,595000,is-sold,Sold by private treaty 28 Oct 2022,20221028,13/16-17 Marine Parade,ST KILDA,VIC,3182,-37.8705635,144.9765,2,1,,ApartmentUnitFlat,Apartment / Unit / Flat,False,0,m2,False
2017936298,listing,/303-182-barkly-street-st-kilda-vic-3182-2017936298,399000,is-sold,Sold by private treaty 02 Nov 2022,20221102,303/182 Barkly Street,ST KILDA,VIC,3182,-37.8686371,144.981339,1,1,1,ApartmentUnitFlat,Apartment / Unit / Flat,False,0,m2,False
2018001441,listing,/6-47-spenser-street-st-kilda-vic-3182-2018001441,255000,is-sold,Sold by private treaty 04 Nov 2022,20221104,6/47 Spenser Street,ST KILDA,VIC,3182,-37.8712044,144.977554,,1,,Studio,Studio,False,0,m2,False
2018037230,listing,/9-176-barkly-street-st-kilda-vic-3182-2018037230,580000,is-sold,Sold by private treaty 31 Oct 2022,20221031,9/176 Barkly Street,ST KILDA,VIC,3182,-37.86823,144.981247,2,1,,ApartmentUnitFlat,Apartment / Unit / Flat,False,0,m2,False
2018067329,listing,/20-40-waterloo-crescent-st-kilda-vic-3182-2018067329,280000,is-sold,Sold by private treaty 29 Oct 2022,20221029,20/40 Waterloo Crescent,ST KILDA,VIC,3182,-37.8626442,144.983582,1,1,,ApartmentUnitFlat,Apartment / Unit / Flat,False,0,m2,False
2018094016,listing,/2-124-inkerman-street-st-kilda-vic-3182-2018094016,691000,is-sold,Sold by private treaty 04 Nov 2022,20221104,2/124 Inkerman Street,ST KILDA,VIC,3182,-37.86449,144.987564,2,1,,ApartmentUnitFlat,Apartment / Unit / Flat,False,0,m2,False
2018104644,listing,/27-17-robe-street-st-kilda-vic-3182-2018104644,690000,is-sold,Sold at auction 29 Oct 2022,20221029,27/17 Robe Street,ST KILDA,VIC,3182,-37.86533,144.977509,2,2,1,ApartmentUnitFlat,Apartment / Unit / Flat,False,0,m2,False
2018107333,listing,/708-6-victoria-street-st-kilda-vic-3182-2018107333,665000,is-sold,Sold by private treaty 03 Nov 2022,20221103,708/6 Victoria Street,ST KILDA,VIC,3182,-37.86408,144.973511,1,1,1,ApartmentUnitFlat,Apartment / Unit / Flat,False,0,m2,False
2018116542,listing,/4-162-chapel-street-st-kilda-vic-3182-2018116542,316000,is-sold,Sold at auction 05 Nov 2022,20221105,4/162 Chapel Street,ST KILDA,VIC,3182,-37.871048,144.990158,1,1,1,ApartmentUnitFlat,Apartment / Unit / Flat,False,0,m2,False
2018118398,listing,/703-6-victoria-street-st-kilda-vic-3182-2018118398,2200000,is-sold,Sold by private treaty 27 Oct 2022,20221027,703/6 Victoria Street,ST KILDA,VIC,3182,-37.86408,144.973511,2,2,2,ApartmentUnitFlat,Apartment / Unit / Flat,False,0,m2,False
2018122622,listing,/6-77-park-street-st-kilda-west-vic-3182-2018122622,822000,is-sold,Sold at auction 05 Nov 2022,20221105,6/77 Park Street,ST KILDA WEST,VIC,3182,-37.8572578,144.969345,2,1,1,ApartmentUnitFlat,Apartment / Unit / Flat,False,0,m2,False
2018123468,listing,/6-156-carlisle-street-st-kilda-vic-3182-2018123468,626000,is-sold,Sold at auction 05 Nov 2022,20221105,6/156 Carlisle Street,ST KILDA,VIC,3182,-37.867775,144.989288,2,1,,ApartmentUnitFlat,Apartment / Unit / Flat,False,0,m2,False
2018125361,listing,/23-185-barkly-street-st-kilda-vic-3182-2018125361,833000,is-sold,Sold by private treaty 24 Oct 2022,20221024,23/185 Barkly Street,ST KILDA,VIC,3182,-37.8686867,144.980713,2,2,1,ApartmentUnitFlat,Apartment / Unit / Flat,False,0,m2,False
2018125380,listing,/36-vale-street-st-kilda-vic-3182-2018125380,1800000,is-sold,Sold at auction 05 Nov 2022,20221105,36 Vale Street,ST KILDA,VIC,3182,-37.8662224,144.98465,4,2,4,House,House,False,386,m2,False
2018143169,listing,/308-27-31-herbert-street-st-kilda-vic-3182-2018143169,675000,is-sold,Sold prior to auction 30 Oct 2022,20221030,308/27-31 Herbert Street,ST KILDA,VIC,3182,-37.8724327,144.983124,2,2,2,ApartmentUnitFlat,Apartment / Unit / Flat,False,0,m2,False
2018145865,listing,/39-64-fitzroy-street-st-kilda-vic-3182-2018145865,450000,is-sold,Sold by private treaty 03 Nov 2022,20221103,39/64 Fitzroy Street,ST KILDA,VIC,3182,-37.8590431,144.977753,1,1,1,ApartmentUnitFlat,Apartment / Unit / Flat,False,0,m2,False
2018151995,listing,/g04-35-marine-parade-st-kilda-vic-3182-2018151995,,is-sold,Sold by private treaty 27 Oct 2022,20221027,G04/35 Marine Parade,ST KILDA,VIC,3182,-37.872715,144.976974,3,2,2,ApartmentUnitFlat,Apartment / Unit / Flat,False,0,m2,False
2018228452,listing,/52-8-10-the-esplanade-st-kilda-vic-3182-2018228452,,is-sold,Sold by private treaty 01 Nov 2022,20221101,52/8-10 The Esplanade,ST KILDA,VIC,3182,-37.86357,144.972855,3,2,1,ApartmentUnitFlat,Apartment / Unit / Flat,False,0,m2,False
2018234015,listing,/1-38-dalgety-street-st-kilda-vic-3182-2018234015,181500,is-sold,Sold by private treaty 04 Nov 2022,20221104,1/38 Dalgety Street,ST KILDA,VIC,3182,-37.8594856,144.9804,,1,,Studio,Studio,False,0,m2,False
2018298582,listing,/401-181-fitzroy-street-st-kilda-vic-3182-2018298582,1550000,is-sold,Sold by private treaty 04 Nov 2022,20221104,401/181 Fitzroy Street,ST KILDA,VIC,3182,-37.8577881,144.981186,3,2,1,ApartmentUnitFlat,Apartment / Unit / Flat,False,0,m2,False
2017760496,listing,/602-101-st-kilda-road-st-kilda-vic-3182-2017760496,270000,is-sold,Sold by private treaty 23 Oct 2022,20221023,602/101 St Kilda Road,ST KILDA,VIC,3182,-37.8597679,144.983582,1,1,,ApartmentUnitFlat,Apartment / Unit / Flat,False,0,m2,False
2017927859,listing,/4-44-waterloo-crescent-st-kilda-vic-3182-2017927859,527000,is-sold,Sold by private treaty 21 Oct 2022,20221021,4/44 Waterloo Crescent,ST KILDA,VIC,3182,-37.8626366,144.98317,2,1,1,ApartmentUnitFlat,Apartment / Unit / Flat,False,0,m2,False
2017949008,listing,/3-352-canterbury-road-st-kilda-vic-3182-2017949008,270000,is-sold,Sold by private treaty 19 Oct 2022,20221019,3/352 Canterbury Road,ST KILDA,VIC,3182,-37.8590965,144.976929,1,1,1,ApartmentUnitFlat,Apartment / Unit / Flat,False,0,m2,False
2018036419,listing,/7f-12-marine-parade-st-kilda-vic-3182-2018036419,606000,is-sold,Sold by private treaty 17 Oct 2022,20221017,7F/12 Marine Parade,ST KILDA,VIC,3182,-37.8701172,144.976654,1,1,1,ApartmentUnitFlat,Apartment / Unit / Flat,False,0,m2,False
2018074367,listing,/8-52-alma-road-st-kilda-vic-3182-2018074367,280000,is-sold,Sold by private treaty 24 Oct 2022,20221024,8/52 Alma Road,ST KILDA,VIC,3182,-37.8606377,144.987381,1,1,1,ApartmentUnitFlat,Apartment / Unit / Flat,False,0,m2,False
2018076394,listing,/60-octavia-street-st-kilda-vic-3182-2018076394,1440000,is-sold,Sold at auction 14 Oct 2022,20221014,60 Octavia Street,ST KILDA,VIC,3182,-37.85796,144.986633,3,1,,House,House,False,201,m2,False
2018078168,listing,/15-11-17-park-street-st-kilda-west-vic-3182-2018078168,398500,is-sold,Sold by private treaty 19 Oct 2022,20221019,15/11-17 Park Street,ST KILDA WEST,VIC,3182,-37.8605576,144.973679,1,1,1,ApartmentUnitFlat,Apartment / Unit / Flat,False,0,m2,False
2018078530,listing,/2-19-marine-parade-st-kilda-vic-3182-2018078530,615000,is-sold,Sold at auction 15 Oct 2022,20221015,2/19 Marine Parade,ST KILDA,VIC,3182,-37.8708153,144.976517,2,1,,ApartmentUnitFlat,Apartment / Unit / Flat,False,0,m2,False
2018092905,listing,/2-bessiere-place-st-kilda-vic-3182-2018092905,2009000,is-sold,Sold at auction 22 Oct 2022,20221022,2 Bessiere Place,ST KILDA,VIC,3182,-37.8647537,144.975327,3,3,2,House,House,False,0,m2,False
2018094036,listing,/303d-8-blanche-street-st-kilda-vic-3182-2018094036,879000,is-sold,Sold at auction 17 Oct 2022,20221017,303D/8 Blanche Street,ST KILDA,VIC,3182,-37.8652039,144.982574,3,2,1,ApartmentUnitFlat,Apartment / Unit / Flat,False,0,m2,False
2018094120,listing,/71-197-canterbury-road-st-kilda-west-vic-3182-2018094120,605000,is-sold,Sold at auction 22 Oct 2022,20221022,71/197 Canterbury Road,ST KILDA WEST,VIC,3182,-37.8548126,144.971146,1,1,1,ApartmentUnitFlat,Apartment / Unit / Flat,False,0,m2,False
2018094510,listing,/30-neptune-street-st-kilda-vic-3182-2018094510,2000000,is-sold,Sold prior to auction 21 Oct 2022,20221021,30 Neptune Street,ST KILDA,VIC,3182,-37.8627319,144.979187,3,2,,House,House,False,0,m2,False
2018094654,listing,/11-287-barkly-street-st-kilda-vic-3182-2018094654,625000,is-sold,Sold at auction 22 Oct 2022,20221022,11/287 Barkly Street,ST KILDA,VIC,3182,-37.8733,144.979553,2,1,1,ApartmentUnitFlat,Apartment / Unit / Flat,False,0,m2,False
2018094918,listing,/6-240-barkly-street-st-kilda-vic-3182-2018094918,403200,is-sold,Sold prior to auction 20 Oct 2022,20221020,6/240 Barkly Street,ST KILDA,VIC,3182,-37.87224,144.98056,1,1,1,ApartmentUnitFlat,Apartment / Unit / Flat,False,0,m2,False
2018095518,listing,/14a-park-street-st-kilda-west-vic-3182-2018095518,2250000,is-sold,Sold by private treaty 22 Oct 2022,20221022,14a Park Street,ST KILDA WEST,VIC,3182,-37.8600121,144.9739,3,1,2,House,House,False,0,m2,False
2018097895,listing,/76-wellington-street-st-kilda-vic-3182-2018097895,2805000,is-sold,Sold at auction 22 Oct 2022,20221022,76 Wellington Street,ST KILDA,VIC,3182,-37.85731,144.9879,5,2,3,House,House,False,649,m2,False
2018099218,listing,/37b-acland-street-st-kilda-vic-3182-2018099218,,is-sold,Sold by private treaty 20 Oct 2022,20221020,37b Acland Street,ST KILDA,VIC,3182,-37.864193,144.975357,2,1,1,ApartmentUnitFlat,Apartment / Unit / Flat,False,0,m2,False
2018108985,listing,/26-6-redan-street-st-kilda-vic-3182-2018108985,490000,is-sold,Sold by private treaty 24 Oct 2022,20221024,26/6 Redan Street,ST KILDA,VIC,3182,-37.8592567,144.988922,2,1,1,ApartmentUnitFlat,Apartment / Unit / Flat,False,0,m2,False
2018112895,listing,/17-acland-street-st-kilda-vic-3182-2018112895,2500000,is-sold,Sold by private treaty 17 Oct 2022,20221017,17 Acland Street,ST KILDA,VIC,3182,-37.86331,144.974533,5,2,,House,House,False,0,m2,False
2018118982,listing,/17-14-mitford-street-st-kilda-vic-3182-2018118982,330000,is-sold,Sold by private treaty 18 Oct 2022,20221018,17/14 Mitford Street,ST KILDA,VIC,3182,-37.8713722,144.981766,1,1,1,ApartmentUnitFlat,Apartment / Unit / Flat,False,0,m2,False
2017864815,listing,/23-8-10-the-esplanade-st-kilda-vic-3182-2017864815,1030000,is-sold,Sold by private treaty 05 Oct 2022,20221005,23/8-10 The Esplanade,ST KILDA,VIC,3182,-37.86357,144.972855,2,2,1,ApartmentUnitFlat,Apartment / Unit / Flat,False,0,m2,False
2017931575,listing,/303-2-albert-street-st-kilda-vic-3182-2017931575,820000,is-sold,Sold by private treaty 06 Oct 2022,20221006,303/2 Albert Street,ST KILDA,VIC,3182,-37.86714,144.979477,2,2,1,ApartmentUnitFlat,Apartment / Unit / Flat,False,0,m2,False
2017961353,listing,/3202-14-16-the-esplanade-st-kilda-vic-3182-2017961353,,is-sold,Sold by private treaty 06 Oct 2022,20221006,3202/14-16 The Esplanade,ST KILDA,VIC,3182,-37.8650169,144.974686,3,2,2,ApartmentUnitFlat,Apartment / Unit / Flat,False,0,m2,False
2017986552,listing,/501b-21-inkerman-street-st-kilda-vic-3182-2017986552,500000,is-sold,Sold by private treaty 06 Oct 2022,20221006,501B/21 Inkerman Street,ST KILDA,VIC,3182,-37.8644028,144.982849,2,1,1,ApartmentUnitFlat,Apartment / Unit / Flat,False,0,m2,False
2017993777,listing,/2205-14-16-the-esplanade-st-kilda-vic-3182-2017993777,1350000,is-sold,Sold by private treaty 14 Oct 2022,20221014,2205/14-16 The Esplanade,ST KILDA,VIC,3182,-37.8650169,144.974686,2,2,1,ApartmentUnitFlat,Apartment / Unit / Flat,False,0,m2,False
2018005408,listing,/204-173-177-barkly-street-st-kilda-vic-3182-2018005408,325000,is-sold,Sold by private treaty 10 Oct 2022,20221010,204/173-177 Barkly Street,ST KILDA,VIC,3182,-37.8673973,144.981186,1,1,1,ApartmentUnitFlat,Apartment / Unit / Flat,False,0,m2,False
2018021823,listing,/7-18-princes-street-st-kilda-vic-3182-2018021823,638945,is-sold,Sold by private treaty 14 Oct 2022,20221014,7/18 Princes Street,ST KILDA,VIC,3182,-37.85868,144.981628,2,1,,ApartmentUnitFlat,Apartment / Unit / Flat,False,0,m2,False
2018036576,listing,/112-11-15-wellington-street-st-kilda-vic-3182-2018036576,,is-sold,Sold by private treaty 11 Oct 2022,20221011,112/11-15 Wellington Street,ST KILDA,VIC,3182,-37.8563728,144.984375,2,1,1,ApartmentUnitFlat,Apartment / Unit / Flat,False,0,m2,False
2018048590,listing,/3-9-charles-street-st-kilda-vic-3182-2018048590,,is-sold,Sold by private treaty 11 Oct 2022,20221011,3/9 Charles Street,ST KILDA,VIC,3182,-37.8634071,144.9828,1,1,,ApartmentUnitFlat,Apartment / Unit / Flat,False,0,m2,False
2018054591,listing,/15-19-mitford-street-st-kilda-vic-3182-2018054591,855000,is-sold,Sold at auction 06 Oct 2022,20221006,15/19 Mitford Street,ST KILDA,VIC,3182,-37.8718948,144.981171,3,2,2,ApartmentUnitFlat,Apartment / Unit / Flat,False,0,m2,False
2018054689,listing,/6-149-fitzroy-street-st-kilda-vic-3182-2018054689,579999,is-sold,Sold by private treaty 14 Oct 2022,20221014,6/149 Fitzroy Street,ST KILDA,VIC,3182,-37.8592453,144.978714,1,1,1,ApartmentUnitFlat,Apartment / Unit / Flat,False,0,m2,False
2018067034,listing,/10-16-charnwood-road-st-kilda-vic-3182-2018067034,685000,is-sold,Sold at auction 04 Oct 2022,20221004,10/16 Charnwood Road,ST KILDA,VIC,3182,-37.858387,144.985489,2,1,,ApartmentUnitFlat,Apartment / Unit / Flat,False,0,m2,False
2018074457,listing,/4-61-blessington-street-st-kilda-vic-3182-2018074457,900500,is-sold,Sold prior to auction 07 Oct 2022,20221007,4/61 Blessington Street,ST KILDA,VIC,3182,-37.8690147,144.984985,2,1,1,ApartmentUnitFlat,Apartment / Unit / Flat,False,0,m2,False
2018083506,listing,/6-260-st-kilda-road-st-kilda-vic-3182-2018083506,535000,is-sold,Sold by private treaty 12 Oct 2022,20221012,6/260 St Kilda Road,ST KILDA,VIC,3182,-37.8619347,144.985138,2,1,1,ApartmentUnitFlat,Apartment / Unit / Flat,False,0,m2,False
2018092537,listing,/3-3-lambeth-place-st-kilda-vic-3182-2018092537,1025000,is-sold,Sold by private treaty 14 Oct 2022,20221014,3/3 Lambeth Place,ST KILDA,VIC,3182,-37.86155,144.987534,2,1,1,ApartmentUnitFlat,Apartment / Unit / Flat,False,0,m2,False
2018094234,listing,/4-128-140-chapel-street-st-kilda-vic-3182-2018094234,866000,is-sold,Sold at auction 12 Oct 2022,20221012,4/128-140 Chapel Street,ST KILDA,VIC,3182,-37.86951,144.990311,3,2,2,Townhouse,Townhouse,False,0,m2,False
2018095025,listing,/106-182-barkly-street-st-kilda-vic-3182-2018095025,397500,is-sold,Sold by private treaty 05 Oct 2022,20221005,106/182 Barkly Street,ST KILDA,VIC,3182,-37.8686371,144.981339,1,1,1,ApartmentUnitFlat,Apartment / Unit / Flat,False,0,m2,False
2018101960,listing,/17-market-street-st-kilda-vic-3182-2018101960,,is-sold,Sold by private treaty 06 Oct 2022,20221006,17 Market Street,ST KILDA,VIC,3182,-37.8658524,144.984512,3,2,2,Townhouse,Townhouse,False,0,m2,False
2018108425,listing,/304-40-pakington-street-st-kilda-vic-3182-2018108425,310000,is-sold,Sold by private treaty 12 Oct 2022,20221012,304/40 Pakington Street,ST KILDA,VIC,3182,-37.86576,144.988083,1,1,1,ApartmentUnitFlat,Apartment / Unit / Flat,False,0,m2,False
2018110089,listing,/7-149-fitzroy-street-st-kilda-vic-3182-2018110089,529000,is-sold,Sold at auction 10 Oct 2022,20221010,7/149 Fitzroy Street,ST KILDA,VIC,3182,-37.8592453,144.978714,1,1,1,ApartmentUnitFlat,Apartment / Unit / Flat,False,0,m2,False
2017604931,listing,/7-69-wellington-street-st-kilda-vic-3182-2017604931,515000,is-sold,Sold by private treaty 21 Sep 2022,20220921,7/69 Wellington Street,ST KILDA,VIC,3182,-37.85662,144.987259,2,1,1,ApartmentUnitFlat,Apartment / Unit / Flat,False,0,m2,False
2017663197,listing,/609-6-st-kilda-road-st-kilda-vic-3182-2017663197,499000,is-sold,Sold by private treaty 29 Sep 2022,20220929,609/6 St Kilda Road,ST KILDA,VIC,3182,-37.8566856,144.983444,2,2,1,ApartmentUnitFlat,Apartment / Unit / Flat,False,0,m2,False
2017765072,listing,/305b-21-inkerman-street-st-kilda-vic-3182-2017765072,398500,is-sold,Sold by private treaty 30 Sep 2022,20220930,305b/21 Inkerman Street,ST KILDA,VIC,3182,-37.8644028,144.982849,1,1,1,ApartmentUnitFlat,Apartment / Unit / Flat,False,0,m2,False
2017772887,listing,/6-347-beaconsfield-parade-st-kilda-west-vic-3182-2017772887,910000,is-sold,Sold at auction 23 Sep 2022,20220923,6/347 Beaconsfield Parade,ST KILDA WEST,VIC,3182,-37.8591042,144.971313,2,2,2,ApartmentUnitFlat,Apartment / Unit / Flat,False,0,m2,False
2017797798,listing,/11-13-the-esplanade-st-kilda-vic-3182-2017797798,,is-sold,Sold by private treaty 26 Sep 2022,20220926,11/13 The Esplanade,ST KILDA,VIC,3182,-37.8645554,144.9733,1,1,1,ApartmentUnitFlat,Apartment / Unit / Flat,False,0,m2,False
2017866695,listing,/114-3-5-st-kilda-road-st-kilda-vic-3182-2017866695,362500,is-sold,Sold by private treaty 27 Sep 2022,20220927,114/3-5 St Kilda Road,ST KILDA,VIC,3182,-37.8586845,144.983246,1,1,1,ApartmentUnitFlat,Apartment / Unit / Flat,False,0,m2,False
2017885850,listing,/405-196-st-kilda-road-st-kilda-vic-3182-2017885850,495000,is-sold,Sold by private treaty 19 Sep 2022,20220919,405/196 St Kilda Road,ST KILDA,VIC,3182,-37.8618355,144.985321,2,1,2,ApartmentUnitFlat,Apartment / Unit / Flat,False,0,m2,False
2017957604,listing,/4-8-mitford-street-st-kilda-vic-3182-2017957604,492000,is-sold,Sold by private treaty 18 Sep 2022,20220918,4/8 Mitford Street,ST KILDA,VIC,3182,-37.8707275,144.981384,2,1,1,ApartmentUnitFlat,Apartment / Unit / Flat,False,0,m2,False
2017992077,listing,/49-116-inkerman-street-st-kilda-vic-3182-2017992077,182500,is-sold,Sold by private treaty 24 Sep 2022,20220924,49/116 Inkerman Street,ST KILDA,VIC,3182,-37.86448,144.987122,,1,,Studio,Studio,False,0,m2,False
2018005019,listing,/1210-3-5-st-kilda-road-st-kilda-vic-3182-2018005019,640000,is-sold,Sold by private treaty 19 Sep 2022,20220919,1210/3-5 St Kilda Road,ST KILDA,VIC,3182,-37.8586845,144.983246,2,1,1,ApartmentUnitFlat,Apartment / Unit / Flat,False,0,m2,False
2018015322,listing,/5-233-canterbury-road-st-kilda-west-vic-3182-2018015322,330000,is-sold,Sold by private treaty 21 Sep 2022,20220921,5/233 Canterbury Road,ST KILDA WEST,VIC,3182,-37.85915,144.9762,1,1,1,ApartmentUnitFlat,Apartment / Unit / Flat,False,0,m2,False
2018017106,listing,/12-17-redan-street-st-kilda-vic-3182-2018017106,625000,is-sold,Sold at auction 18 Sep 2022,20220918,12/17 Redan Street,ST KILDA,VIC,3182,-37.86019,144.989563,3,1,1,ApartmentUnitFlat,Apartment / Unit / Flat,False,0,m2,False
2018017122,listing,/2-128-140-chapel-street-st-kilda-vic-3182-2018017122,855500,is-sold,Sold at auction 18 Sep 2022,20220918,2/128-140 Chapel Street,ST KILDA,VIC,3182,-37.86951,144.990311,3,2,2,Townhouse,Townhouse,False,0,m2,False
2018021172,listing,/1-116-argyle-street-st-kilda-vic-3182-2018021172,1316000,is-sold,Sold at auction 17 Sep 2022,20220917,1/116 Argyle Street,ST KILDA,VIC,3182,-37.86298,144.989624,4,2,1,Townhouse,Townhouse,False,0,m2,False
2018028336,listing,/202-111-inkerman-street-st-kilda-vic-3182-2018028336,501000,is-sold,Sold by private treaty 26 Sep 2022,20220926,202/111 Inkerman Street,ST KILDA,VIC,3182,-37.8649521,144.986786,2,2,1,ApartmentUnitFlat,Apartment / Unit / Flat,False,0,m2,False
2018045391,listing,/22-17-robe-street-st-kilda-vic-3182-2018045391,665000,is-sold,Sold at auction 01 Oct 2022,20221001,22/17 Robe Street,ST KILDA,VIC,3182,-37.86533,144.977509,2,2,1,ApartmentUnitFlat,Apartment / Unit / Flat,False,0,m2,False
2018047926,listing,/9c-12-marine-parade-st-kilda-vic-3182-2018047926,456000,is-sold,Sold at auction 01 Oct 2022,20221001,9C/12 Marine Parade,ST KILDA,VIC,3182,-37.8701172,144.976654,1,1,,ApartmentUnitFlat,Apartment / Unit / Flat,False,0,m2,False
2018052542,listing,/17-133-135-fitzroy-street-st-kilda-vic-3182-2018052542,830000,is-sold,Sold by private treaty 04 Oct 2022,20221004,17/133-135 Fitzroy Street,ST KILDA,VIC,3182,-37.8597679,144.978485,2,1,1,ApartmentUnitFlat,Apartment / Unit / Flat,False,0,m2,False
2018054445,listing,/11-19-mitford-street-st-kilda-vic-3182-2018054445,556000,is-sold,Sold at auction 01 Oct 2022,20221001,11/19 Mitford Street,ST KILDA,VIC,3182,-37.8718948,144.981171,2,2,1,ApartmentUnitFlat,Apartment / Unit / Flat,False,0,m2,False
2018161714,listing,/202-181-fitzroy-street-st-kilda-vic-3182-2018161714,720000,is-sold,Sold by private treaty 29 Sep 2022,20220929,202/181 Fitzroy Street,ST KILDA,VIC,3182,-37.8577881,144.981186,2,2,1,ApartmentUnitFlat,Apartment / Unit / Flat,False,0,m2,False
2017610278,listing,/211-129-fitzroy-street-st-kilda-vic-3182-2017610278,1231998,is-sold,Sold by private treaty 15 Sep 2022,20220915,211/129 Fitzroy Street,ST KILDA,VIC,3182,-37.8597527,144.977936,3,2,2,ApartmentUnitFlat,Apartment / Unit / Flat,False,0,m2,False
2017853023,listing,/405-129-fitzroy-street-st-kilda-vic-3182-2017853023,285000,is-sold,Sold by private treaty 09 Sep 2022,20220909,405/129 Fitzroy Street,ST KILDA,VIC,3182,-37.8597527,144.977936,1,1,,ApartmentUnitFlat,Apartment / Unit / Flat,False,0,m2,False
2017872637,listing,/1-81-alma-road-st-kilda-vic-3182-2017872637,670000,is-sold,Sold by private treaty 09 Sep 2022,20220909,1/81 Alma Road,ST KILDA,VIC,3182,-37.8629532,145.003418,3,1,1,ApartmentUnitFlat,Apartment / Unit / Flat,False,0,m2,False
2017874091,listing,/13-12-fitzroy-street-st-kilda-vic-3182-2017874091,361500,is-sold,Sold by private treaty 16 Sep 2022,20220916,13/12 Fitzroy Street,ST KILDA,VIC,3182,-37.8613319,144.973969,1,1,1,ApartmentUnitFlat,Apartment / Unit / Flat,False,0,m2,False
2017925032,listing,/304-126-chapel-street-st-kilda-vic-3182-2017925032,355000,is-sold,Sold by private treaty 12 Sep 2022,20220912,304/126 Chapel Street,ST KILDA,VIC,3182,-37.86911,144.990417,1,1,1,ApartmentUnitFlat,Apartment / Unit / Flat,False,0,m2,False
2017945097,listing,/308-129-fitzroy-street-st-kilda-vic-3182-2017945097,385000,is-sold,Sold by private treaty 11 Sep 2022,20220911,308/129 Fitzroy Street,ST KILDA,VIC,3182,-37.8597527,144.977936,,1,1,Studio,Studio,False,0,m2,False
2017967269,listing,/7-38-charnwood-road-st-kilda-vic-3182-2017967269,175000,is-sold,Sold by private treaty 13 Sep 2022,20220913,7/38 Charnwood Road,ST KILDA,VIC,3182,-37.85854,144.987045,,1,1,ApartmentUnitFlat,Apartment / Unit / Flat,False,0,m2,False
2018002107,listing,/14-24-park-street-st-kilda-west-vic-3182-2018002107,705000,is-sold,Sold at auction 10 Sep 2022,20220910,14/24 Park Street,ST KILDA WEST,VIC,3182,-37.8596,144.973633,2,1,1,ApartmentUnitFlat,Apartment / Unit / Flat,False,0,m2,False
2018003394,listing,/106-27-31-herbert-street-st-kilda-vic-3182-2018003394,451000,is-sold,Sold by private treaty 14 Sep 2022,20220914,106/27-31 Herbert Street,ST KILDA,VIC,3182,-37.87231,144.983215,1,1,2,ApartmentUnitFlat,Apartment / Unit / Flat,False,0,m2,False
2018007267,listing,/65-argyle-street-st-kilda-vic-3182-2018007267,1449000,is-sold,Sold by private treaty 15 Sep 2022,20220915,65 Argyle Street,ST KILDA,VIC,3182,-37.8628464,144.986832,3,1,1,House,House,False,293,m2,False
2018007301,listing,/5-70-park-street-st-kilda-west-vic-3182-2018007301,600000,is-sold,Sold by private treaty 14 Sep 2022,20220914,5/70 Park Street,ST KILDA WEST,VIC,3182,-37.857975,144.972244,2,1,1,ApartmentUnitFlat,Apartment / Unit / Flat,False,0,m2,False
2018012223,listing,/11-113-115-chapel-street-st-kilda-vic-3182-2018012223,,is-sold,Sold at auction 08 Sep 2022,20220908,11/113-115 Chapel Street,ST KILDA,VIC,3182,-37.86612,144.990479,2,2,1,ApartmentUnitFlat,Apartment / Unit / Flat,False,0,m2,False
2018012355,listing,/5-75-spenser-street-st-kilda-vic-3182-2018012355,587500,is-sold,Sold prior to auction 10 Sep 2022,20220910,5/75 Spenser Street,ST KILDA,VIC,3182,-37.87263,144.978073,2,1,1,ApartmentUnitFlat,Apartment / Unit / Flat,False,0,m2,False
2018014451,listing,/2-10-tennyson-street-st-kilda-vic-3182-2018014451,1110000,is-sold,Sold at auction 17 Sep 2022,20220917,2/10 Tennyson Street,ST KILDA,VIC,3182,-37.8831253,144.992935,2,2,1,ApartmentUnitFlat,Apartment / Unit / Flat,False,0,m2,False
2018017143,listing,/19-marlton-crescent-st-kilda-vic-3182-2018017143,1726600,is-sold,Sold prior to auction 14 Sep 2022,20220914,19 Marlton Crescent,ST KILDA,VIC,3182,-37.85805,144.989914,3,2,,House,House,False,0,m2,False
2018019007,listing,/1-22b-crimea-street-st-kilda-vic-3182-2018019007,332000,is-sold,Sold at auction 17 Sep 2022,20220917,1/22B Crimea Street,ST KILDA,VIC,3182,-37.85953,144.988373,1,1,,ApartmentUnitFlat,Apartment / Unit / Flat,False,0,m2,False
2018022242,listing,/3-15-marine-parade-st-kilda-vic-3182-2018022242,,is-sold,Sold at auction 17 Sep 2022,20220917,3/15 Marine Parade,ST KILDA,VIC,3182,-37.87056,144.9767,3,2,1,ApartmentUnitFlat,Apartment / Unit / Flat,False,0,m2,False
2018023690,listing,/44-york-street-st-kilda-west-vic-3182-2018023690,3140000,is-sold,Sold at auction 17 Sep 2022,20220917,44 York Street,ST KILDA WEST,VIC,3182,-37.8551178,144.969467,4,1,,House,House,False,312,m2,False
2018023756,listing,/6-17-mitford-street-st-kilda-vic-3182-2018023756,760000,is-sold,Sold at auction 09 Sep 2022,20220909,6/17 Mitford Street,ST KILDA,VIC,3182,-37.8717346,144.981125,2,1,1,ApartmentUnitFlat,Apartment / Unit / Flat,False,0,m2,False
2018051200,listing,/510-181-185-st-kilda-road-st-kilda-vic-3182-2018051200,362000,is-sold,Sold by private treaty 15 Sep 2022,20220915,510/181-185 St Kilda Road,ST KILDA,VIC,3182,-37.8609,144.983856,1,1,1,ApartmentUnitFlat,Apartment / Unit / Flat,False,0,m2,False
2017340528,listing,/45-151-fitzroy-street-st-kilda-vic-3182-2017340528,625000,is-sold,Sold by private treaty 03 Sep 2022,20220903,45/151 Fitzroy Street,ST KILDA,VIC,3182,-37.85911,144.979,2,1,1,ApartmentUnitFlat,Apartment / Unit / Flat,False,0,m2,False
2017423435,listing,/20-36-dalgety-street-st-kilda-vic-3182-2017423435,170000,is-sold,Sold by private treaty 30 Aug 2022,20220830,20/36 Dalgety Street,ST KILDA,VIC,3182,-37.8596153,144.980347,,1,1,Studio,Studio,False,0,m2,False
2017578189,listing,/1403-3-5-st-kilda-road-st-kilda-vic-3182-2017578189,410000,is-sold,Sold by private treaty 02 Sep 2022,20220902,1403/3-5 St Kilda Road,ST KILDA,VIC,3182,-37.8586845,144.983246,1,1,1,ApartmentUnitFlat,Apartment / Unit / Flat,False,0,m2,False
2017729075,listing,/6-86-park-street-st-kilda-west-vic-3182-2017729075,450000,is-sold,Sold by private treaty 27 Aug 2022,20220827,6/86 Park Street,ST KILDA WEST,VIC,3182,-37.8567543,144.9702,2,1,1,ApartmentUnitFlat,Apartment / Unit / Flat,False,0,m2,False
2017841183,listing,/5-82-wellington-street-st-kilda-vic-3182-2017841183,310000,is-sold,Sold by private treaty 31 Aug 2022,20220831,5/82 Wellington Street,ST KILDA,VIC,3182,-37.85739,144.988617,,1,1,Studio,Studio,False,590,m2,False
2017854179,listing,/22-220-barkly-street-st-kilda-vic-3182-2017854179,410000,is-sold,Sold by private treaty 06 Sep 2022,20220906,22/220 Barkly Street,ST KILDA,VIC,3182,-37.8708839,144.980713,1,1,1,ApartmentUnitFlat,Apartment / Unit / Flat,False,0,m2,False
2017877082,listing,/16-50-carlisle-street-st-kilda-vic-3182-2017877082,275000,is-sold,Sold by private treaty 06 Sep 2022,20220906,16/50 Carlisle Street,ST KILDA,VIC,3182,-37.867115,144.983261,1,1,1,ApartmentUnitFlat,Apartment / Unit / Flat,False,0,m2,False
2017887483,listing,/13-octavia-street-st-kilda-vic-3182-2017887483,1470000,is-sold,Sold by private treaty 07 Sep 2022,20220907,13 Octavia Street,ST KILDA,VIC,3182,-37.85801,144.984909,3,2,3,Townhouse,Townhouse,False,0,m2,False
2017900157,listing,/2-6-marriott-street-st-kilda-vic-3182-2017900157,505000,is-sold,Sold by private treaty 31 Aug 2022,20220831,2/6 Marriott Street,ST KILDA,VIC,3182,-37.8632927,144.988266,2,1,1,ApartmentUnitFlat,Apartment / Unit / Flat,False,0,m2,False
2017931453,listing,/2-349-beaconsfield-parade-st-kilda-west-vic-3182-2017931453,670000,is-sold,Sold by private treaty 29 Aug 2022,20220829,2/349 Beaconsfield Parade,ST KILDA WEST,VIC,3182,-37.85957,144.9713,2,1,1,ApartmentUnitFlat,Apartment / Unit / Flat,False,0,m2,False
2017932703,listing,/8-frampton-street-st-kilda-vic-3182-2017932703,1290000,is-sold,Sold at auction 27 Aug 2022,20220827,8 Frampton Street,ST KILDA,VIC,3182,-37.86212,144.986542,3,2,2,House,House,False,239,m2,False
2017949397,listing,/4-252-barkly-street-st-kilda-vic-3182-2017949397,1150000,is-sold,Sold by private treaty 26 Aug 2022,20220826,4/252 Barkly Street,ST KILDA,VIC,3182,-37.87302,144.9809,2,1,1,Townhouse,Townhouse,False,0,m2,False
2017963986,listing,/2-45-clyde-street-st-kilda-vic-3182-2017963986,396000,is-sold,Sold by private treaty 03 Sep 2022,20220903,2/45 Clyde Street,ST KILDA,VIC,3182,-37.8648643,144.980011,1,1,1,ApartmentUnitFlat,Apartment / Unit / Flat,False,0,m2,False
2017982011,listing,/4-193-fitzroy-street-st-kilda-vic-3182-2017982011,442000,is-sold,Sold by private treaty 26 Aug 2022,20220826,4/193 Fitzroy Street,ST KILDA,VIC,3182,-37.857563,144.981812,1,1,,ApartmentUnitFlat,Apartment / Unit / Flat,False,0,m2,False
2017991826,listing,/19-park-lane-st-kilda-west-vic-3182-2017991826,2610000,is-sold,Sold at auction 03 Sep 2022,20220903,19 Park Lane,ST KILDA WEST,VIC,3182,-37.8588448,144.973511,3,2,2,House,House,False,0,m2,False
2018007421,listing,/2-62-alma-road-st-kilda-vic-3182-2018007421,545000,is-sold,Sold by private treaty 02 Sep 2022,20220902,2/62 Alma Road,ST KILDA,VIC,3182,-37.8607,144.988678,2,1,1,ApartmentUnitFlat,Apartment / Unit / Flat,False,0,m2,False
2018009885,listing,/4-13-mitchell-street-st-kilda-vic-3182-2018009885,560000,is-sold,Sold at auction 07 Sep 2022,20220907,4/13 Mitchell Street,ST KILDA,VIC,3182,-37.86828,144.984268,2,1,,ApartmentUnitFlat,Apartment / Unit / Flat,False,0,m2,False
2018021790,listing,/9-41-eildon-road-st-kilda-vic-3182-2018021790,650000,is-sold,Sold at auction 06 Sep 2022,20220906,9/41 Eildon Road,ST KILDA,VIC,3182,-37.8612022,144.978455,2,1,,ApartmentUnitFlat,Apartment / Unit / Flat,False,0,m2,False
2018022245,listing,/18-16a-chapel-street-st-kilda-vic-3182-2018022245,417500,is-sold,Sold by private treaty 29 Aug 2022,20220829,18/16a Chapel Street,ST KILDA,VIC,3182,-37.863266,144.9917,1,1,1,ApartmentUnitFlat,Apartment / Unit / Flat,False,0,m2,False
2018045227,listing,/4-252-barkly-street-st-kilda-vic-3182-2018045227,1150000,is-sold,Sold by private treaty 26 Aug 2022,20220826,4/252 Barkly Street,ST KILDA,VIC,3182,-37.87302,144.9809,2,1,1,Townhouse,Townhouse,False,0,m2,False
2017492578,listing,/5-95-fitzroy-street-st-kilda-vic-3182-2017492578,1650000,is-sold,Sold by private treaty 15 Aug 2022,20220815,5/95 Fitzroy Street,ST KILDA,VIC,3182,-37.8603973,144.976944,2,2,1,Townhouse,Townhouse,False,0,m2,False
2017763432,listing,/7-34-park-street-st-kilda-west-vic-3182-2017763432,655000,is-sold,Sold by private treaty 23 Aug 2022,20220823,7/34 Park Street,ST KILDA WEST,VIC,3182,-37.85928,144.973343,2,1,,ApartmentUnitFlat,Apartment / Unit / Flat,False,0,m2,False
2017792657,listing,/54a-carlisle-street-st-kilda-vic-3182-2017792657,1210000,is-sold,Sold prior to auction 23 Aug 2022,20220823,54a Carlisle Street,ST KILDA,VIC,3182,-37.8672523,144.98349,3,1,,House,House,False,0,m2,False
2017797288,listing,/219-135-inkerman-street-st-kilda-vic-3182-2017797288,410000,is-sold,Sold by private treaty 13 Aug 2022,20220813,219/135 Inkerman Street,ST KILDA,VIC,3182,-37.86502,144.987671,2,1,1,ApartmentUnitFlat,Apartment / Unit / Flat,False,0,m2,False
2017807331,listing,/30-220-barkly-street-st-kilda-vic-3182-2017807331,412000,is-sold,Sold by private treaty 23 Aug 2022,20220823,30/220 Barkly Street,ST KILDA,VIC,3182,-37.8708839,144.980713,1,1,1,ApartmentUnitFlat,Apartment / Unit / Flat,False,0,m2,False
2017842044,listing,/1-52-fitzroy-street-st-kilda-vic-3182-2017842044,750000,is-sold,Sold by private treaty 18 Aug 2022,20220818,1/52 Fitzroy Street,ST KILDA,VIC,3182,-37.8570976,144.981354,2,1,1,Townhouse,Townhouse,False,0,m2,False
2017856886,listing,/2-6-redan-street-st-kilda-vic-3182-2017856886,460000,is-sold,Sold by private treaty 17 Aug 2022,20220817,2/6 Redan Street,ST KILDA,VIC,3182,-37.8592567,144.988922,2,1,1,ApartmentUnitFlat,Apartment / Unit / Flat,False,0,m2,False
2017900622,listing,/6-28-mitford-street-st-kilda-vic-3182-2017900622,630000,is-sold,Sold by private treaty 12 Aug 2022,20220812,6/28 Mitford Street,ST KILDA,VIC,3182,-37.8725166,144.982239,2,1,,ApartmentUnitFlat,Apartment / Unit / Flat,False,0,m2,False
2017901895,listing,/6-58-barkly-street-st-kilda-vic-3182-2017901895,470000,is-sold,Sold by private treaty 24 Aug 2022,20220824,6/58 Barkly Street,ST KILDA,VIC,3182,-37.86134,144.982635,2,1,1,ApartmentUnitFlat,Apartment / Unit / Flat,False,0,m2,False
2017903378,listing,/1-46-wellington-street-st-kilda-vic-3182-2017903378,863000,is-sold,Sold by private treaty 11 Aug 2022,20220811,1/46 Wellington Street,ST KILDA,VIC,3182,-37.85689,144.985764,2,1,1,ApartmentUnitFlat,Apartment / Unit / Flat,False,0,m2,False
2017916636,listing,/26-36-dalgety-street-st-kilda-vic-3182-2017916636,167000,is-sold,Sold by private treaty 17 Aug 2022,20220817,26/36 Dalgety Street,ST KILDA,VIC,3182,-37.8595657,144.980316,,1,,Studio,Studio,False,0,m2,False
2017918425,listing,/4-43-44-marine-parade-st-kilda-vic-3182-2017918425,670000,is-sold,Sold by private treaty 25 Aug 2022,20220825,4/43-44 Marine Parade,ST KILDA,VIC,3182,-37.874218,144.9772,2,2,1,ApartmentUnitFlat,Apartment / Unit / Flat,False,0,m2,False
2017923750,listing,/34-352-canterbury-road-st-kilda-vic-3182-2017923750,650000,is-sold,Sold by private treaty 12 Aug 2022,20220812,34/352 Canterbury Road,ST KILDA,VIC,3182,-37.8590965,144.976929,2,1,2,ApartmentUnitFlat,Apartment / Unit / Flat,False,0,m2,False
2017932748,listing,/39-220-barkly-street-st-kilda-vic-3182-2017932748,999000,is-sold,Sold by private treaty 11 Aug 2022,20220811,39/220 Barkly Street,ST KILDA,VIC,3182,-37.8708839,144.980713,3,2,1,ApartmentUnitFlat,Apartment / Unit / Flat,False,0,m2,False
2017942370,listing,/10-35-carlisle-street-st-kilda-vic-3182-2017942370,742000,is-sold,Sold at auction 13 Aug 2022,20220813,10/35 Carlisle Street,ST KILDA,VIC,3182,-37.8674622,144.981644,2,1,1,ApartmentUnitFlat,Apartment / Unit / Flat,False,0,m2,False
2017945094,listing,/3-3-dalgety-street-st-kilda-vic-3182-2017945094,205000,is-sold,Sold by private treaty 18 Aug 2022,20220818,3/3 Dalgety Street,ST KILDA,VIC,3182,-37.8606339,144.979355,,1,,Studio,Studio,False,0,m2,False
2017954046,listing,/2-128-inkerman-street-st-kilda-vic-3182-2017954046,292000,is-sold,Sold prior to auction 17 Aug 2022,20220817,2/128 Inkerman Street,ST KILDA,VIC,3182,-37.8646927,144.9881,1,1,1,ApartmentUnitFlat,Apartment / Unit / Flat,False,0,m2,False
2017954060,listing,/38a-chapel-street-st-kilda-vic-3182-2017954060,1036000,is-sold,Sold at auction 20 Aug 2022,20220820,38A Chapel Street,ST KILDA,VIC,3182,-37.8648567,144.991211,2,1,1,House,House,False,0,m2,False
2017961616,listing,/4-14-tennyson-street-st-kilda-vic-3182-2017961616,975000,is-sold,Sold at auction 20 Aug 2022,20220820,4/14 Tennyson Street,ST KILDA,VIC,3182,-37.87054,144.985565,2,1,1,ApartmentUnitFlat,Apartment / Unit / Flat,False,0,m2,False
2018039050,listing,/8-pollington-street-st-kilda-vic-3182-2018039050,1230000,is-sold,Sold by private treaty 19 Aug 2022,20220819,8 Pollington Street,ST KILDA,VIC,3182,-37.8636169,144.9734,2,2,2,Townhouse,Townhouse,False,0,m2,False
2017341990,listing,/7-31-york-street-st-kilda-west-vic-3182-2017341990,415000,is-sold,Sold by private treaty 04 Aug 2022,20220804,7/31 York Street,ST KILDA WEST,VIC,3182,-37.85621,144.9704,1,1,1,ApartmentUnitFlat,Apartment / Unit / Flat,False,0,m2,False
2017666601,listing,/2-60-carlisle-street-st-kilda-vic-3182-2017666601,569000,is-sold,Sold by private treaty 09 Aug 2022,20220809,2/60 Carlisle Street,ST KILDA,VIC,3182,-37.8684769,144.992691,1,1,1,ApartmentUnitFlat,Apartment / Unit / Flat,False,0,m2,False
2017821638,listing,/9-25-jackson-street-st-kilda-vic-3182-2017821638,495000,is-sold,Sold by private treaty 03 Aug 2022,20220803,9/25 Jackson Street,ST KILDA,VIC,3182,-37.8620949,144.9762,2,1,2,ApartmentUnitFlat,Apartment / Unit / Flat,False,0,m2,False
2017857592,listing,/10-108-park-street-st-kilda-west-vic-3182-2017857592,450000,is-sold,Sold by private treaty 11 Aug 2022,20220811,10/108 Park Street,ST KILDA WEST,VIC,3182,-37.8561325,144.9689,1,1,1,ApartmentUnitFlat,Apartment / Unit / Flat,False,0,m2,False
2017873477,listing,/2-19-redan-street-st-kilda-vic-3182-2017873477,600000,is-sold,Sold by private treaty 02 Aug 2022,20220802,2/19 Redan Street,ST KILDA,VIC,3182,-37.8602066,144.989792,2,1,1,ApartmentUnitFlat,Apartment / Unit / Flat,False,0,m2,False
2017901577,listing,/207-181-185-st-kilda-road-st-kilda-vic-3182-2017901577,375000,is-sold,Sold by private treaty 02 Aug 2022,20220802,207/181-185 St Kilda Road,ST KILDA,VIC,3182,-37.8609,144.983856,1,1,1,ApartmentUnitFlat,Apartment / Unit / Flat,False,0,m2,False
2017911549,listing,/23-bath-street-st-kilda-vic-3182-2017911549,1050000,is-sold,Sold by private treaty 10 Aug 2022,20220810,23 Bath Street,ST KILDA,VIC,3182,-37.863945,144.9866,2,1,,House,House,False,0,m2,False
2017916343,listing,/302-2-albert-street-st-kilda-vic-3182-2017916343,797000,is-sold,Sold by private treaty 31 Jul 2022,20220731,302/2 Albert Street,ST KILDA,VIC,3182,-37.86714,144.979477,2,2,1,ApartmentUnitFlat,Apartment / Unit / Flat,False,0,m2,False
2017916380,listing,/4-23-25-charnwood-road-st-kilda-vic-3182-2017916380,586000,is-sold,Sold by private treaty 04 Aug 2022,20220804,4/23-25 Charnwood Road,ST KILDA,VIC,3182,-37.85898,144.986618,2,1,1,ApartmentUnitFlat,Apartment / Unit / Flat,False,0,m2,False
2017919772,listing,/8-2-emilton-avenue-st-kilda-vic-3182-2017919772,418750,is-sold,Sold by private treaty 05 Aug 2022,20220805,8/2 Emilton Avenue,ST KILDA,VIC,3182,-37.8621521,144.981689,1,1,1,ApartmentUnitFlat,Apartment / Unit / Flat,False,0,m2,False
2017927894,listing,/107-27-31-herbert-street-st-kilda-vic-3182-2017927894,422500,is-sold,Sold by private treaty 03 Aug 2022,20220803,107/27-31 Herbert Street,ST KILDA,VIC,3182,-37.87231,144.983215,1,1,1,ApartmentUnitFlat,Apartment / Unit / Flat,False,0,m2,False
2017929519,listing,/29-havelock-street-st-kilda-vic-3182-2017929519,1640000,is-sold,Sold at auction 06 Aug 2022,20220806,29 Havelock Street,ST KILDA,VIC,3182,-37.8659935,144.980438,3,1,,House,House,False,0,m2,False
2017931133,listing,/6-38-waterloo-crescent-st-kilda-vic-3182-2017931133,275000,is-sold,Sold by private treaty 04 Aug 2022,20220804,6/38 Waterloo Crescent,ST KILDA,VIC,3182,-37.86265,144.9837,1,1,1,ApartmentUnitFlat,Apartment / Unit / Flat,False,0,m2,False
2017931506,listing,/406-173-barkly-street-st-kilda-vic-3182-2017931506,288000,is-sold,Sold by private treaty 08 Aug 2022,20220808,406/173 Barkly Street,ST KILDA,VIC,3182,-37.867794,144.9809,1,1,,ApartmentUnitFlat,Apartment / Unit / Flat,False,0,m2,False
2017941729,listing,/18-14a-chapel-street-st-kilda-vic-3182-2017941729,720000,is-sold,Sold at auction 06 Aug 2022,20220806,18/14A Chapel Street,ST KILDA,VIC,3182,-37.8625374,144.991638,2,1,1,ApartmentUnitFlat,Apartment / Unit / Flat,False,0,m2,False
2017941776,listing,/15-352-canterbury-road-st-kilda-vic-3182-2017941776,495000,is-sold,Sold by private treaty 08 Aug 2022,20220808,15/352 Canterbury Road,ST KILDA,VIC,3182,-37.8590965,144.976929,1,1,1,ApartmentUnitFlat,Apartment / Unit / Flat,False,0,m2,False
2017942600,listing,/21-313-beaconsfield-parade-st-kilda-west-vic-3182-2017942600,590000,is-sold,Sold at auction 09 Aug 2022,20220809,21/313 Beaconsfield Parade,ST KILDA WEST,VIC,3182,-37.8563881,144.966965,1,1,1,ApartmentUnitFlat,Apartment / Unit / Flat,False,0,m2,False
2017945347,listing,/505-181-st-kilda-road-st-kilda-vic-3182-2017945347,575000,is-sold,Sold by private treaty 01 Aug 2022,20220801,505/181 St Kilda Road,ST KILDA,VIC,3182,-37.8608437,144.984,2,2,1,ApartmentUnitFlat,Apartment / Unit / Flat,False,0,m2,False
2017947503,listing,/9-17-st-leonards-avenue-st-kilda-vic-3182-2017947503,835000,is-sold,Sold at auction 07 Aug 2022,20220807,9/17 St Leonards Avenue,ST KILDA,VIC,3182,-37.86304,144.97789,2,1,1,ApartmentUnitFlat,Apartment / Unit / Flat,False,0,m2,False
2017948726,listing,/12-52-alma-road-st-kilda-vic-3182-2017948726,263500,is-sold,Sold by private treaty 10 Aug 2022,20220810,12/52 Alma Road,ST KILDA,VIC,3182,-37.8606377,144.987381,1,1,1,ApartmentUnitFlat,Apartment / Unit / Flat,False,0,m2,False
2017173042,listing,/5-22-inkerman-street-st-kilda-vic-3182-2017173042,490000,is-sold,Sold by private treaty 29 Jul 2022,20220729,5/22 Inkerman Street,ST KILDA,VIC,3182,-37.8640366,144.982559,1,1,,ApartmentUnitFlat,Apartment / Unit / Flat,False,0,m2,False
2017254776,listing,/25-92-grey-street-st-kilda-vic-3182-2017254776,290000,is-sold,Sold by private treaty 30 Jul 2022,20220730,25/92 Grey Street,ST KILDA,VIC,3182,-37.8632622,144.981033,,1,,ApartmentUnitFlat,Apartment / Unit / Flat,False,0,m2,False
2017722685,listing,/3-2a-robe-street-st-kilda-vic-3182-2017722685,510000,is-sold,Sold by private treaty 29 Jul 2022,20220729,3/2a Robe Street,ST KILDA,VIC,3182,-37.86578,144.975876,2,1,,ApartmentUnitFlat,Apartment / Unit / Flat,False,0,m2,False
2017766379,listing,/49-64-fitzroy-street-st-kilda-vic-3182-2017766379,524000,is-sold,Sold by private treaty 16 Jul 2022,20220716,49/64 Fitzroy Street,ST KILDA,VIC,3182,-37.8590431,144.977753,1,1,1,ApartmentUnitFlat,Apartment / Unit / Flat,False,0,m2,False
2017793674,listing,/4-havelock-street-st-kilda-vic-3182-2017793674,1480000,is-sold,Sold prior to auction 30 Jul 2022,20220730,4 Havelock Street,ST KILDA,VIC,3182,-37.8667259,144.978638,3,3,2,House,House,False,0,m2,False
2017807012,listing,/16-16a-128-chapel-street-st-kilda-vic-3182-2017807012,770000,is-sold,Sold by private treaty 18 Jul 2022,20220718,16 & 16A/128 Chapel Street,ST KILDA,VIC,3182,-37.8694267,144.990326,2,1,2,ApartmentUnitFlat,Apartment / Unit / Flat,False,0,m2,False
2017827044,listing,/7-70-park-street-st-kilda-west-vic-3182-2017827044,620000,is-sold,Sold at auction 26 Jul 2022,20220726,7/70 Park Street,ST KILDA WEST,VIC,3182,-37.857975,144.972244,2,1,1,ApartmentUnitFlat,Apartment / Unit / Flat,False,0,m2,False
2017869215,listing,/403-111-inkerman-street-st-kilda-vic-3182-2017869215,370000,is-sold,Sold by private treaty 23 Jul 2022,20220723,403/111 Inkerman Street,ST KILDA,VIC,3182,-37.8649521,144.986786,1,1,1,ApartmentUnitFlat,Apartment / Unit / Flat,False,0,m2,False
2017882321,listing,/3-63-carlisle-street-st-kilda-vic-3182-2017882321,530000,is-sold,Sold by private treaty 19 Jul 2022,20220719,3/63 Carlisle Street,ST KILDA,VIC,3182,-37.86766,144.983414,2,1,1,ApartmentUnitFlat,Apartment / Unit / Flat,False,0,m2,False
2017895847,listing,/121-135-inkerman-street-st-kilda-vic-3182-2017895847,490000,is-sold,Sold at auction 31 Jul 2022,20220731,121/135 Inkerman Street,ST KILDA,VIC,3182,-37.86502,144.987671,2,1,1,ApartmentUnitFlat,Apartment / Unit / Flat,False,0,m2,False
2017896075,listing,/7-18-chapel-street-st-kilda-vic-3182-2017896075,590000,is-sold,Sold at auction 23 Jul 2022,20220723,7/18 Chapel Street,ST KILDA,VIC,3182,-37.86373,144.9915,2,1,1,ApartmentUnitFlat,Apartment / Unit / Flat,False,0,m2,False
2017896391,listing,/17-2a-robe-street-st-kilda-vic-3182-2017896391,527000,is-sold,Sold prior to auction 21 Jul 2022,20220721,17/2A Robe Street,ST KILDA,VIC,3182,-37.865757,144.975876,2,1,1,ApartmentUnitFlat,Apartment / Unit / Flat,False,0,m2,False
2017896570,listing,/8-44-fitzroy-street-st-kilda-vic-3182-2017896570,595000,is-sold,Sold by private treaty 29 Jul 2022,20220729,8/44 Fitzroy Street,ST KILDA,VIC,3182,-37.8601227,144.976242,2,1,,ApartmentUnitFlat,Apartment / Unit / Flat,False,0,m2,False
2017900559,listing,/1307-3-5-st-kilda-road-st-kilda-vic-3182-2017900559,500000,is-sold,Sold by private treaty 16 Jul 2022,20220716,1307/3-5 St Kilda Road,ST KILDA,VIC,3182,-37.8586845,144.983246,1,1,1,ApartmentUnitFlat,Apartment / Unit / Flat,False,0,m2,False
2017900866,listing,/2-1-moroney-street-st-kilda-vic-3182-2017900866,973000,is-sold,Sold at auction 21 Jul 2022,20220721,2/1 Moroney Street,ST KILDA,VIC,3182,-37.86875,144.986847,3,1,1,ApartmentUnitFlat,Apartment / Unit / Flat,False,0,m2,False
2017911127,listing,/2-3-robertson-avenue-st-kilda-vic-3182-2017911127,608000,is-sold,Sold at auction 30 Jul 2022,20220730,2/3 Robertson Avenue,ST KILDA,VIC,3182,-37.85754,144.985733,2,1,,ApartmentUnitFlat,Apartment / Unit / Flat,False,0,m2,False
2017934334,listing,/411-135-inkerman-street-st-kilda-vic-3182-2017934334,530000,is-sold,Sold by private treaty 30 Jul 2022,20220730,411/135 Inkerman Street,ST KILDA,VIC,3182,-37.86502,144.987671,2,2,1,ApartmentUnitFlat,Apartment / Unit / Flat,False,0,m2,False
2017934439,listing,/19-25-redan-street-st-kilda-vic-3182-2017934439,155000,is-sold,Sold by private treaty 29 Jul 2022,20220729,19/25 Redan Street,ST KILDA,VIC,3182,-37.8602448,144.990311,,1,1,Studio,Studio,False,0,m2,False
2017944709,listing,/104-35-marine-parade-st-kilda-vic-3182-2017944709,1380000,is-sold,Sold by private treaty 24 Jul 2022,20220724,104/35 Marine Parade,ST KILDA,VIC,3182,-37.872715,144.976974,2,2,2,ApartmentUnitFlat,Apartment / Unit / Flat,False,0,m2,False
2017946670,listing,/1-35-carlisle-street-st-kilda-vic-3182-2017946670,440000,is-sold,Sold by private treaty 28 Jul 2022,20220728,1/35 Carlisle Street,ST KILDA,VIC,3182,-37.86866,144.991241,1,1,1,ApartmentUnitFlat,Apartment / Unit / Flat,False,0,m2,False
2012348626,listing,/24-23-irwell-street-st-kilda-vic-3182-2012348626,370000,is-sold,Sold by private treaty 15 Jul 2022,20220715,24/23 Irwell Street,ST KILDA,VIC,3182,-37.8673019,144.980423,1,1,,ApartmentUnitFlat,Apartment / Unit / Flat,False,0,m2,False
2017570035,listing,/102-5-greeves-street-st-kilda-vic-3182-2017570035,550000,is-sold,Sold by private treaty 05 Jul 2022,20220705,102/5 Greeves Street,ST KILDA,VIC,3182,-37.8652763,144.983,2,1,1,ApartmentUnitFlat,Apartment / Unit / Flat,False,0,m2,False
2017676952,listing,/207-126-chapel-street-st-kilda-vic-3182-2017676952,445000,is-sold,Sold by private treaty 13 Jul 2022,20220713,207/126 Chapel Street,ST KILDA,VIC,3182,-37.86911,144.990417,2,1,1,ApartmentUnitFlat,Apartment / Unit / Flat,False,0,m2,False
2017711797,listing,/7-4-charlotte-place-st-kilda-vic-3182-2017711797,455000,is-sold,Sold by private treaty 16 Jul 2022,20220716,7/4 Charlotte Place,ST KILDA,VIC,3182,-37.8580551,144.990677,2,1,1,ApartmentUnitFlat,Apartment / Unit / Flat,False,0,m2,False
2017717985,listing,/111a-33-inkerman-street-st-kilda-vic-3182-2017717985,540000,is-sold,Sold by private treaty 15 Jul 2022,20220715,111A/33 Inkerman Street,ST KILDA,VIC,3182,-37.8643532,144.982956,2,1,1,ApartmentUnitFlat,Apartment / Unit / Flat,False,0,m2,False
2017763946,listing,/202-7-greeves-street-st-kilda-vic-3182-2017763946,,is-sold,Sold by private treaty 12 Jul 2022,20220712,202/7 Greeves Street,ST KILDA,VIC,3182,-37.864933,144.983566,2,1,1,ApartmentUnitFlat,Apartment / Unit / Flat,False,0,m2,False
2017798616,listing,/2-mitchell-street-st-kilda-vic-3182-2017798616,1580000,is-sold,Sold by private treaty 10 Jul 2022,20220710,2 Mitchell Street,ST KILDA,VIC,3182,-37.86794,144.982681,3,2,,House,House,False,235,m2,False
2017799666,listing,/18-36-dalgety-street-st-kilda-vic-3182-2017799666,160000,is-sold,Sold by private treaty 15 Jul 2022,20220715,18/36 Dalgety Street,ST KILDA,VIC,3182,-37.8595657,144.980316,,1,,ApartmentUnitFlat,Apartment / Unit / Flat,False,0,m2,False
2017815879,listing,/13-225-canterbury-road-st-kilda-west-vic-3182-2017815879,380000,is-sold,Sold by private treaty 15 Jul 2022,20220715,13/225 Canterbury Road,ST KILDA WEST,VIC,3182,-37.857933,144.974472,1,1,1,ApartmentUnitFlat,Apartment / Unit / Flat,False,0,m2,False
2017828957,listing,/3-44-wellington-street-st-kilda-vic-3182-2017828957,690000,is-sold,Sold at auction 05 Jul 2022,20220705,3/44 Wellington Street,ST KILDA,VIC,3182,-37.856945,144.985687,2,1,1,ApartmentUnitFlat,Apartment / Unit / Flat,False,0,m2,False
2017867942,listing,/19-odessa-street-st-kilda-vic-3182-2017867942,2150000,is-sold,Sold at auction 12 Jul 2022,20220712,19 Odessa Street,ST KILDA,VIC,3182,-37.8625946,144.988266,5,2,2,House,House,False,412,m2,False
2017868473,listing,/2-21-redan-street-st-kilda-vic-3182-2017868473,485000,is-sold,Sold at auction 09 Jul 2022,20220709,2/21 Redan Street,ST KILDA,VIC,3182,-37.8602142,144.990036,1,1,1,ApartmentUnitFlat,Apartment / Unit / Flat,False,0,m2,False
2017871894,listing,/20-robe-street-st-kilda-vic-3182-2017871894,2395000,is-sold,Sold at auction 09 Jul 2022,20220709,20 Robe Street,ST KILDA,VIC,3182,-37.864006,144.9786,2,1,2,House,House,False,336,m2,False
2017872229,listing,/306-111-113-inkerman-street-st-kilda-vic-3182-2017872229,,is-sold,Sold at auction 09 Jul 2022,20220709,306/111-113 Inkerman Street,ST KILDA,VIC,3182,-37.86491,144.9868,2,1,1,ApartmentUnitFlat,Apartment / Unit / Flat,False,0,m2,False
2017872237,listing,/2-29-spenser-street-st-kilda-vic-3182-2017872237,527500,is-sold,Sold by private treaty 06 Jul 2022,20220706,2/29 Spenser Street,ST KILDA,VIC,3182,-37.87047,144.977234,2,1,1,ApartmentUnitFlat,Apartment / Unit / Flat,False,0,m2,False
2017873116,listing,/47-116-inkerman-street-st-kilda-vic-3182-2017873116,225000,is-sold,Sold by private treaty 16 Jul 2022,20220716,47/116 Inkerman Street,ST KILDA,VIC,3182,-37.86448,144.987122,,1,1,Studio,Studio,False,0,m2,False
2017880739,listing,/41-octavia-street-st-kilda-vic-3182-2017880739,1705000,is-sold,Sold at auction 16 Jul 2022,20220716,41 Octavia Street,ST KILDA,VIC,3182,-37.8582,144.9863,3,1,,House,House,False,0,m2,False
2017886128,listing,/38-18-the-esplanade-st-kilda-vic-3182-2017886128,850000,is-sold,Sold at auction 14 Jul 2022,20220714,38/18 The Esplanade,ST KILDA,VIC,3182,-37.86588,144.975,3,2,1,ApartmentUnitFlat,Apartment / Unit / Flat,False,0,m2,False
2017901662,listing,/4-3-herbert-street-st-kilda-vic-3182-2017901662,440000,is-sold,Sold by private treaty 09 Jul 2022,20220709,4/3 Herbert Street,ST KILDA,VIC,3182,-37.8707161,144.982,1,1,1,ApartmentUnitFlat,Apartment / Unit / Flat,False,0,m2,False
2017922266,listing,/104-54-chapel-street-st-kilda-vic-3182-2017922266,,is-sold,Sold by private treaty 14 Jul 2022,20220714,104/54 Chapel Street,ST KILDA,VIC,3182,-37.8660965,144.990982,2,2,1,ApartmentUnitFlat,Apartment / Unit / Flat,False,0,m2,False
2017090604,listing,/65-carlisle-street-st-kilda-vic-3182-2017090604,2350000,is-sold,Sold by private treaty 24 Jun 2022,20220624,65 Carlisle Street,ST KILDA,VIC,3182,-37.86768,144.983582,8,4,4,BlockOfUnits,Block of Units,False,0,m2,False
2017631083,listing,/1511-3-5-st-kilda-road-st-kilda-vic-3182-2017631083,765000,is-sold,Sold by private treaty 30 Jun 2022,20220630,1511/3-5 St Kilda Road,ST KILDA,VIC,3182,-37.8586845,144.983246,2,2,1,ApartmentUnitFlat,Apartment / Unit / Flat,False,0,m2,False
2017717986,listing,/37-62-wellington-street-st-kilda-vic-3182-2017717986,455000,is-sold,Sold by private treaty 24 Jun 2022,20220624,37/62 Wellington Street,ST KILDA,VIC,3182,-37.85731,144.987045,1,1,1,ApartmentUnitFlat,Apartment / Unit / Flat,False,0,m2,False
2017720700,listing,/711-3-5-st-kilda-street-st-kilda-vic-3182-2017720700,628000,is-sold,Sold at auction 30 Jun 2022,20220630,711/3-5 St Kilda Street,ST KILDA,VIC,3182,-37.8586845,144.983246,2,2,1,ApartmentUnitFlat,Apartment / Unit / Flat,False,0,m2,False
2017757589,listing,/2-76-carlisle-street-st-kilda-vic-3182-2017757589,630000,is-sold,Sold by private treaty 21 Jun 2022,20220621,2/76 Carlisle Street,ST KILDA,VIC,3182,-37.8674622,144.985092,2,1,1,ApartmentUnitFlat,Apartment / Unit / Flat,False,0,m2,False
2017785532,listing,/5-25-vale-street-st-kilda-vic-3182-2017785532,730000,is-sold,Sold by private treaty 22 Jun 2022,20220622,5/25 Vale Street,ST KILDA,VIC,3182,-37.86664,144.984055,2,1,1,ApartmentUnitFlat,Apartment / Unit / Flat,False,0,m2,False
2017795797,listing,/g03-24-crimea-street-st-kilda-vic-3182-2017795797,422000,is-sold,Sold by private treaty 28 Jun 2022,20220628,G03/24 Crimea Street,ST KILDA,VIC,3182,-37.8599548,144.988159,1,1,1,ApartmentUnitFlat,Apartment / Unit / Flat,False,0,m2,False
2017813610,listing,/207-43-duke-street-st-kilda-vic-3182-2017813610,535000,is-sold,Sold by private treaty 27 Jun 2022,20220627,207/43 Duke Street,ST KILDA,VIC,3182,-37.8676224,144.990219,2,1,1,ApartmentUnitFlat,Apartment / Unit / Flat,False,0,m2,False
2017826791,listing,/3-37-crimea-street-st-kilda-vic-3182-2017826791,510000,is-sold,Sold by private treaty 24 Jun 2022,20220624,3/37 Crimea Street,ST KILDA,VIC,3182,-37.8602867,144.987579,2,1,1,ApartmentUnitFlat,Apartment / Unit / Flat,False,0,m2,False
2017831082,listing,/1-32-burnett-street-st-kilda-vic-3182-2017831082,1150000,is-sold,Sold by private treaty 23 Jun 2022,20220623,1/32 Burnett Street,ST KILDA,VIC,3182,-37.860508,144.980927,3,1,,ApartmentUnitFlat,Apartment / Unit / Flat,False,0,m2,False
2017841275,listing,/107-72-acland-street-st-kilda-vic-3182-2017841275,427000,is-sold,Sold by private treaty 25 Jun 2022,20220625,107/72 Acland Street,ST KILDA,VIC,3182,-37.86679,144.978317,1,1,1,ApartmentUnitFlat,Apartment / Unit / Flat,False,0,m2,False
2017843264,listing,/108-173-177-barkly-street-st-kilda-vic-3182-2017843264,475000,is-sold,Sold by private treaty 29 Jun 2022,20220629,108/173-177 Barkly Street,ST KILDA,VIC,3182,-37.8673973,144.981186,2,1,1,ApartmentUnitFlat,Apartment / Unit / Flat,False,0,m2,False
2017843967,listing,/202-8-blanche-street-st-kilda-vic-3182-2017843967,,is-sold,Sold by private treaty 02 Jul 2022,20220702,202/8 Blanche Street,ST KILDA,VIC,3182,-37.86527,144.9824,3,1,1,ApartmentUnitFlat,Apartment / Unit / Flat,False,0,m2,False
2017853278,listing,/4-21-herbert-street-st-kilda-vic-3182-2017853278,1106000,is-sold,Sold at auction 02 Jul 2022,20220702,4/21 Herbert Street,ST KILDA,VIC,3182,-37.871933,144.98262,3,2,1,Townhouse,Townhouse,False,0,m2,False
2017855018,listing,/4-318-beaconsfield-parade-st-kilda-west-vic-3182-2017855018,401000,is-sold,Sold by private treaty 25 Jun 2022,20220625,4/318 Beaconsfield Parade,ST KILDA WEST,VIC,3182,-37.8570137,144.967468,1,1,,ApartmentUnitFlat,Apartment / Unit / Flat,False,0,m2,False
2017855090,listing,/27-220-barkly-street-st-kilda-vic-3182-2017855090,620000,is-sold,Sold at auction 02 Jul 2022,20220702,27/220 Barkly Street,ST KILDA,VIC,3182,-37.8708839,144.980713,2,2,1,ApartmentUnitFlat,Apartment / Unit / Flat,False,0,m2,False
2017855403,listing,/g03-54-56-chapel-street-st-kilda-vic-3182-2017855403,,is-sold,Sold by private treaty 23 Jun 2022,20220623,G03/54-56 Chapel Street,ST KILDA,VIC,3182,-37.8558655,144.992783,2,2,1,ApartmentUnitFlat,Apartment / Unit / Flat,False,0,m2,False
2017859892,listing,/61-acland-street-st-kilda-vic-3182-2017859892,1395000,is-sold,Sold prior to auction 23 Jun 2022,20220623,61 Acland Street,ST KILDA,VIC,3182,-37.86604,144.977051,3,1,,House,House,False,222,m2,False
2017880256,listing,/5-60-carlisle-street-st-kilda-vic-3182-2017880256,500000,is-sold,Sold by private treaty 21 Jun 2022,20220621,5/60 Carlisle Street,ST KILDA,VIC,3182,-37.8673477,144.983948,1,1,1,ApartmentUnitFlat,Apartment / Unit / Flat,False,0,m2,False
2017937269,listing,/g03-24-crimea-street-st-kilda-vic-3182-2017937269,422000,is-sold,Sold by private treaty 28 Jun 2022,20220628,G03/24 Crimea Street,ST KILDA,VIC,3182,-37.8599548,144.988159,1,1,1,ApartmentUnitFlat,Apartment / Unit / Flat,False,0,m2,False
2017643571,listing,/17-6-redan-street-st-kilda-vic-3182-2017643571,445000,is-sold,Sold at auction 10 Jun 2022,20220610,17/6 Redan Street,ST KILDA,VIC,3182,-37.8592567,144.988922,2,1,1,ApartmentUnitFlat,Apartment / Unit / Flat,False,0,m2,False
2017648828,listing,/5-21-york-street-st-kilda-west-vic-3182-2017648828,,is-sold,Sold by private treaty 15 Jun 2022,20220615,5/21 York Street,ST KILDA WEST,VIC,3182,-37.8564644,144.971054,2,1,,ApartmentUnitFlat,Apartment / Unit / Flat,False,0,m2,False
2017653955,listing,/13-mary-street-st-kilda-west-vic-3182-2017653955,2875000,is-sold,Sold by private treaty 11 Jun 2022,20220611,13 Mary Street,ST KILDA WEST,VIC,3182,-37.85996,144.973083,3,2,1,House,House,False,0,m2,False
2017662052,listing,/1402-101-st-kilda-road-st-kilda-vic-3182-2017662052,610000,is-sold,Sold by private treaty 14 Jun 2022,20220614,1402/101 St Kilda Road,ST KILDA,VIC,3182,-37.8597679,144.983582,2,2,1,ApartmentUnitFlat,Apartment / Unit / Flat,False,0,m2,False
2017703583,listing,/102-76-barkly-street-st-kilda-vic-3182-2017703583,445000,is-sold,Sold by private treaty 16 Jun 2022,20220616,102/76 Barkly Street,ST KILDA,VIC,3182,-37.86261,144.982285,1,1,1,ApartmentUnitFlat,Apartment / Unit / Flat,False,0,m2,False
2017704963,listing,/39-waterloo-crescent-st-kilda-vic-3182-2017704963,1780000,is-sold,Sold by private treaty 12 Jun 2022,20220612,39 Waterloo Crescent,ST KILDA,VIC,3182,-37.86235,144.984314,5,2,1,House,House,False,0,m2,False
2017724321,listing,/29-127-grey-street-st-kilda-vic-3182-2017724321,360000,is-sold,Sold by private treaty 10 Jun 2022,20220610,29/127 Grey Street,ST KILDA,VIC,3182,-37.86422,144.981491,1,1,1,ApartmentUnitFlat,Apartment / Unit / Flat,False,0,m2,False
2017735453,listing,/12-3-cowderoy-street-st-kilda-west-vic-3182-2017735453,450000,is-sold,Sold by private treaty 15 Jun 2022,20220615,12/3 Cowderoy Street,ST KILDA WEST,VIC,3182,-37.8559074,144.971359,1,1,,ApartmentUnitFlat,Apartment / Unit / Flat,False,0,m2,False
2017744163,listing,/1-57-chapel-street-st-kilda-vic-3182-2017744163,535000,is-sold,Sold by private treaty 20 Jun 2022,20220620,1/57 Chapel Street,ST KILDA,VIC,3182,-37.863102,144.991,2,1,1,ApartmentUnitFlat,Apartment / Unit / Flat,False,0,m2,False
2017754676,listing,/5-22-eildon-road-st-kilda-vic-3182-2017754676,430500,is-sold,Sold by private treaty 20 Jun 2022,20220620,5/22 Eildon Road,ST KILDA,VIC,3182,-37.8627739,144.976959,1,1,,ApartmentUnitFlat,Apartment / Unit / Flat,False,54,m2,False
2017764306,listing,/2-197-inkerman-street-st-kilda-vic-3182-2017764306,670000,is-sold,Sold by private treaty 10 Jun 2022,20220610,2/197 Inkerman Street,ST KILDA,VIC,3182,-37.86539,144.990234,3,2,2,ApartmentUnitFlat,Apartment / Unit / Flat,False,0,m2,False
2017766651,listing,/10-14a-chapel-street-st-kilda-vic-3182-2017766651,560000,is-sold,Sold by private treaty 16 Jun 2022,20220616,10/14A Chapel Street,ST KILDA,VIC,3182,-37.8625374,144.991638,2,1,1,ApartmentUnitFlat,Apartment / Unit / Flat,False,0,m2,False
2017770460,listing,/1407-3-5-st-kilda-rd-st-kilda-vic-3182-2017770460,498000,is-sold,Sold by private treaty 15 Jun 2022,20220615,1407/3-5 St Kilda Rd,ST KILDA,VIC,3182,-37.8586845,144.983246,1,1,1,ApartmentUnitFlat,Apartment / Unit / Flat,False,0,m2,False
2017815506,listing,/23-145-fitzroy-street-st-kilda-vic-3182-2017815506,407500,is-sold,Sold by private treaty 15 Jun 2022,20220615,23/145 Fitzroy Street,ST KILDA,VIC,3182,-37.8595123,144.9787,1,1,,ApartmentUnitFlat,Apartment / Unit / Flat,False,0,m2,False
2017818745,listing,/5-77-park-street-st-kilda-west-vic-3182-2017818745,800000,is-sold,Sold at auction 14 Jun 2022,20220614,5/77 Park Street,ST KILDA WEST,VIC,3182,-37.8572578,144.969345,2,1,,ApartmentUnitFlat,Apartment / Unit / Flat,False,0,m2,False
2017821328,listing,/7-22b-crimea-street-st-kilda-vic-3182-2017821328,495000,is-sold,Sold at auction 18 Jun 2022,20220618,7/22b Crimea Street,ST KILDA,VIC,3182,-37.85953,144.988373,2,1,,ApartmentUnitFlat,Apartment / Unit / Flat,False,0,m2,False
2017831518,listing,/1-18-princes-street-st-kilda-vic-3182-2017831518,905000,is-sold,Sold at auction 18 Jun 2022,20220618,1/18 Princes Street,ST KILDA,VIC,3182,-37.85868,144.981628,3,1,1,ApartmentUnitFlat,Apartment / Unit / Flat,False,0,m2,False
2017838976,listing,/6-74-barkly-street-st-kilda-vic-3182-2017838976,510000,is-sold,Sold by private treaty 18 Jun 2022,20220618,6/74 Barkly Street,ST KILDA,VIC,3182,-37.8624039,144.982483,1,1,,ApartmentUnitFlat,Apartment / Unit / Flat,False,0,m2,False
2017846929,listing,/107-131-acland-street-st-kilda-vic-3182-2017846929,622500,is-sold,Sold by private treaty 15 Jun 2022,20220615,107/131 Acland Street,ST KILDA,VIC,3182,-37.86858,144.9795,2,1,1,ApartmentUnitFlat,Apartment / Unit / Flat,False,0,m2,False
2017857298,listing,/403-65-wellington-street-st-kilda-vic-3182-2017857298,1265000,is-sold,Sold at auction 15 Jun 2022,20220615,403/65 Wellington Street,ST KILDA,VIC,3182,-37.8565941,144.9868,2,1,1,ApartmentUnitFlat,Apartment / Unit / Flat,False,0,m2,False
2016348194,listing,/57-acland-street-st-kilda-vic-3182-2016348194,,is-sold,Sold at auction 28 May 2022,20220528,57 Acland Street,ST KILDA,VIC,3182,-37.8659134,144.977,3,3,,House,House,False,0,m2,False
2017644399,listing,/207-173-barkly-street-st-kilda-vic-3182-2017644399,385000,is-sold,Sold by private treaty 06 Jun 2022,20220606,207/173 Barkly Street,ST KILDA,VIC,3182,-37.867794,144.9809,1,1,1,ApartmentUnitFlat,Apartment / Unit / Flat,False,0,m2,False
2017665039,listing,/5-26-28-blessington-street-st-kilda-vic-3182-2017665039,620000,is-sold,Sold by private treaty 07 Jun 2022,20220607,5/26-28 Blessington Street,ST KILDA,VIC,3182,-37.8699646,144.981339,2,1,,ApartmentUnitFlat,Apartment / Unit / Flat,False,0,m2,False
2017674790,listing,/90-wellington-street-st-kilda-vic-3182-2017674790,2415000,is-sold,Sold by private treaty 05 Jun 2022,20220605,90 Wellington Street,ST KILDA,VIC,3182,-37.8573837,144.989426,4,2,1,House,House,False,0,m2,False
2017704745,listing,/44-333-beaconsfield-parade-st-kilda-west-vic-3182-2017704745,805000,is-sold,Sold by private treaty 03 Jun 2022,20220603,44/333 Beaconsfield Parade,ST KILDA WEST,VIC,3182,-37.8576279,144.96933,2,1,1,ApartmentUnitFlat,Apartment / Unit / Flat,False,0,m2,False
2017706343,listing,/315-135-inkerman-street-st-kilda-vic-3182-2017706343,575000,is-sold,Sold by private treaty 06 Jun 2022,20220606,315/135 Inkerman Street,ST KILDA,VIC,3182,-37.86502,144.987671,2,2,1,ApartmentUnitFlat,Apartment / Unit / Flat,False,0,m2,False
2017769341,listing,/104-8-blanche-street-st-kilda-vic-3182-2017769341,,is-sold,Sold at auction 28 May 2022,20220528,104/8 Blanche Street,ST KILDA,VIC,3182,-37.8651962,144.982513,2,2,1,ApartmentUnitFlat,Apartment / Unit / Flat,False,0,m2,False
2017772717,listing,/11-64-alma-road-st-kilda-vic-3182-2017772717,565000,is-sold,Sold at auction 28 May 2022,20220528,11/64 Alma Road,ST KILDA,VIC,3182,-37.86087,144.988922,2,1,1,ApartmentUnitFlat,Apartment / Unit / Flat,False,0,m2,False
2017773028,listing,/1-4-261-barkly-street-st-kilda-vic-3182-2017773028,2400000,is-sold,Sold at auction 29 May 2022,20220529,1-4/261 Barkly Street,ST KILDA,VIC,3182,-37.87195,144.9801,7,4,4,BlockOfUnits,Block of Units,False,475,m2,False
2017773164,listing,/1203-181-185-st-kilda-road-st-kilda-vic-3182-2017773164,610000,is-sold,Sold at auction 28 May 2022,20220528,1203/181-185 St Kilda Road,ST KILDA,VIC,3182,-37.8609,144.983856,2,2,1,ApartmentUnitFlat,Apartment / Unit / Flat,False,0,m2,False
2017775856,listing,/12-lambeth-place-st-kilda-vic-3182-2017775856,1945000,is-sold,Sold at auction 28 May 2022,20220528,12 Lambeth Place,ST KILDA,VIC,3182,-37.8619423,144.987,4,2,,House,House,False,0,m2,False
2017779103,listing,/5-6a-st-leonards-avenue-st-kilda-vic-3182-2017779103,1655000,is-sold,Sold by private treaty 31 May 2022,20220531,5/6A St Leonards Avenue,ST KILDA,VIC,3182,-37.8643837,144.9771,3,2,2,Townhouse,Townhouse,False,0,m2,False
2017780774,listing,/7-27-herbert-street-st-kilda-vic-3182-2017780774,517000,is-sold,Sold at auction 04 Jun 2022,20220604,7/27 Herbert Street,ST KILDA,VIC,3182,-37.87231,144.983215,1,1,1,ApartmentUnitFlat,Apartment / Unit / Flat,False,0,m2,False
2017783798,listing,/7-14-chapel-street-st-kilda-vic-3182-2017783798,810000,is-sold,Sold at auction 28 May 2022,20220528,7/14 Chapel Street,ST KILDA,VIC,3182,-37.8625374,144.991638,3,1,1,ApartmentUnitFlat,Apartment / Unit / Flat,False,0,m2,False
2017803149,listing,/11-82-park-street-st-kilda-west-vic-3182-2017803149,725000,is-sold,Sold at auction 04 Jun 2022,20220604,11/82 Park Street,ST KILDA WEST,VIC,3182,-37.85701,144.970413,2,1,1,ApartmentUnitFlat,Apartment / Unit / Flat,False,0,m2,False
2017812852,listing,/301-22-pakington-street-st-kilda-vic-3182-2017812852,,is-sold,Sold at auction 31 May 2022,20220531,301/22 Pakington Street,ST KILDA,VIC,3182,-37.86578,144.987808,3,2,2,ApartmentUnitFlat,Apartment / Unit / Flat,False,0,m2,False
2017820741,listing,/unit-103-2-princes-street-st-kilda-vic-3182-2017820741,580000,is-sold,Sold by private treaty 08 Jun 2022,20220608,Unit 103/2 Princes Street,ST KILDA,VIC,3182,-37.85839,144.981186,2,2,1,ApartmentUnitFlat,Apartment / Unit / Flat,False,0,m2,False
2017833762,listing,/603-163-fitzroy-st-st-kilda-vic-3182-2017833762,940000,is-sold,Sold by private treaty 03 Jun 2022,20220603,603/163 Fitzroy St,ST KILDA,VIC,3182,-37.8586044,144.979782,2,2,1,ApartmentUnitFlat,Apartment / Unit / Flat,False,0,m2,False
2017841214,listing,/14-19-21-dalgety-street-st-kilda-vic-3182-2017841214,590000,is-sold,Sold prior to auction 06 Jun 2022,20220606,14/19-21 Dalgety Street,ST KILDA,VIC,3182,-37.8603172,144.980057,2,1,1,ApartmentUnitFlat,Apartment / Unit / Flat,False,0,m2,False
2017881899,listing,/307-6-victoria-street-st-kilda-vic-3182-2017881899,600000,is-sold,Sold by private treaty 31 May 2022,20220531,307/6 Victoria Street,ST KILDA,VIC,3182,-37.86408,144.973511,1,1,1,ApartmentUnitFlat,Apartment / Unit / Flat,False,0,m2,False
2017187787,listing,/6-5-redan-street-st-kilda-vic-3182-2017187787,300000,is-sold,Sold by private treaty 22 May 2022,20220522,6/5 Redan Street,ST KILDA,VIC,3182,-37.8600121,144.9886,1,1,1,ApartmentUnitFlat,Apartment / Unit / Flat,False,0,m2,False
