id,listingType,url,price,tagClassName,tagText,date,street,suburb,state,postcode,lat,lng,beds,baths,parking,propertyType,propertyTypeFormatted,isRural,landSize,landUnit,isRetirement
2018327257,listing,/9a-field-street-hampton-vic-3188-2018327257,Price Withheld,is-sold,Sold by private treaty 28 Feb 2023,20230228,9A Field Street,HAMPTON,VIC,3188,-37.9450722,145.017136,4,4,4,Townhouse,Townhouse,False,0,m2,False
2018052745,listing,/1-grout-street-hampton-vic-3188-2018052745,Price Withheld,is-sold,Sold by private treaty 24 Feb 2023,20230224,1 Grout Street,HAMPTON,VIC,3188,-37.9342575,145.008209,3,3,3,House,House,False,0,m2,False
2018171649,listing,/18-service-street-hampton-vic-3188-2018171649,Price Withheld,is-sold,Sold at auction 20 Feb 2023,20230220,18 Service Street,HAMPTON,VIC,3188,-37.9400558,145.0054,4,4,4,House,House,False,0,m2,False
2018203014,listing,/5-30-grenville-street-hampton-vic-3188-2018203014,Price Withheld,is-sold,Sold by private treaty 09 Feb 2023,20230209,5/30 Grenville Street,HAMPTON,VIC,3188,-37.9358826,145.000748,2,2,2,ApartmentUnitFlat,Apartment / Unit / Flat,False,0,m2,False
2018237222,listing,/125-linacre-road-hampton-vic-3188-2018237222,2700000,is-sold,Sold at auction 18 Feb 2023,20230218,125 Linacre Road,HAMPTON,VIC,3188,-37.9435,145.016953,5,5,5,House,House,False,665,m2,False
2018283972,listing,/16-cooke-avenue-hampton-east-vic-3188-2018283972,Price Withheld,is-sold,Sold at auction 14 Feb 2023,20230214,16 Cooke Avenue,HAMPTON EAST,VIC,3188,-37.9414978,145.025116,3,3,3,House,House,False,241,m2,False
2018288317,listing,/15-exley-road-hampton-east-vic-3188-2018288317,Price Withheld,is-sold,Sold by private treaty 20 Feb 2023,20230220,15 Exley Road,HAMPTON EAST,VIC,3188,-37.9381943,145.0358,3,3,3,House,House,False,0,m2,False
2018297879,listing,/4-bartlett-street-hampton-east-vic-3188-2018297879,1270000,is-sold,Sold at auction 11 Feb 2023,20230211,4 Bartlett Street,HAMPTON EAST,VIC,3188,-37.93671,145.031448,3,3,3,Townhouse,Townhouse,False,332,m2,False
2018309582,listing,/6-35-willis-street-hampton-vic-3188-2018309582,Price Withheld,is-sold,Sold by private treaty 11 Feb 2023,20230211,6/35 Willis Street,HAMPTON,VIC,3188,-37.9363,145.0021,2,2,2,ApartmentUnitFlat,Apartment / Unit / Flat,False,0,m2,False
2018312383,listing,/30-mills-street-hampton-vic-3188-2018312383,2065000,is-sold,Sold at auction 18 Feb 2023,20230218,30 Mills Street,HAMPTON,VIC,3188,-37.9361267,145.005966,2,2,2,House,House,False,537,m2,False
2018312474,listing,/1-9-highett-road-hampton-vic-3188-2018312474,Price Withheld,is-sold,Sold at auction 15 Feb 2023,20230215,1/9 Highett Road,HAMPTON,VIC,3188,-37.94494,145.012192,2,2,2,ApartmentUnitFlat,Apartment / Unit / Flat,False,0,m2,False
2018312555,listing,/1-72-holyrood-street-hampton-vic-3188-2018312555,775000,is-sold,Sold at auction 18 Feb 2023,20230218,1/72 Holyrood Street,HAMPTON,VIC,3188,-37.9338722,145.001816,2,2,2,ApartmentUnitFlat,Apartment / Unit / Flat,False,0,m2,False
2018321653,listing,/1-porter-st-hampton-vic-3188-2018321653,Price Withheld,is-sold,Sold at auction 22 Feb 2023,20230222,1 Porter St,HAMPTON,VIC,3188,-37.94157,145.02002,3,3,3,House,House,False,0,m2,False
2018322862,listing,/117-ludstone-st-hampton-vic-3188-2018322862,Price Withheld,is-sold,Sold at auction 25 Feb 2023,20230225,117 Ludstone St,HAMPTON,VIC,3188,-37.93438,145.016159,3,3,3,House,House,False,0,m2,False
2018324525,listing,/67-wickham-road-hampton-east-vic-3188-2018324525,1160000,is-sold,Sold by private treaty 25 Feb 2023,20230225,67 Wickham Road,HAMPTON EAST,VIC,3188,-37.94363,145.031525,3,3,3,House,House,False,621,m2,False
2018324605,listing,/32-mills-street-hampton-vic-3188-2018324605,Price Withheld,is-sold,Sold at auction 25 Feb 2023,20230225,32 Mills Street,HAMPTON,VIC,3188,-37.9361763,145.006134,4,4,4,House,House,False,820,m2,False
2018324606,listing,/76-willis-street-hampton-vic-3188-2018324606,2695000,is-sold,Sold at auction 25 Feb 2023,20230225,76 Willis Street,HAMPTON,VIC,3188,-37.9373169,145.007416,4,4,4,House,House,False,600,m2,False
2018324631,listing,/17-lagnicourt-street-hampton-vic-3188-2018324631,Price Withheld,is-sold,Sold at auction 25 Feb 2023,20230225,17 Lagnicourt Street,HAMPTON,VIC,3188,-37.933445,145.009872,4,4,4,House,House,False,0,m2,False
2018325773,listing,/2-2-dudley-avenue-hampton-east-vic-3188-2018325773,1306000,is-sold,Sold at auction 25 Feb 2023,20230225,2/2 Dudley Avenue,HAMPTON EAST,VIC,3188,-37.9396057,145.034424,3,3,3,House,House,False,320,m2,False
2018328159,listing,/2-33-earlsfield-road-hampton-vic-3188-2018328159,Price Withheld,is-sold,Sold by private treaty 24 Feb 2023,20230224,2/33 Earlsfield Road,HAMPTON,VIC,3188,-37.9336853,145.016251,2,2,2,Townhouse,Townhouse,False,0,m2,False
2017410995,listing,/9-exley-road-hampton-east-vic-3188-2017410995,2088888,is-sold,Sold by private treaty 06 Feb 2023,20230206,9 Exley Road,HAMPTON EAST,VIC,3188,-37.9380646,145.035126,4,4,4,House,House,False,618,m2,False
2017870182,listing,/10-93-highett-road-hampton-vic-3188-2017870182,370000,is-sold,Sold by private treaty 21 Jan 2023,20230121,10/93 Highett Road,HAMPTON,VIC,3188,-37.9461136,145.021118,1,1,1,ApartmentUnitFlat,Apartment / Unit / Flat,False,0,m2,False
2017947228,listing,/2c-gillies-street-hampton-vic-3188-2017947228,Price Withheld,is-sold,Sold by private treaty 27 Jan 2023,20230127,2C Gillies Street,HAMPTON,VIC,3188,-37.94186,145.006744,4,4,4,Townhouse,Townhouse,False,0,m2,False
2018152673,listing,/19-bridge-street-hampton-vic-3188-2018152673,Price Withheld,is-sold,Sold by private treaty 07 Dec 2022,20221207,19 Bridge Street,HAMPTON,VIC,3188,-37.9443,145.003571,5,5,5,House,House,False,0,m2,False
2018155399,listing,/213-2-willis-lane-hampton-vic-3188-2018155399,385000,is-sold,Sold by private treaty 20 Jan 2023,20230120,213/2 Willis Lane,HAMPTON,VIC,3188,-37.9375725,145.001663,1,1,1,ApartmentUnitFlat,Apartment / Unit / Flat,False,0,m2,False
2018171973,listing,/4-34-linacre-road-hampton-vic-3188-2018171973,Price Withheld,is-sold,Sold by private treaty 06 Jan 2023,20230106,4/34 Linacre Road,HAMPTON,VIC,3188,-37.9427948,145.005142,2,2,2,ApartmentUnitFlat,Apartment / Unit / Flat,False,0,m2,False
2018172122,listing,/5-storey-avenue-hampton-vic-3188-2018172122,Price Withheld,is-sold,Sold by private treaty 19 Dec 2022,20221219,5 Storey Avenue,HAMPTON,VIC,3188,-37.9387245,145.0127,4,4,4,House,House,False,0,m2,False
2018192609,listing,/49-sargood-street-hampton-vic-3188-2018192609,Price Withheld,is-sold,Sold by private treaty 21 Dec 2022,20221221,49 Sargood Street,HAMPTON,VIC,3188,-37.94482,145.0103,4,4,4,VacantLand,Vacant land,False,0,m2,False
2018197208,listing,/9-scott-street-hampton-east-vic-3188-2018197208,1750000,is-sold,Sold by private treaty 10 Dec 2022,20221210,9 Scott Street,HAMPTON EAST,VIC,3188,-37.9432335,145.036346,3,3,3,House,House,False,687,m2,False
2018200309,listing,/115-ludstone-street-hampton-vic-3188-2018200309,1730000,is-sold,Sold at auction 10 Dec 2022,20221210,115 Ludstone Street,HAMPTON,VIC,3188,-37.9343719,145.015991,4,4,4,Townhouse,Townhouse,False,0,m2,False
2018201264,listing,/79-littlewood-street-hampton-vic-3188-2018201264,Price Withheld,is-sold,Sold by private treaty 05 Feb 2023,20230205,79 Littlewood Street,HAMPTON,VIC,3188,-37.93546,145.010788,5,5,5,House,House,False,627,m2,False
2018201581,listing,/11-may-street-hampton-vic-3188-2018201581,Price Withheld,is-sold,Sold at auction 08 Dec 2022,20221208,11 May Street,HAMPTON,VIC,3188,-37.9355125,145.011551,3,3,3,Townhouse,Townhouse,False,0,m2,False
2018204190,listing,/96-linacre-road-hampton-vic-3188-2018204190,Price Withheld,is-sold,Sold at auction 10 Dec 2022,20221210,96 Linacre Road,HAMPTON,VIC,3188,-37.9436646,145.013443,3,3,3,House,House,False,687,m2,False
2018204418,listing,/2-4-highbury-avenue-hampton-east-vic-3188-2018204418,Price Withheld,is-sold,Sold at auction 09 Dec 2022,20221209,2-4 Highbury Avenue,HAMPTON EAST,VIC,3188,-37.9336624,145.033859,6,6,6,House,House,False,1222,m2,False
2018205128,listing,/13-93-highett-road-hampton-vic-3188-2018205128,725000,is-sold,Sold by private treaty 12 Jan 2023,20230112,13/93 Highett Road,HAMPTON,VIC,3188,-37.9461136,145.021118,2,2,2,ApartmentUnitFlat,Apartment / Unit / Flat,False,0,m2,False
2018215013,listing,/29-highett-road-hampton-vic-3188-2018215013,Price Withheld,is-sold,Sold at auction 17 Dec 2022,20221217,29 Highett Road,HAMPTON,VIC,3188,-37.94517,145.014359,4,4,4,Townhouse,Townhouse,False,409,m2,False
2018220884,listing,/2-19-wickham-road-hampton-east-vic-3188-2018220884,523000,is-sold,Sold at auction 17 Dec 2022,20221217,2/19 Wickham Road,HAMPTON EAST,VIC,3188,-37.9428177,145.026154,2,2,2,ApartmentUnitFlat,Apartment / Unit / Flat,False,0,m2,False
2018231178,listing,/16a-banks-avenue-hampton-vic-3188-2018231178,Price Withheld,is-sold,Sold by private treaty 06 Dec 2022,20221206,16A Banks Avenue,HAMPTON,VIC,3188,-37.9445267,145.0139,4,4,4,House,House,False,496,m2,False
2018252488,listing,/169-linacre-road-hampton-vic-3188-2018252488,Price Withheld,is-sold,Sold by private treaty 12 Jan 2023,20230112,169 Linacre Road,HAMPTON,VIC,3188,-37.9440956,145.02121,4,4,4,House,House,False,614,m2,False
2018303283,listing,/45-mills-street-hampton-vic-3188-2018303283,Price Withheld,is-sold,Sold at auction 09 Feb 2023,20230209,45 Mills Street,HAMPTON,VIC,3188,-37.9358444,145.007385,4,4,4,House,House,False,381,m2,False
2017961652,listing,/7-kinross-street-hampton-east-vic-3188-2017961652,Price Withheld,is-sold,Sold by private treaty 29 Nov 2022,20221129,7 Kinross Street,HAMPTON EAST,VIC,3188,-37.9338951,145.0258,3,3,3,House,House,False,694,m2,False
2018029296,listing,/13-13-17-kelly-avenue-hampton-east-vic-3188-2018029296,795000,is-sold,Sold by private treaty 26 Nov 2022,20221126,13/13-17 Kelly Avenue,HAMPTON EAST,VIC,3188,-37.9328575,145.027267,3,3,3,ApartmentUnitFlat,Apartment / Unit / Flat,False,0,m2,False
2018138747,listing,/7-exon-street-hampton-vic-3188-2018138747,1600000,is-sold,Sold by private treaty 24 Nov 2022,20221124,7 Exon Street,HAMPTON,VIC,3188,-37.9348335,145.000961,3,3,3,House,House,False,0,m2,False
2018143354,listing,/18-thomas-street-hampton-vic-3188-2018143354,Price Withheld,is-sold,Sold by private treaty 21 Nov 2022,20221121,18 Thomas Street,HAMPTON,VIC,3188,-37.9387741,145.00441,2,2,2,House,House,False,0,m2,False
2018154899,listing,/24-retreat-road-hampton-vic-3188-2018154899,1555000,is-sold,Sold at auction 19 Nov 2022,20221119,24 Retreat Road,HAMPTON,VIC,3188,-37.9410324,145.013962,3,3,3,House,House,False,0,m2,False
2018156026,listing,/15b-service-street-hampton-vic-3188-2018156026,1660000,is-sold,Sold at auction 19 Nov 2022,20221119,15b Service Street,HAMPTON,VIC,3188,-37.93956,145.003922,3,3,3,Townhouse,Townhouse,False,0,m2,False
2018158928,listing,/17-56-beach-road-hampton-vic-3188-2018158928,815000,is-sold,Sold by private treaty 30 Nov 2022,20221130,17/56 Beach Road,HAMPTON,VIC,3188,-37.939415,144.9997,2,2,2,ApartmentUnitFlat,Apartment / Unit / Flat,False,0,m2,False
2018161095,listing,/2-charles-street-hampton-vic-3188-2018161095,Price Withheld,is-sold,Sold at auction 26 Nov 2022,20221126,2 Charles Street,HAMPTON,VIC,3188,-37.9376526,145.009,4,4,4,House,House,False,0,m2,False
2018171335,listing,/12-new-street-hampton-vic-3188-2018171335,Price Withheld,is-sold,Sold by private treaty 29 Nov 2022,20221129,12 New Street,HAMPTON,VIC,3188,-37.93101,144.993851,4,4,4,House,House,False,0,m2,False
2018176687,listing,/425-bluff-road-hampton-vic-3188-2018176687,Price Withheld,is-sold,Sold at auction 26 Nov 2022,20221126,425 Bluff Road,HAMPTON,VIC,3188,-37.9401054,145.023056,4,4,4,House,House,False,620,m2,False
2018178529,listing,/2-new-street-hampton-vic-3188-2018178529,Price Withheld,is-sold,Sold by private treaty 05 Dec 2022,20221205,2 New Street,HAMPTON,VIC,3188,-37.93183,144.993866,4,4,4,House,House,False,837,m2,False
2018180887,listing,/13-237-hampton-street-hampton-vic-3188-2018180887,1200000,is-sold,Sold at auction 01 Dec 2022,20221201,13/237 Hampton Street,HAMPTON,VIC,3188,-37.9412651,145.001511,3,3,3,ApartmentUnitFlat,Apartment / Unit / Flat,False,0,m2,False
2018183134,listing,/5-coombe-avenue-hampton-vic-3188-2018183134,1682500,is-sold,Sold at auction 03 Dec 2022,20221203,5 Coombe Avenue,HAMPTON,VIC,3188,-37.9372864,145.013443,3,3,3,House,House,False,583,m2,False
2018186623,listing,/8a-hoyt-street-hampton-vic-3188-2018186623,Price Withheld,is-sold,Sold at auction 24 Nov 2022,20221124,8A Hoyt Street,HAMPTON,VIC,3188,-37.92966,144.9965,4,4,4,House,House,False,0,m2,False
2018186833,listing,/18-raynes-park-road-hampton-vic-3188-2018186833,2650000,is-sold,Sold by private treaty 03 Dec 2022,20221203,18 Raynes Park Road,HAMPTON,VIC,3188,-37.9366455,145.0137,5,5,5,House,House,False,797,m2,False
2018187039,listing,/42b-teddington-rd-hampton-vic-3188-2018187039,2510000,is-sold,Sold at auction 01 Dec 2022,20221201,42B Teddington Rd,HAMPTON,VIC,3188,-37.936245,145.018448,4,4,4,Townhouse,Townhouse,False,372,m2,False
2018188149,listing,/20-lagnicourt-street-hampton-vic-3188-2018188149,2210000,is-sold,Sold prior to auction 26 Nov 2022,20221126,20 Lagnicourt Street,HAMPTON,VIC,3188,-37.9332733,145.010437,3,3,3,House,House,False,649,m2,False
2018188873,listing,/20-kinross-street-hampton-east-vic-3188-2018188873,2200000,is-sold,Sold at auction 06 Dec 2022,20221206,20 Kinross Street,HAMPTON EAST,VIC,3188,-37.93452,145.026733,4,4,4,House,House,False,737,m2,False
2018189163,listing,/2-78-fewster-road-hampton-vic-3188-2018189163,1850000,is-sold,Sold at auction 30 Nov 2022,20221130,2/78 Fewster Road,HAMPTON,VIC,3188,-37.9389267,145.021286,4,4,4,Townhouse,Townhouse,False,271,m2,False
2018192509,listing,/1-21-alicia-street-hampton-vic-3188-2018192509,1431000,is-sold,Sold at auction 03 Dec 2022,20221203,1/21 Alicia Street,HAMPTON,VIC,3188,-37.9434433,145.003876,2,2,2,Townhouse,Townhouse,False,310,m2,False
2016972626,listing,/106-41-crisp-street-hampton-vic-3188-2016972626,1550000,is-sold,Sold by private treaty 28 Oct 2022,20221028,106/41 Crisp Street,HAMPTON,VIC,3188,-37.9410057,145.0067,3,3,3,ApartmentUnitFlat,Apartment / Unit / Flat,False,139,m2,False
2017792807,listing,/58a-widdop-crescent-hampton-east-vic-3188-2017792807,590000,is-sold,Sold by private treaty 10 Nov 2022,20221110,58A Widdop Crescent,HAMPTON EAST,VIC,3188,-37.9402428,145.029846,4,4,4,House,House,False,324,m2,False
2017819001,listing,/4-519-hampton-street-hampton-vic-3188-2017819001,500000,is-sold,Sold by private treaty 08 Nov 2022,20221108,4/519 Hampton Street,HAMPTON,VIC,3188,-37.9318275,145.003159,2,2,2,ApartmentUnitFlat,Apartment / Unit / Flat,False,0,m2,False
2017865005,listing,/307-427-hampton-street-hampton-vic-3188-2017865005,810000,is-sold,Sold by private treaty 07 Nov 2022,20221107,307/427 Hampton Street,HAMPTON,VIC,3188,-37.934597,145.002716,2,2,2,ApartmentUnitFlat,Apartment / Unit / Flat,False,0,m2,False
2017974410,listing,/12-wishart-street-hampton-east-vic-3188-2017974410,Price Withheld,is-sold,Sold by private treaty 27 Oct 2022,20221027,12 Wishart Street,HAMPTON EAST,VIC,3188,-37.9362946,145.027176,3,3,3,House,House,False,640,m2,False
2018002969,listing,/18-exley-road-hampton-east-vic-3188-2018002969,885000,is-sold,Sold by private treaty 09 Nov 2022,20221109,18 Exley Road,HAMPTON EAST,VIC,3188,-37.93863,145.035812,2,2,2,House,House,False,404,m2,False
2018029311,listing,/16b-conifer-street-hampton-vic-3188-2018029311,2125000,is-sold,Sold by private treaty 27 Oct 2022,20221027,16B Conifer Street,HAMPTON,VIC,3188,-37.9451752,145.019012,4,4,4,Townhouse,Townhouse,False,0,m2,False
2018066560,listing,/102-15-small-street-hampton-vic-3188-2018066560,425000,is-sold,Sold by private treaty 18 Nov 2022,20221118,102/15 SMALL STREET,HAMPTON,VIC,3188,-37.939106,145.000885,1,1,1,ApartmentUnitFlat,Apartment / Unit / Flat,False,0,m2,False
2018099258,listing,/2-82-ludstone-st-hampton-vic-3188-2018099258,1392500,is-sold,Sold at auction 29 Oct 2022,20221029,2/82 Ludstone St,HAMPTON,VIC,3188,-37.9344368,145.0129,2,2,2,Townhouse,Townhouse,False,221,m2,False
2018107811,listing,/13-valerian-street-hampton-vic-3188-2018107811,Price Withheld,is-sold,Sold by private treaty 29 Oct 2022,20221029,13 Valerian Street,HAMPTON,VIC,3188,-37.9451,145.019516,3,3,3,House,House,False,625,m2,False
2018110171,listing,/11b-ridge-avenue-hampton-east-vic-3188-2018110171,1480000,is-sold,Sold at auction 28 Oct 2022,20221028,11B Ridge Avenue,HAMPTON EAST,VIC,3188,-37.9385147,145.025681,3,3,3,Townhouse,Townhouse,False,0,m2,False
2018113424,listing,/109-wickham-road-hampton-east-vic-3188-2018113424,Price Withheld,is-sold,Sold at auction 29 Oct 2022,20221029,109 Wickham Road,HAMPTON EAST,VIC,3188,-37.9441147,145.03627,3,3,3,House,House,False,1027,m2,False
2018118583,listing,/7-30-ludstone-street-hampton-vic-3188-2018118583,1200000,is-sold,Sold at auction 03 Nov 2022,20221103,7/30 Ludstone Street,HAMPTON,VIC,3188,-37.93402,145.006821,3,3,3,ApartmentUnitFlat,Apartment / Unit / Flat,False,0,m2,False
2018122466,listing,/1-21b-highbury-avenue-hampton-east-vic-3188-2018122466,1035000,is-sold,Sold at auction 05 Nov 2022,20221105,1/21B Highbury Avenue,HAMPTON EAST,VIC,3188,-37.9351463,145.033035,3,3,3,Townhouse,Townhouse,False,0,m2,False
2018130272,listing,/19b-katoomba-street-hampton-east-vic-3188-2018130272,1250000,is-sold,Sold at auction 05 Nov 2022,20221105,19b Katoomba Street,HAMPTON EAST,VIC,3188,-37.936058,145.034546,3,3,3,Townhouse,Townhouse,False,0,m2,False
2018141616,listing,/54-sargood-street-hampton-vic-3188-2018141616,2610000,is-sold,Sold by private treaty 13 Nov 2022,20221113,54 Sargood Street,HAMPTON,VIC,3188,-37.94292,145.011322,3,3,3,House,House,False,835,m2,False
2018147521,listing,/2-188-ludstone-street-hampton-vic-3188-2018147521,1321000,is-sold,Sold at auction 19 Nov 2022,20221119,2/188 Ludstone Street,HAMPTON,VIC,3188,-37.9354668,145.022675,3,3,3,House,House,False,467,m2,False
2018150333,listing,/1-25-charming-street-hampton-east-vic-3188-2018150333,800000,is-sold,Sold prior to auction 18 Nov 2022,20221118,1/25 Charming Street,HAMPTON EAST,VIC,3188,-37.9346,145.030029,2,2,2,ApartmentUnitFlat,Apartment / Unit / Flat,False,0,m2,False
2018174091,listing,/58-thomas-street-hampton-vic-3188-2018174091,3675000,is-sold,Sold by private treaty 09 Nov 2022,20221109,58 Thomas Street,HAMPTON,VIC,3188,-37.93929,145.008133,4,4,4,House,House,False,0,m2,False
2018191516,listing,/1-52-willis-street-hampton-vic-3188-2018191516,1852500,is-sold,Sold by private treaty 15 Nov 2022,20221115,1/52 Willis Street,HAMPTON,VIC,3188,-37.937027,145.004959,3,3,3,ApartmentUnitFlat,Apartment / Unit / Flat,False,0,m2,False
2017874199,listing,/83-linacre-road-hampton-vic-3188-2017874199,2300000,is-sold,Sold by private treaty 14 Oct 2022,20221014,83 Linacre Road,HAMPTON,VIC,3188,-37.94283,145.010345,4,4,4,House,House,False,553,m2,False
2017980822,listing,/4-little-field-street-hampton-vic-3188-2017980822,2130000,is-sold,Sold by private treaty 04 Oct 2022,20221004,4 Little Field Street,HAMPTON,VIC,3188,-37.94337,145.017761,3,3,3,House,House,False,0,m2,False
2017994545,listing,/12-smith-street-hampton-vic-3188-2017994545,1855000,is-sold,Sold by private treaty 24 Oct 2022,20221024,12 Smith Street,HAMPTON,VIC,3188,-37.9329262,145.022827,4,4,4,House,House,False,643,m2,False
2018023403,listing,/12b-carolyn-street-hampton-vic-3188-2018023403,1790000,is-sold,Sold at auction 12 Oct 2022,20221012,12B Carolyn Street,HAMPTON,VIC,3188,-37.9401131,145.022537,4,4,4,House,House,False,0,m2,False
2018063240,listing,/18-prince-street-hampton-vic-3188-2018063240,Price Withheld,is-sold,Sold at auction 01 Oct 2022,20221001,18 Prince Street,HAMPTON,VIC,3188,-37.932354,145.014877,3,3,3,House,House,False,650,m2,False
2018063335,listing,/18-swyer-street-hampton-vic-3188-2018063335,1200000,is-sold,Sold at auction 01 Oct 2022,20221001,18 Swyer Street,HAMPTON,VIC,3188,-37.9455643,145.021118,3,3,3,House,House,False,683,m2,False
2018070710,listing,/30-78-holyrood-street-hampton-vic-3188-2018070710,910000,is-sold,Sold by private treaty 01 Oct 2022,20221001,30/78 Holyrood Street,HAMPTON,VIC,3188,-37.9338722,145.002289,2,2,2,ApartmentUnitFlat,Apartment / Unit / Flat,False,0,m2,False
2018071727,listing,/85-wickham-road-hampton-east-vic-3188-2018071727,1290000,is-sold,Sold at auction 15 Oct 2022,20221015,85 Wickham Road,HAMPTON EAST,VIC,3188,-37.9437943,145.033386,3,3,3,House,House,False,577,m2,False
2018076884,listing,/1-45-grenville-street-hampton-vic-3188-2018076884,Price Withheld,is-sold,Sold by private treaty 24 Oct 2022,20221024,1/45 Grenville Street,HAMPTON,VIC,3188,-37.93526,145.002274,2,2,2,ApartmentUnitFlat,Apartment / Unit / Flat,False,0,m2,False
2018080023,listing,/48-service-street-hampton-vic-3188-2018080023,2820000,is-sold,Sold at auction 22 Oct 2022,20221022,48 Service Street,HAMPTON,VIC,3188,-37.9405861,145.0091,4,4,4,House,House,False,808,m2,False
2018088427,listing,/27a-service-street-hampton-vic-3188-2018088427,1700000,is-sold,Sold at auction 12 Oct 2022,20221012,27a Service Street,HAMPTON,VIC,3188,-37.9394875,145.006088,3,3,3,Townhouse,Townhouse,False,336,m2,False
2018094526,listing,/15-raynes-park-road-hampton-vic-3188-2018094526,Price Withheld,is-sold,Sold by private treaty 22 Oct 2022,20221022,15 Raynes Park Road,HAMPTON,VIC,3188,-37.9362946,145.014832,4,4,4,House,House,False,765,m2,False
2018095552,listing,/16-sargood-street-hampton-vic-3188-2018095552,3045000,is-sold,Sold at auction 22 Oct 2022,20221022,16 Sargood Street,HAMPTON,VIC,3188,-37.9388428,145.012177,4,4,4,House,House,False,677,m2,False
2018095692,listing,/24-teddington-road-hampton-vic-3188-2018095692,Price Withheld,is-sold,Sold at auction 19 Oct 2022,20221019,24 Teddington Road,HAMPTON,VIC,3188,-37.9357529,145.01564,2,2,2,House,House,False,760,m2,False
2018096428,listing,/2-576-hampton-street-hampton-vic-3188-2018096428,1120000,is-sold,Sold at auction 22 Oct 2022,20221022,2/576 Hampton Street,HAMPTON,VIC,3188,-37.93123,145.00415,2,2,2,Townhouse,Townhouse,False,246,m2,False
2018097326,listing,/121a-wickham-road-hampton-east-vic-3188-2018097326,Price Withheld,is-sold,Sold at auction 22 Oct 2022,20221022,121A Wickham Road,HAMPTON EAST,VIC,3188,-37.944252,145.037582,4,4,4,Townhouse,Townhouse,False,0,m2,False
2018104010,listing,/10-kingston-street-hampton-vic-3188-2018104010,2752500,is-sold,Sold by private treaty 25 Oct 2022,20221025,10 Kingston Street,HAMPTON,VIC,3188,-37.93173,145.013992,5,5,5,House,House,False,663,m2,False
2018112382,listing,/21-sargood-street-hampton-vic-3188-2018112382,Price Withheld,is-sold,Sold at auction 26 Oct 2022,20221026,21 Sargood Street,HAMPTON,VIC,3188,-37.9399872,145.011215,3,3,3,House,House,False,657,m2,False
2018141678,listing,/7-villeroy-street-hampton-vic-3188-2018141678,Price Withheld,is-sold,Sold by private treaty 05 Oct 2022,20221005,7 Villeroy Street,HAMPTON,VIC,3188,-37.9311829,145.004868,5,5,5,House,House,False,710,m2,False
2018165835,listing,/10-kingston-street-hampton-vic-3188-2018165835,2752500,is-sold,Sold by private treaty 25 Oct 2022,20221025,10 Kingston Street,HAMPTON,VIC,3188,-37.93173,145.013992,5,5,5,House,House,False,663,m2,False
2017891824,listing,/37-widdop-crescent-hampton-east-vic-3188-2017891824,Price Withheld,is-sold,Sold by private treaty 15 Sep 2022,20220915,37 Widdop Crescent,HAMPTON EAST,VIC,3188,-37.94047,145.028214,4,4,4,House,House,False,610,m2,False
2017931756,listing,/17-wickham-road-hampton-east-vic-3188-2017931756,1290000,is-sold,Sold by private treaty 31 Aug 2022,20220831,17 Wickham Road,HAMPTON EAST,VIC,3188,-37.9429131,145.025848,3,3,3,House,House,False,584,m2,False
2017950869,listing,/30-thomas-street-hampton-vic-3188-2017950869,Price Withheld,is-sold,Sold by private treaty 12 Sep 2022,20220912,30 Thomas Street,HAMPTON,VIC,3188,-37.9391022,145.00563,4,4,4,House,House,False,0,m2,False
2017988902,listing,/32-david-street-hampton-vic-3188-2017988902,1400000,is-sold,Sold at auction 13 Sep 2022,20220913,32 David Street,HAMPTON,VIC,3188,-37.9428368,145.015015,4,4,4,House,House,False,362,m2,False
2017990500,listing,/8-burt-crescent-hampton-east-vic-3188-2017990500,1250000,is-sold,Sold at auction 01 Sep 2022,20220901,8 Burt Crescent,HAMPTON EAST,VIC,3188,-37.9425278,145.028473,3,3,3,House,House,False,591,m2,False
2017992352,listing,/3-thorburn-street-hampton-vic-3188-2017992352,1660000,is-sold,Sold by private treaty 07 Sep 2022,20220907,3 Thorburn Street,HAMPTON,VIC,3188,-37.94111,145.019135,3,3,3,House,House,False,656,m2,False
2017993513,listing,/32-avondale-street-hampton-vic-3188-2017993513,3800000,is-sold,Sold by private treaty 13 Sep 2022,20220913,32 Avondale Street,HAMPTON,VIC,3188,-37.9320869,145.00264,5,5,5,House,House,False,0,m2,False
2018000172,listing,/47-lonsdale-avenue-hampton-east-vic-3188-2018000172,Price Withheld,is-sold,Sold by private treaty 24 Sep 2022,20220924,47 Lonsdale Avenue,HAMPTON EAST,VIC,3188,-37.9338455,145.028137,3,3,3,House,House,False,1554,m2,False
2018002586,listing,/22-guernsey-avenue-hampton-east-vic-3188-2018002586,1360000,is-sold,Sold at auction 10 Sep 2022,20220910,22 Guernsey Avenue,HAMPTON EAST,VIC,3188,-37.93874,145.035812,3,3,3,Townhouse,Townhouse,False,377,m2,False
2018008405,listing,/1-1-kinross-street-hampton-east-vic-3188-2018008405,1422000,is-sold,Sold at auction 05 Sep 2022,20220905,1/1 Kinross Street,HAMPTON EAST,VIC,3188,-37.9338531,145.025238,3,3,3,Townhouse,Townhouse,False,0,m2,False
2018008936,listing,/14-95-highett-road-hampton-vic-3188-2018008936,547000,is-sold,Sold by private treaty 27 Sep 2022,20220927,14/95 Highett Road,HAMPTON,VIC,3188,-37.94615,145.021484,2,2,2,ApartmentUnitFlat,Apartment / Unit / Flat,False,0,m2,False
2018009124,listing,/39-lonsdale-avenue-hampton-east-vic-3188-2018009124,1217000,is-sold,Sold by private treaty 27 Sep 2022,20220927,39 Lonsdale Avenue,HAMPTON EAST,VIC,3188,-37.9346924,145.028046,3,3,3,House,House,False,660,m2,False
2018010971,listing,/54-apex-avenue-hampton-east-vic-3188-2018010971,1166000,is-sold,Sold at auction 03 Sep 2022,20220903,54 Apex Avenue,HAMPTON EAST,VIC,3188,-37.938446,145.029663,3,3,3,Townhouse,Townhouse,False,0,m2,False
2018012607,listing,/24-grout-street-hampton-vic-3188-2018012607,2332000,is-sold,Sold by private treaty 15 Sep 2022,20220915,24 Grout Street,HAMPTON,VIC,3188,-37.93495,145.01001,4,4,4,House,House,False,622,m2,False
2018022524,listing,/72-raynes-park-road-hampton-vic-3188-2018022524,2101000,is-sold,Sold at auction 16 Sep 2022,20220916,72 Raynes Park Road,HAMPTON,VIC,3188,-37.9374466,145.0201,4,4,4,Townhouse,Townhouse,False,399,m2,False
2018022979,listing,/2-21-alicia-street-hampton-vic-3188-2018022979,979000,is-sold,Sold by private treaty 24 Sep 2022,20220924,2/21 Alicia Street,HAMPTON,VIC,3188,-37.94333,145.003937,2,2,2,ApartmentUnitFlat,Apartment / Unit / Flat,False,209,m2,False
2018023302,listing,/3-223-thomas-street-hampton-vic-3188-2018023302,638500,is-sold,Sold at auction 17 Sep 2022,20220917,3/223 Thomas Street,HAMPTON,VIC,3188,-37.94007,145.019287,2,2,2,ApartmentUnitFlat,Apartment / Unit / Flat,False,0,m2,False
2018033782,listing,/2-34-heath-crescent-hampton-east-vic-3188-2018033782,Price Withheld,is-sold,Sold by private treaty 29 Aug 2022,20220829,2/34 Heath Crescent,HAMPTON EAST,VIC,3188,-37.93665,145.029739,4,4,4,Townhouse,Townhouse,False,0,m2,False
2018034979,listing,/14a-seafoam-street-hampton-east-vic-3188-2018034979,Price Withheld,is-sold,Sold by private treaty 13 Sep 2022,20220913,14A Seafoam Street,HAMPTON EAST,VIC,3188,-37.9388657,145.033035,2,2,2,House,House,False,0,m2,False
2018058758,listing,/13b-stonehaven-crescent-hampton-east-vic-3188-2018058758,1460000,is-sold,Sold at auction 29 Sep 2022,20220929,13B Stonehaven Crescent,HAMPTON EAST,VIC,3188,-37.9359322,145.029373,4,4,4,Townhouse,Townhouse,False,0,m2,False
2017578153,listing,/16-vista-road-hampton-vic-3188-2017578153,Price Withheld,is-sold,Sold by private treaty 04 Aug 2022,20220804,16 Vista Road,HAMPTON,VIC,3188,-37.9294128,144.997955,4,4,4,Townhouse,Townhouse,False,0,m2,False
2017707619,listing,/8-78-holyrood-street-hampton-vic-3188-2017707619,580000,is-sold,Sold by private treaty 09 Aug 2022,20220809,8/78 Holyrood Street,HAMPTON,VIC,3188,-37.9338722,145.002289,1,1,1,ApartmentUnitFlat,Apartment / Unit / Flat,False,0,m2,False
2017758304,listing,/1a-bronte-court-hampton-vic-3188-2017758304,1550000,is-sold,Sold by private treaty 23 Aug 2022,20220823,1A Bronte Court,HAMPTON,VIC,3188,-37.940155,145.020081,3,3,3,House,House,False,0,m2,False
2017830035,listing,/6-518-bluff-road-hampton-vic-3188-2017830035,375000,is-sold,Sold by private treaty 12 Aug 2022,20220812,6/518 Bluff Road,HAMPTON,VIC,3188,-37.9364738,145.024323,1,1,1,ApartmentUnitFlat,Apartment / Unit / Flat,False,0,m2,False
2017841503,listing,/3-13-evans-avenue-hampton-east-vic-3188-2017841503,800000,is-sold,Sold by private treaty 02 Aug 2022,20220802,3/13 Evans Avenue,HAMPTON EAST,VIC,3188,-37.9436073,145.037323,2,2,2,ApartmentUnitFlat,Apartment / Unit / Flat,False,0,m2,False
2017842767,listing,/7-olive-street-hampton-vic-3188-2017842767,2000000,is-sold,Sold by private treaty 05 Aug 2022,20220805,7 Olive Street,HAMPTON,VIC,3188,-37.93232,145.020264,4,4,4,Townhouse,Townhouse,False,0,m2,False
2017861857,listing,/1-21-roydon-street-hampton-east-vic-3188-2017861857,444999,is-sold,Sold by private treaty 06 Aug 2022,20220806,1/21 Roydon Street,HAMPTON EAST,VIC,3188,-37.9349861,145.02681,2,2,2,ApartmentUnitFlat,Apartment / Unit / Flat,False,0,m2,False
2017916841,listing,/487-bluff-road-hampton-vic-3188-2017916841,1100000,is-sold,Sold by private treaty 03 Aug 2022,20220803,487 Bluff Road,HAMPTON,VIC,3188,-37.9347343,145.024078,2,2,2,House,House,False,676,m2,False
2017918560,listing,/13a-kanowna-street-hampton-vic-3188-2017918560,2620000,is-sold,Sold at auction 07 Aug 2022,20220807,13a Kanowna Street,HAMPTON,VIC,3188,-37.9444656,145.009857,4,4,4,Townhouse,Townhouse,False,0,m2,False
2017926518,listing,/21-katoomba-street-hampton-east-vic-3188-2017926518,1665000,is-sold,Sold at auction 06 Aug 2022,20220806,21 Katoomba Street,HAMPTON EAST,VIC,3188,-37.93593,145.034378,4,4,4,House,House,False,1219,m2,False
2017931106,listing,/48-15-beach-road-hampton-vic-3188-2017931106,1100000,is-sold,Sold by private treaty 09 Aug 2022,20220809,48/15 Beach Road,HAMPTON,VIC,3188,-37.934185,144.996216,2,2,2,ApartmentUnitFlat,Apartment / Unit / Flat,False,0,m2,False
2017943381,listing,/403-427-hampton-street-hampton-vic-3188-2017943381,485000,is-sold,Sold by private treaty 10 Aug 2022,20220810,403/427 Hampton Street,HAMPTON,VIC,3188,-37.934597,145.002716,1,1,1,ApartmentUnitFlat,Apartment / Unit / Flat,False,0,m2,False
2017945847,listing,/34-prince-street-hampton-vic-3188-2017945847,1880000,is-sold,Sold at auction 13 Aug 2022,20220813,34 Prince Street,HAMPTON,VIC,3188,-37.9334221,145.01474,2,2,2,House,House,False,650,m2,False
2017960230,listing,/3-villeroy-street-hampton-vic-3188-2017960230,3090000,is-sold,Sold at auction 20 Aug 2022,20220820,3 Villeroy Street,HAMPTON,VIC,3188,-37.9311638,145.004532,4,4,4,House,House,False,710,m2,False
2017961967,listing,/1-32-crisp-street-hampton-vic-3188-2017961967,1935000,is-sold,Sold at auction 20 Aug 2022,20220820,1/32 Crisp Street,HAMPTON,VIC,3188,-37.9413223,145.00563,3,3,3,Townhouse,Townhouse,False,0,m2,False
2017963024,listing,/9b-widdop-crescent-hampton-east-vic-3188-2017963024,1660000,is-sold,Sold at auction 09 Aug 2022,20220809,9B Widdop Crescent,HAMPTON EAST,VIC,3188,-37.9409447,145.025848,4,4,4,House,House,False,0,m2,False
2017973854,listing,/19-the-avenue-hampton-vic-3188-2017973854,5950000,is-sold,Sold at auction 26 Aug 2022,20220826,19 The Avenue,HAMPTON,VIC,3188,-37.9312248,145.000961,6,6,6,House,House,False,684,m2,False
2017976359,listing,/2-524-bluff-road-hampton-vic-3188-2017976359,1590000,is-sold,Sold at auction 27 Aug 2022,20220827,2/524 Bluff Road,HAMPTON,VIC,3188,-37.93607,145.024475,5,5,5,House,House,False,0,m2,False
2017986951,listing,/1-34-heath-crescent-hampton-east-vic-3188-2017986951,1250000,is-sold,Sold by private treaty 08 Aug 2022,20220808,1/34 Heath Crescent,HAMPTON EAST,VIC,3188,-37.93665,145.029739,4,4,4,ApartmentUnitFlat,Apartment / Unit / Flat,False,0,m2,False
2017997094,listing,/9-11-railway-crescent-hampton-vic-3188-2017997094,770000,is-sold,Sold by private treaty 17 Aug 2022,20220817,9/11 Railway Crescent,HAMPTON,VIC,3188,-37.9388161,145.001526,2,2,2,ApartmentUnitFlat,Apartment / Unit / Flat,False,0,m2,False
2017678730,listing,/18-lonsdale-avenue-hampton-east-vic-3188-2017678730,1525000,is-sold,Sold by private treaty 02 Jul 2022,20220702,18 Lonsdale Avenue,HAMPTON EAST,VIC,3188,-37.9361649,145.028122,3,3,3,House,House,False,0,m2,False
2017712073,listing,/55-highett-road-hampton-vic-3188-2017712073,1780200,is-sold,Sold by private treaty 08 Jul 2022,20220708,55 Highett Road,HAMPTON,VIC,3188,-37.94546,145.01709,3,3,3,House,House,False,701,m2,False
2017737818,listing,/203-41-crisp-street-hampton-vic-3188-2017737818,640000,is-sold,Sold by private treaty 14 Jul 2022,20220714,203/41 Crisp Street,HAMPTON,VIC,3188,-37.9410057,145.0067,1,1,1,ApartmentUnitFlat,Apartment / Unit / Flat,False,65,m2,False
2017746969,listing,/2-7-widdop-crescent-hampton-east-vic-3188-2017746969,950000,is-sold,Sold by private treaty 28 Jun 2022,20220628,2/7 Widdop Crescent,HAMPTON EAST,VIC,3188,-37.94084,145.025711,3,3,3,Townhouse,Townhouse,False,0,m2,False
2017748742,listing,/1-58-crisp-street-hampton-vic-3188-2017748742,Price Withheld,is-sold,Sold by private treaty 22 Jul 2022,20220722,1/58 Crisp Street,HAMPTON,VIC,3188,-37.94173,145.008591,2,2,2,ApartmentUnitFlat,Apartment / Unit / Flat,False,0,m2,False
2017758497,listing,/1c-bridge-street-hampton-vic-3188-2017758497,Price Withheld,is-sold,Sold by private treaty 13 Jul 2022,20220713,1C Bridge Street,HAMPTON,VIC,3188,-37.94427,145.001984,2,2,2,House,House,False,225,m2,False
2017775234,listing,/38-wickham-road-hampton-east-vic-3188-2017775234,1020000,is-sold,Sold by private treaty 04 Jul 2022,20220704,38 Wickham Road,HAMPTON EAST,VIC,3188,-37.9435425,145.027267,3,3,3,House,House,False,0,m2,False
2017779965,listing,/25-lonsdale-avenue-hampton-east-vic-3188-2017779965,1550000,is-sold,Sold by private treaty 30 Jun 2022,20220630,25 Lonsdale Avenue,HAMPTON EAST,VIC,3188,-37.93613,145.027832,3,3,3,House,House,False,0,m2,False
2017798631,listing,/60-ludstone-street-hampton-vic-3188-2017798631,2759000,is-sold,Sold by private treaty 21 Jul 2022,20220721,60 Ludstone Street,HAMPTON,VIC,3188,-37.93407,145.009933,5,5,5,House,House,False,618,m2,False
2017823444,listing,/13-269-hampton-street-hampton-vic-3188-2017823444,590000,is-sold,Sold by private treaty 02 Jul 2022,20220702,13/269 Hampton Street,HAMPTON,VIC,3188,-37.9398651,145.001862,2,2,2,ApartmentUnitFlat,Apartment / Unit / Flat,False,0,m2,False
2017839678,listing,/5-ralph-street-hampton-vic-3188-2017839678,3010000,is-sold,Sold at auction 25 Jun 2022,20220625,5 Ralph Street,HAMPTON,VIC,3188,-37.9446564,145.012787,4,4,4,House,House,False,704,m2,False
2017842424,listing,/3-kingston-street-hampton-vic-3188-2017842424,2300000,is-sold,Sold by private treaty 13 Jul 2022,20220713,3 Kingston Street,HAMPTON,VIC,3188,-37.9311867,145.013474,4,4,4,House,House,False,606,m2,False
2017844103,listing,/133-linacre-road-hampton-vic-3188-2017844103,2350000,is-sold,Sold at auction 25 Jun 2022,20220625,133 Linacre Road,HAMPTON,VIC,3188,-37.9436722,145.017883,4,4,4,Townhouse,Townhouse,False,0,m2,False
2017847540,listing,/7-lawson-street-hampton-vic-3188-2017847540,2300000,is-sold,Sold by private treaty 01 Jul 2022,20220701,7 Lawson Street,HAMPTON,VIC,3188,-37.9331627,145.020935,2,2,2,House,House,False,0,m2,False
2017858938,listing,/94-linacre-road-hampton-vic-3188-2017858938,1900000,is-sold,Sold at auction 02 Jul 2022,20220702,94 Linacre Road,HAMPTON,VIC,3188,-37.943676,145.013275,4,4,4,House,House,False,604,m2,False
2017875205,listing,/5-smith-street-hampton-vic-3188-2017875205,2560000,is-sold,Sold by private treaty 06 Jul 2022,20220706,5 Smith Street,HAMPTON,VIC,3188,-37.9324,145.022354,4,4,4,House,House,False,580,m2,False
2017878944,listing,/114-thomas-street-hampton-vic-3188-2017878944,1800000,is-sold,Sold by private treaty 25 Jun 2022,20220625,114 Thomas Street,HAMPTON,VIC,3188,-37.939888,145.013489,3,3,3,House,House,False,0,m2,False
2017898988,listing,/3-16-keiller-street-hampton-east-vic-3188-2017898988,646000,is-sold,Sold at auction 23 Jul 2022,20220723,3/16 Keiller Street,HAMPTON EAST,VIC,3188,-37.93576,145.035126,2,2,2,ApartmentUnitFlat,Apartment / Unit / Flat,False,0,m2,False
2017906196,listing,/24-flowerdale-road-hampton-east-vic-3188-2017906196,1349000,is-sold,Sold by private treaty 03 Jul 2022,20220703,24 Flowerdale Road,HAMPTON EAST,VIC,3188,-37.9414749,145.034714,3,3,3,House,House,False,699,m2,False
2017915357,listing,/7-237-thomas-street-hampton-vic-3188-2017915357,790000,is-sold,Sold by private treaty 26 Jul 2022,20220726,7/237 Thomas Street,HAMPTON,VIC,3188,-37.93985,145.021454,2,2,2,ApartmentUnitFlat,Apartment / Unit / Flat,False,0,m2,False
2017735218,listing,/107-1a-littlewood-street-hampton-vic-3188-2017735218,590000,is-sold,Sold by private treaty 04 Jun 2022,20220604,107/1A Littlewood Street,HAMPTON,VIC,3188,-37.93432,145.003845,1,1,1,ApartmentUnitFlat,Apartment / Unit / Flat,False,0,m2,False
2017745312,listing,/24a-bridge-street-hampton-vic-3188-2017745312,1500000,is-sold,Sold by private treaty 25 Jun 2022,20220625,24A Bridge Street,HAMPTON,VIC,3188,-37.9450226,145.005173,2,2,2,House,House,False,451,m2,False
2017762760,listing,/15-keiller-street-hampton-east-vic-3188-2017762760,1400000,is-sold,Sold by private treaty 17 Jun 2022,20220617,15 Keiller Street,HAMPTON EAST,VIC,3188,-37.9352264,145.034943,4,4,4,Townhouse,Townhouse,False,376,m2,False
2017776925,listing,/9a-thorburn-street-hampton-vic-3188-2017776925,1315000,is-sold,Sold by private treaty 03 Jun 2022,20220603,9A Thorburn Street,HAMPTON,VIC,3188,-37.9412155,145.0196,3,3,3,Townhouse,Townhouse,False,0,m2,False
2017776953,listing,/104-ludstone-street-hampton-vic-3188-2017776953,2515000,is-sold,Sold by private treaty 19 Jun 2022,20220619,104 Ludstone Street,HAMPTON,VIC,3188,-37.9346771,145.015,4,4,4,House,House,False,794,m2,False
2017779658,listing,/27a-kingston-street-hampton-vic-3188-2017779658,1460000,is-sold,Sold by private treaty 25 Jun 2022,20220625,27a Kingston Street,HAMPTON,VIC,3188,-37.9327126,145.013275,3,3,3,Townhouse,Townhouse,False,0,m2,False
2017794058,listing,/18-kelsall-court-hampton-east-vic-3188-2017794058,1726000,is-sold,Sold at auction 04 Jun 2022,20220604,18 Kelsall Court,HAMPTON EAST,VIC,3188,-37.942337,145.031723,4,4,4,House,House,False,585,m2,False
2017798382,listing,/42-sargood-street-hampton-vic-3188-2017798382,2962500,is-sold,Sold at auction 04 Jun 2022,20220604,42 Sargood Street,HAMPTON,VIC,3188,-37.9418259,145.011475,5,5,5,House,House,False,709,m2,False
2017810674,listing,/560-bluff-road-hampton-vic-3188-2017810674,1800000,is-sold,Sold by private treaty 07 Jun 2022,20220607,560 Bluff Road,HAMPTON,VIC,3188,-37.9333038,145.025024,4,4,4,House,House,False,638,m2,False
2017816905,listing,/146a-ludstone-street-hampton-vic-3188-2017816905,1875000,is-sold,Sold at auction 11 Jun 2022,20220611,146A Ludstone Street,HAMPTON,VIC,3188,-37.9351234,145.018784,4,4,4,House,House,False,0,m2,False
2017824740,listing,/42a-charming-street-hampton-east-vic-3188-2017824740,1235000,is-sold,Sold by private treaty 20 Jun 2022,20220620,42A Charming Street,HAMPTON EAST,VIC,3188,-37.934494,145.032669,4,4,4,Townhouse,Townhouse,False,0,m2,False
2017827061,listing,/14-39-willis-street-hampton-vic-3188-2017827061,1110000,is-sold,Sold by private treaty 14 Jun 2022,20220614,14/39 Willis Street,HAMPTON,VIC,3188,-37.9363976,145.003632,2,2,2,ApartmentUnitFlat,Apartment / Unit / Flat,False,0,m2,False
2017830097,listing,/3-gillies-street-hampton-vic-3188-2017830097,2050000,is-sold,Sold at auction 08 Jun 2022,20220608,3 Gillies Street,HAMPTON,VIC,3188,-37.94186,145.007385,4,4,4,House,House,False,0,m2,False
2017832467,listing,/13-290-south-road-hampton-east-vic-3188-2017832467,772500,is-sold,Sold by private treaty 23 Jun 2022,20220623,13/290 South Road,HAMPTON EAST,VIC,3188,-37.9327431,145.027481,2,2,2,ApartmentUnitFlat,Apartment / Unit / Flat,False,0,m2,False
2017839607,listing,/4-1-edinburgh-street-hampton-vic-3188-2017839607,905000,is-sold,Sold at auction 18 Jun 2022,20220618,4/1 Edinburgh Street,HAMPTON,VIC,3188,-37.93927,145.0155,2,2,2,ApartmentUnitFlat,Apartment / Unit / Flat,False,0,m2,False
2017839639,listing,/22-45-grenville-street-hampton-vic-3188-2017839639,500000,is-sold,Sold by private treaty 02 Jun 2022,20220602,22/45 Grenville Street,HAMPTON,VIC,3188,-37.93526,145.002274,1,1,1,ApartmentUnitFlat,Apartment / Unit / Flat,False,0,m2,False
2017861724,listing,/36-charming-street-hampton-east-vic-3188-2017861724,1322500,is-sold,Sold at auction 25 Jun 2022,20220625,36 Charming Street,HAMPTON EAST,VIC,3188,-37.9345474,145.032135,3,3,3,House,House,False,0,m2,False
2017870232,listing,/3-lansdown-street-hampton-vic-3188-2017870232,4500000,is-sold,Sold at auction 11 Jun 2022,20220611,3 Lansdown Street,HAMPTON,VIC,3188,-37.9435768,145.011749,4,4,4,House,House,False,0,m2,False
2018060595,listing,/16-king-street-hampton-east-vic-3188-2018060595,2180000,is-sold,Sold by private treaty 06 Jun 2022,20220606,16 King Street,HAMPTON EAST,VIC,3188,-37.9340553,145.032242,4,4,4,House,House,False,725,m2,False
2017730872,listing,/15-molong-avenue-hampton-east-vic-3188-2017730872,1170000,is-sold,Sold by private treaty 26 May 2022,20220526,15 Molong Avenue,HAMPTON EAST,VIC,3188,-37.9438629,145.028854,3,3,3,House,House,False,236,m2,False
2017757535,listing,/3-gordon-street-hampton-vic-3188-2017757535,3330000,is-sold,Sold by private treaty 01 Jun 2022,20220601,3 Gordon Street,HAMPTON,VIC,3188,-37.92963,144.994553,5,5,5,House,House,False,0,m2,False
2017757871,listing,/6-37-39-willis-street-hampton-vic-3188-2017757871,1650000,is-sold,Sold by private treaty 21 May 2022,20220521,6/37-39 Willis Street,HAMPTON,VIC,3188,-37.93641,145.003464,3,3,3,ApartmentUnitFlat,Apartment / Unit / Flat,False,0,m2,False
2017758752,listing,/18-ivy-st-hampton-vic-3188-2017758752,1900000,is-sold,Sold at auction 25 May 2022,20220525,18 Ivy St,HAMPTON,VIC,3188,-37.9329147,145.01825,3,3,3,Townhouse,Townhouse,False,0,m2,False
2017759559,listing,/19b-apex-avenue-hampton-east-vic-3188-2017759559,1380000,is-sold,Sold by private treaty 23 May 2022,20220523,19b Apex Avenue,HAMPTON EAST,VIC,3188,-37.93775,145.026062,3,3,3,Townhouse,Townhouse,False,0,m2,False
2017759560,listing,/1-16-evans-avenue-hampton-east-vic-3188-2017759560,1210000,is-sold,Sold at auction 28 May 2022,20220528,1/16 Evans Avenue,HAMPTON EAST,VIC,3188,-37.9429131,145.037262,3,3,3,House,House,False,0,m2,False
2017760697,listing,/7-125-thomas-street-hampton-vic-3188-2017760697,Price Withheld,is-sold,Sold at auction 21 May 2022,20220521,7/125 Thomas Street,HAMPTON,VIC,3188,-37.9391136,145.0141,2,2,2,Villa,Villa,False,0,m2,False
2017766280,listing,/21b-keith-street-hampton-east-vic-3188-2017766280,1750000,is-sold,Sold by private treaty 28 May 2022,20220528,21B Keith Street,HAMPTON EAST,VIC,3188,-37.9391479,145.030136,4,4,4,Townhouse,Townhouse,False,0,m2,False
2017773489,listing,/10-138-140-linacre-road-hampton-vic-3188-2017773489,835000,is-sold,Sold at auction 28 May 2022,20220528,10/138-140 Linacre Road,HAMPTON,VIC,3188,-37.94479,145.021866,2,2,2,ApartmentUnitFlat,Apartment / Unit / Flat,False,0,m2,False
2017776503,listing,/180-ludstone-street-hampton-vic-3188-2017776503,2035000,is-sold,Sold at auction 28 May 2022,20220528,180 Ludstone Street,HAMPTON,VIC,3188,-37.93552,145.021881,3,3,3,House,House,False,771,m2,False
2017777806,listing,/5-8-keiller-street-hampton-east-vic-3188-2017777806,1050000,is-sold,Sold by private treaty 27 May 2022,20220527,5/8 Keiller Street,HAMPTON EAST,VIC,3188,-37.93549,145.034073,2,2,2,Townhouse,Townhouse,False,0,m2,False
2017779573,listing,/1-harry-street-hampton-east-vic-3188-2017779573,1330000,is-sold,Sold at auction 25 May 2022,20220525,1 Harry Street,HAMPTON EAST,VIC,3188,-37.938736,145.0312,3,3,3,House,House,False,599,m2,False
2017779889,listing,/206-15-small-street-hampton-vic-3188-2017779889,860000,is-sold,Sold at auction 28 May 2022,20220528,206/15 Small Street,HAMPTON,VIC,3188,-37.939106,145.000885,2,2,2,ApartmentUnitFlat,Apartment / Unit / Flat,False,0,m2,False
2017781425,listing,/42a-crisp-street-hampton-vic-3188-2017781425,2669000,is-sold,Sold at auction 28 May 2022,20220528,42A Crisp Street,HAMPTON,VIC,3188,-37.9415321,145.006577,4,4,4,House,House,False,0,m2,False
2017781426,listing,/2-kyarra-street-hampton-vic-3188-2017781426,3402000,is-sold,Sold at auction 25 May 2022,20220525,2 Kyarra Street,HAMPTON,VIC,3188,-37.9432869,145.008148,4,4,4,House,House,False,613,m2,False
2017783629,listing,/18-bolton-avenue-hampton-vic-3188-2017783629,5850000,is-sold,Sold at auction 28 May 2022,20220528,18 Bolton Avenue,HAMPTON,VIC,3188,-37.93151,144.99617,5,5,5,House,House,False,1070,m2,False
2017789443,listing,/5-kanowna-street-hampton-vic-3188-2017789443,3250000,is-sold,Sold at auction 01 Jun 2022,20220601,5 Kanowna Street,HAMPTON,VIC,3188,-37.9438934,145.009827,4,4,4,House,House,False,755,m2,False
2017798660,listing,/2a-leonard-street-hampton-east-vic-3188-2017798660,1550000,is-sold,Sold at auction 24 May 2022,20220524,2A Leonard Street,HAMPTON EAST,VIC,3188,-37.93809,145.030762,4,4,4,Townhouse,Townhouse,False,286,m2,False
2017801867,listing,/18-95-highett-road-hampton-vic-3188-2017801867,610000,is-sold,Sold at auction 01 Jun 2022,20220601,18/95 Highett Road,HAMPTON,VIC,3188,-37.94615,145.021484,2,2,2,ApartmentUnitFlat,Apartment / Unit / Flat,False,0,m2,False
2017802791,listing,/1-519-hampton-street-hampton-vic-3188-2017802791,605000,is-sold,Sold by private treaty 24 May 2022,20220524,1/519 Hampton Street,HAMPTON,VIC,3188,-37.9318275,145.003159,2,2,2,ApartmentUnitFlat,Apartment / Unit / Flat,False,0,m2,False
2017600410,listing,/473a-bluff-road-hampton-vic-3188-2017600410,1330000,is-sold,Sold by private treaty 13 May 2022,20220513,473A Bluff Road,HAMPTON,VIC,3188,-37.93594,145.023621,4,4,4,Townhouse,Townhouse,False,0,m2,False
2017651375,listing,/10b-acheron-court-hampton-east-vic-3188-2017651375,1581500,is-sold,Sold by private treaty 04 May 2022,20220504,10B Acheron Court,HAMPTON EAST,VIC,3188,-37.94247,145.037064,4,4,4,Townhouse,Townhouse,False,0,m2,False
2017697903,listing,/74-fewster-rd-hampton-vic-3188-2017697903,1800000,is-sold,Sold at auction 07 May 2022,20220507,74 Fewster Rd,HAMPTON,VIC,3188,-37.9388771,145.020889,4,4,4,Townhouse,Townhouse,False,0,m2,False
2017702837,listing,/3-34-keith-street-hampton-east-vic-3188-2017702837,895000,is-sold,Sold at auction 07 May 2022,20220507,3/34 Keith Street,HAMPTON EAST,VIC,3188,-37.9370461,145.031128,2,2,2,ApartmentUnitFlat,Apartment / Unit / Flat,False,0,m2,False
2017735618,listing,/13-86-fewster-road-hampton-vic-3188-2017735618,735000,is-sold,Sold at auction 14 May 2022,20220514,13/86 Fewster Road,HAMPTON,VIC,3188,-37.9393044,145.021515,2,2,2,ApartmentUnitFlat,Apartment / Unit / Flat,False,0,m2,False
2017737089,listing,/10b-barnett-street-hampton-vic-3188-2017737089,2150000,is-sold,Sold at auction 11 May 2022,20220511,10B Barnett Street,HAMPTON,VIC,3188,-37.9324455,145.01976,3,3,3,Townhouse,Townhouse,False,0,m2,False
2017744699,listing,/2-572-hampton-street-hampton-vic-3188-2017744699,870000,is-sold,Sold at auction 14 May 2022,20220514,2/572 Hampton Street,HAMPTON,VIC,3188,-37.9315948,145.003754,2,2,2,ApartmentUnitFlat,Apartment / Unit / Flat,False,0,m2,False
2017747653,listing,/79-raynes-park-road-hampton-vic-3188-2017747653,1370000,is-sold,Sold at auction 14 May 2022,20220514,79 Raynes Park Road,HAMPTON,VIC,3188,-37.9373055,145.022751,3,3,3,House,House,False,330,m2,False
2017748676,listing,/16a-conifer-street-hampton-vic-3188-2017748676,2300000,is-sold,Sold at auction 12 May 2022,20220512,16A Conifer Street,HAMPTON,VIC,3188,-37.9451752,145.019012,4,4,4,House,House,False,0,m2,False
2017748719,listing,/5-kingston-street-hampton-vic-3188-2017748719,2175000,is-sold,Sold at auction 13 May 2022,20220513,5 Kingston Street,HAMPTON,VIC,3188,-37.9313431,145.013443,4,4,4,House,House,False,654,m2,False
2017749382,listing,/3-myrtle-road-hampton-vic-3188-2017749382,2485000,is-sold,Sold at auction 05 May 2022,20220505,3 Myrtle Road,HAMPTON,VIC,3188,-37.94107,145.0121,4,4,4,House,House,False,0,m2,False
2017750607,listing,/29b-flowerdale-road-hampton-east-vic-3188-2017750607,1785000,is-sold,Sold at auction 03 May 2022,20220503,29B Flowerdale Road,HAMPTON EAST,VIC,3188,-37.94208,145.034027,3,3,3,Townhouse,Townhouse,False,297,m2,False
2017754481,listing,/17-katoomba-street-hampton-east-vic-3188-2017754481,1912000,is-sold,Sold by private treaty 19 May 2022,20220519,17 Katoomba Street,HAMPTON EAST,VIC,3188,-37.93616,145.034637,5,5,5,House,House,False,604,m2,False
2017758701,listing,/315-427-hampton-street-hampton-vic-3188-2017758701,480000,is-sold,Sold by private treaty 19 May 2022,20220519,315/427 Hampton Street,HAMPTON,VIC,3188,-37.934597,145.002716,1,1,1,ApartmentUnitFlat,Apartment / Unit / Flat,False,0,m2,False
2017760886,listing,/7-lonsdale-avenue-hampton-east-vic-3188-2017760886,1625000,is-sold,Sold at auction 06 May 2022,20220506,7 Lonsdale Avenue,HAMPTON EAST,VIC,3188,-37.9375,145.0274,3,3,3,House,House,False,596,m2,False
2017761948,listing,/102b-david-street-hampton-vic-3188-2017761948,1850000,is-sold,Sold at auction 19 May 2022,20220519,102B David Street,HAMPTON,VIC,3188,-37.9437637,145.0218,4,4,4,Townhouse,Townhouse,False,0,m2,False
2017764036,listing,/52-orlando-street-hampton-vic-3188-2017764036,3120000,is-sold,Sold at auction 19 May 2022,20220519,52 Orlando Street,HAMPTON,VIC,3188,-37.9373627,144.999725,4,4,4,House,House,False,813,m2,False
2017774937,listing,/12-myrtle-road-hampton-vic-3188-2017774937,2800000,is-sold,Sold at auction 15 May 2022,20220515,12 Myrtle Road,HAMPTON,VIC,3188,-37.9416275,145.012863,5,5,5,House,House,False,710,m2,False
2017779259,listing,/280-south-road-hampton-east-vic-3188-2017779259,1525000,is-sold,Sold at auction 14 May 2022,20220514,280 South Road,HAMPTON EAST,VIC,3188,-37.93227,145.026428,3,3,3,Townhouse,Townhouse,False,280,m2,False
2017810001,listing,/3-1-bartlett-street-hampton-east-vic-3188-2017810001,1270000,is-sold,Sold by private treaty 10 May 2022,20220510,3/1 Bartlett Street,HAMPTON EAST,VIC,3188,-37.93626,145.0315,3,3,3,Townhouse,Townhouse,False,0,m2,False
2017355528,listing,/25b-smith-street-hampton-vic-3188-2017355528,2300000,is-sold,Sold by private treaty 26 Apr 2022,20220426,25B Smith Street,HAMPTON,VIC,3188,-37.93441,145.022064,4,4,4,Townhouse,Townhouse,False,323,m2,False
2017550197,listing,/68-littlewood-street-hampton-vic-3188-2017550197,3250000,is-sold,Sold by private treaty 09 Apr 2022,20220409,68 Littlewood Street,HAMPTON,VIC,3188,-37.93578,145.009659,5,5,5,House,House,False,627,m2,False
2017568188,listing,/540-lot-1-bluff-road-hampton-vic-3188-2017568188,Price Withheld,is-sold,Sold by private treaty 15 Apr 2022,20220415,540 Lot 1 Bluff Road,HAMPTON,VIC,3188,-37.93483,145.024689,4,4,4,House,House,False,0,m2,False
2017639453,listing,/14-cooke-avenue-hampton-east-vic-3188-2017639453,855000,is-sold,Sold by private treaty 29 Apr 2022,20220429,14 Cooke Avenue,HAMPTON EAST,VIC,3188,-37.94166,145.02504,3,3,3,House,House,False,303,m2,False
2017643772,listing,/107-33-crisp-street-hampton-vic-3188-2017643772,1150000,is-sold,Sold by private treaty 12 Apr 2022,20220412,107/33 Crisp Street,HAMPTON,VIC,3188,-37.94101,145.005875,3,3,3,ApartmentUnitFlat,Apartment / Unit / Flat,False,0,m2,False
2017647961,listing,/13-lawson-street-hampton-vic-3188-2017647961,2270000,is-sold,Sold at auction 02 Apr 2022,20220402,13 Lawson Street,HAMPTON,VIC,3188,-37.93313,145.0215,4,4,4,House,House,False,650,m2,False
2017650611,listing,/1-29-crisp-street-hampton-vic-3188-2017650611,2355000,is-sold,Sold at auction 02 Apr 2022,20220402,1/29 Crisp Street,HAMPTON,VIC,3188,-37.94097,145.005661,4,4,4,House,House,False,0,m2,False
2017651209,listing,/11-kerferd-street-hampton-vic-3188-2017651209,3900000,is-sold,Sold at auction 02 Apr 2022,20220402,11 Kerferd Street,HAMPTON,VIC,3188,-37.94187,145.01001,4,4,4,House,House,False,0,m2,False
2017654792,listing,/1a-kyarra-street-hampton-vic-3188-2017654792,1330000,is-sold,Sold by private treaty 07 Apr 2022,20220407,1A Kyarra Street,HAMPTON,VIC,3188,-37.9432869,145.008636,2,2,2,House,House,False,0,m2,False
2017663872,listing,/3-carrington-street-hampton-east-vic-3188-2017663872,2220000,is-sold,Sold at auction 09 Apr 2022,20220409,3 Carrington Street,HAMPTON EAST,VIC,3188,-37.9378357,145.033813,4,4,4,House,House,False,0,m2,False
2017664022,listing,/11-13-kelly-avenue-hampton-east-vic-3188-2017664022,715000,is-sold,Sold at auction 09 Apr 2022,20220409,11/13 Kelly Avenue,HAMPTON EAST,VIC,3188,-37.932888,145.027481,2,2,2,House,House,False,142,m2,False
2017666971,listing,/7-linacre-road-hampton-vic-3188-2017666971,4710000,is-sold,Sold by private treaty 28 Apr 2022,20220428,7 Linacre Road,HAMPTON,VIC,3188,-37.9418449,145.001282,7,7,7,House,House,False,0,m2,False
2017667342,listing,/1-77-orlando-street-hampton-vic-3188-2017667342,1240000,is-sold,Sold at auction 09 Apr 2022,20220409,1/77 Orlando Street,HAMPTON,VIC,3188,-37.9361038,144.998016,2,2,2,ApartmentUnitFlat,Apartment / Unit / Flat,False,0,m2,False
2017672542,listing,/7a-o-connor-crescent-hampton-east-vic-3188-2017672542,1405000,is-sold,Sold at auction 09 Apr 2022,20220409,7A OConnor Crescent,HAMPTON EAST,VIC,3188,-37.94237,145.026459,3,3,3,House,House,False,362,m2,False
2017680795,listing,/1-nepean-avenue-hampton-east-vic-3188-2017680795,2240000,is-sold,Sold by private treaty 14 Apr 2022,20220414,1 Nepean Avenue,HAMPTON EAST,VIC,3188,-37.93598,145.0283,4,4,4,House,House,False,646,m2,False
2017685264,listing,/12-edinburgh-street-hampton-vic-3188-2017685264,3700000,is-sold,Sold at auction 09 Apr 2022,20220409,12 Edinburgh Street,HAMPTON,VIC,3188,-37.93861,145.015015,5,5,5,House,House,False,0,m2,False
2017717597,listing,/unit-2-12-crisp-st-hampton-vic-3188-2017717597,938000,is-sold,Sold by private treaty 02 May 2022,20220502,Unit 2/12 Crisp St,HAMPTON,VIC,3188,-37.94116,145.003311,2,2,2,ApartmentUnitFlat,Apartment / Unit / Flat,False,0,m2,False
2017720303,listing,/9-68-fewster-road-hampton-vic-3188-2017720303,870000,is-sold,Sold at auction 27 Apr 2022,20220427,9/68 Fewster Road,HAMPTON,VIC,3188,-37.9392128,145.020508,2,2,2,ApartmentUnitFlat,Apartment / Unit / Flat,False,0,m2,False
2017752472,listing,/1-1-bartlett-street-hampton-east-vic-3188-2017752472,1230000,is-sold,Sold by private treaty 14 Apr 2022,20220414,1/1 Bartlett Street,HAMPTON EAST,VIC,3188,-37.93626,145.0315,3,3,3,Townhouse,Townhouse,False,0,m2,False
2017758791,listing,/37-prince-street-hampton-vic-3188-2017758791,2620000,is-sold,Sold by private treaty 06 Apr 2022,20220406,37 Prince Street,HAMPTON,VIC,3188,-37.93378,145.013992,2,2,2,House,House,False,0,m2,False
2017403233,listing,/42-myrtle-road-hampton-vic-3188-2017403233,2595000,is-sold,Sold by private treaty 25 Mar 2022,20220325,42 Myrtle Road,HAMPTON,VIC,3188,-37.9419823,145.015564,5,5,5,House,House,False,719,m2,False
2017532346,listing,/5-berend-street-hampton-east-vic-3188-2017532346,1245000,is-sold,Sold by private treaty 30 Mar 2022,20220330,5 Berend Street,HAMPTON EAST,VIC,3188,-37.9386253,145.031891,2,2,2,Townhouse,Townhouse,False,0,m2,False
2017543174,listing,/27a-lonsdale-avenue-hampton-east-vic-3188-2017543174,1350000,is-sold,Sold by private treaty 26 Mar 2022,20220326,27A Lonsdale Avenue,HAMPTON EAST,VIC,3188,-37.93601,145.027847,3,3,3,Townhouse,Townhouse,False,0,m2,False
2017610362,listing,/17-exley-road-hampton-east-vic-3188-2017610362,1206000,is-sold,Sold by private treaty 30 Mar 2022,20220330,17 Exley Road,HAMPTON EAST,VIC,3188,-37.9383,145.035873,3,3,3,Townhouse,Townhouse,False,0,m2,False
2017626904,listing,/unit-9-78-holyrood-street-hampton-vic-3188-2017626904,960000,is-sold,Sold at auction 27 Mar 2022,20220327,Unit 9/78 Holyrood Street,HAMPTON,VIC,3188,-37.9338722,145.002289,2,2,2,ApartmentUnitFlat,Apartment / Unit / Flat,False,0,m2,False
2017628960,listing,/3-sargood-street-hampton-vic-3188-2017628960,1920000,is-sold,Sold at auction 26 Mar 2022,20220326,3 Sargood Street,HAMPTON,VIC,3188,-37.93792,145.011765,3,3,3,House,House,False,565,m2,False
2017629973,listing,/39a-apex-avenue-hampton-east-vic-3188-2017629973,1645000,is-sold,Sold at auction 26 Mar 2022,20220326,39A Apex Avenue,HAMPTON EAST,VIC,3188,-37.9380722,145.029053,3,3,3,Townhouse,Townhouse,False,329,m2,False
2017633764,listing,/55-kingston-street-hampton-vic-3188-2017633764,1740000,is-sold,Sold at auction 26 Mar 2022,20220326,55 Kingston Street,HAMPTON,VIC,3188,-37.9358673,145.012741,3,3,3,House,House,False,382,m2,False
2017634118,listing,/9-may-street-hampton-vic-3188-2017634118,2867000,is-sold,Sold at auction 26 Mar 2022,20220326,9 May Street,HAMPTON,VIC,3188,-37.93538,145.011612,3,3,3,House,House,False,752,m2,False
2017646033,listing,/33-keith-street-hampton-east-vic-3188-2017646033,1520000,is-sold,Sold at auction 02 Apr 2022,20220402,33 Keith Street,HAMPTON EAST,VIC,3188,-37.9377022,145.030365,3,3,3,House,House,False,620,m2,False
2017646197,listing,/1-kendall-street-hampton-vic-3188-2017646197,1600000,is-sold,Sold at auction 28 Mar 2022,20220328,1 Kendall Street,HAMPTON,VIC,3188,-37.93226,145.023544,2,2,2,House,House,False,0,m2,False
2017646211,listing,/60-spring-road-hampton-east-vic-3188-2017646211,2300000,is-sold,Sold at auction 30 Mar 2022,20220330,60 Spring Road,HAMPTON EAST,VIC,3188,-37.94148,145.0337,4,4,4,House,House,False,597,m2,False
2017646714,listing,/51-charming-street-hampton-east-vic-3188-2017646714,2100000,is-sold,Sold at auction 28 Mar 2022,20220328,51 Charming Street,HAMPTON EAST,VIC,3188,-37.9349632,145.0324,4,4,4,House,House,False,728,m2,False
2017647507,listing,/90-willis-street-hampton-vic-3188-2017647507,2735000,is-sold,Sold at auction 26 Mar 2022,20220326,90 Willis Street,HAMPTON,VIC,3188,-37.93737,145.008865,4,4,4,House,House,False,0,m2,False
2017647748,listing,/14-oswald-thomas-avenue-hampton-east-vic-3188-2017647748,1825000,is-sold,Sold at auction 31 Mar 2022,20220331,14 Oswald Thomas Avenue,HAMPTON EAST,VIC,3188,-37.93563,145.031128,4,4,4,House,House,False,0,m2,False
2017653247,listing,/56-sargood-street-hampton-vic-3188-2017653247,2150000,is-sold,Sold at auction 28 Mar 2022,20220328,56 Sargood Street,HAMPTON,VIC,3188,-37.94302,145.011139,4,4,4,House,House,False,298,m2,False
2017654717,listing,/6-125-thomas-street-hampton-vic-3188-2017654717,Price Withheld,is-sold,Sold at auction 02 Apr 2022,20220402,6/125 Thomas Street,HAMPTON,VIC,3188,-37.9389229,145.014084,2,2,2,ApartmentUnitFlat,Apartment / Unit / Flat,False,0,m2,False
2017666142,listing,/38-flowerdale-road-hampton-east-vic-3188-2017666142,1320000,is-sold,Sold at auction 29 Mar 2022,20220329,38 Flowerdale Road,HAMPTON EAST,VIC,3188,-37.9406433,145.0345,3,3,3,Townhouse,Townhouse,False,247,m2,False
2017676350,listing,/2-1-edinburgh-street-hampton-vic-3188-2017676350,921000,is-sold,Sold by private treaty 28 Mar 2022,20220328,2/1 Edinburgh Street,HAMPTON,VIC,3188,-37.9394531,145.01532,2,2,2,ApartmentUnitFlat,Apartment / Unit / Flat,False,0,m2,False
2016972624,listing,/105-41-crisp-street-hampton-vic-3188-2016972624,1272500,is-sold,Sold by private treaty 24 Mar 2022,20220324,105/41 Crisp Street,HAMPTON,VIC,3188,-37.9410934,145.006668,2,2,2,ApartmentUnitFlat,Apartment / Unit / Flat,False,127,m2,False
2017382749,listing,/515b-hampton-street-hampton-vic-3188-2017382749,680000,is-sold,Sold by private treaty 10 Mar 2022,20220310,515B Hampton Street,HAMPTON,VIC,3188,-37.932,145.003265,2,2,2,ApartmentUnitFlat,Apartment / Unit / Flat,False,0,m2,False
2017449566,listing,/7b-valerian-street-hampton-vic-3188-2017449566,1945000,is-sold,Sold by private treaty 11 Mar 2022,20220311,7b Valerian Street,HAMPTON,VIC,3188,-37.9446373,145.019562,4,4,4,Townhouse,Townhouse,False,0,m2,False
2017457772,listing,/13-alicia-st-hampton-vic-3188-2017457772,7005000,is-sold,Sold by private treaty 19 Mar 2022,20220319,13 Alicia St,HAMPTON,VIC,3188,-37.9431267,145.003387,5,5,5,House,House,False,1161,m2,False
2017544452,listing,/28-teddington-road-hampton-vic-3188-2017544452,Price Withheld,is-sold,Sold by private treaty 10 Mar 2022,20220310,28 Teddington Road,HAMPTON,VIC,3188,-37.93595,145.0172,4,4,4,Townhouse,Townhouse,False,383,m2,False
2017554107,listing,/110-427-hampton-street-hampton-vic-3188-2017554107,480000,is-sold,Sold by private treaty 08 Mar 2022,20220308,110/427 Hampton Street,HAMPTON,VIC,3188,-37.934597,145.002716,1,1,1,ApartmentUnitFlat,Apartment / Unit / Flat,False,0,m2,False
2017579646,listing,/10-kelsall-court-hampton-east-vic-3188-2017579646,1851000,is-sold,Sold by private treaty 24 Mar 2022,20220324,10 Kelsall Court,HAMPTON EAST,VIC,3188,-37.94226,145.031021,5,5,5,House,House,False,603,m2,False
2017595252,listing,/35-ivy-street-hampton-vic-3188-2017595252,2020000,is-sold,Sold at auction 10 Mar 2022,20220310,35 Ivy Street,HAMPTON,VIC,3188,-37.9343872,145.017578,4,4,4,House,House,False,0,m2,False
2017600869,listing,/24-deakin-street-north-hampton-vic-3188-2017600869,3400000,is-sold,Sold by private treaty 13 Mar 2022,20220313,24 Deakin Street North,HAMPTON,VIC,3188,-37.9402,145.005188,5,5,5,House,House,False,929,m2,False
2017601040,listing,/35-apex-avenue-hampton-east-vic-3188-2017601040,1860000,is-sold,Sold at auction 09 Mar 2022,20220309,35 Apex Avenue,HAMPTON EAST,VIC,3188,-37.93798,145.02861,NaN,NaN,NaN,VacantLand,Vacant land,False,660,m2,False
2017612801,listing,/100-david-st-hampton-vic-3188-2017612801,2010000,is-sold,Sold at auction 19 Mar 2022,20220319,100 David St,HAMPTON,VIC,3188,-37.94373,145.021652,3,3,3,House,House,False,0,m2,False
2017615541,listing,/14-avelin-street-hampton-vic-3188-2017615541,3085000,is-sold,Sold by private treaty 10 Mar 2022,20220310,14 Avelin Street,HAMPTON,VIC,3188,-37.931366,145.011475,5,5,5,House,House,False,0,m2,False
2017616001,listing,/15-hastings-street-hampton-vic-3188-2017616001,2415000,is-sold,Sold by private treaty 19 Mar 2022,20220319,15 Hastings Street,HAMPTON,VIC,3188,-37.934803,144.998428,4,4,4,House,House,False,0,m2,False
2017617032,listing,/4-coombe-avenue-hampton-vic-3188-2017617032,1700000,is-sold,Sold at auction 16 Mar 2022,20220316,4 Coombe Avenue,HAMPTON,VIC,3188,-37.93735,145.0139,3,3,3,House,House,False,0,m2,False
2017617127,listing,/16-44-highett-road-hampton-vic-3188-2017617127,Price Withheld,is-sold,Sold at auction 19 Mar 2022,20220319,16/44 Highett Road,HAMPTON,VIC,3188,-37.94575,145.015839,2,2,2,ApartmentUnitFlat,Apartment / Unit / Flat,False,0,m2,False
2017619191,listing,/38-barnett-street-hampton-vic-3188-2017619191,1455000,is-sold,Sold at auction 19 Mar 2022,20220319,38 Barnett Street,HAMPTON,VIC,3188,-37.9347153,145.019089,3,3,3,Townhouse,Townhouse,False,454,m2,False
2017633293,listing,/18-15-beach-road-hampton-vic-3188-2017633293,1455000,is-sold,Sold by private treaty 21 Mar 2022,20220321,18/15 Beach Road,HAMPTON,VIC,3188,-37.934185,144.996216,3,3,3,ApartmentUnitFlat,Apartment / Unit / Flat,False,0,m2,False
2017637006,listing,/2-1-tarwin-avenue-hampton-east-vic-3188-2017637006,1126000,is-sold,Sold at auction 19 Mar 2022,20220319,2/1 Tarwin Avenue,HAMPTON EAST,VIC,3188,-37.9390755,145.024216,3,3,3,Townhouse,Townhouse,False,0,m2,False
2017637355,listing,/48-ludstone-street-hampton-vic-3188-2017637355,2575000,is-sold,Sold by private treaty 16 Mar 2022,20220316,48 Ludstone Street,HAMPTON,VIC,3188,-37.9338455,145.008926,4,4,4,House,House,False,0,m2,False
2017648610,listing,/1b-vista-road-hampton-vic-3188-2017648610,2410000,is-sold,Sold at auction 24 Mar 2022,20220324,1B Vista Road,HAMPTON,VIC,3188,-37.9292068,144.996811,4,4,4,Townhouse,Townhouse,False,0,m2,False
2016972633,listing,/205-41-crisp-street-hampton-vic-3188-2016972633,995000,is-sold,Sold by private treaty 23 Feb 2022,20220223,205/41 Crisp Street,HAMPTON,VIC,3188,-37.9410934,145.006668,2,2,2,NewApartments,New Apartments / Off the Plan,False,100,m2,False
2017514049,listing,/12-besant-street-hampton-east-vic-3188-2017514049,1210000,is-sold,Sold by private treaty 03 Mar 2022,20220303,12 Besant Street,HAMPTON EAST,VIC,3188,-37.9430962,145.030243,2,2,2,House,House,False,0,m2,False
2017525209,listing,/1-119-wickham-road-hampton-east-vic-3188-2017525209,970000,is-sold,Sold by private treaty 25 Feb 2022,20220225,1/119 Wickham Road,HAMPTON EAST,VIC,3188,-37.9442978,145.037338,3,3,3,House,House,False,0,m2,False
2017536501,listing,/28-margarita-street-hampton-vic-3188-2017536501,2807000,is-sold,Sold at auction 23 Feb 2022,20220223,28 Margarita Street,HAMPTON,VIC,3188,-37.9318237,144.999725,3,3,3,House,House,False,666,m2,False
2017557560,listing,/63-teddington-road-hampton-vic-3188-2017557560,2665000,is-sold,Sold at auction 26 Feb 2022,20220226,63 Teddington Road,HAMPTON,VIC,3188,-37.9361458,145.021576,4,4,4,House,House,False,766,m2,False
2017558373,listing,/3-62-beach-road-hampton-vic-3188-2017558373,700000,is-sold,Sold at auction 26 Feb 2022,20220226,3/62 Beach Road,HAMPTON,VIC,3188,-37.94072,145.0002,1,1,1,ApartmentUnitFlat,Apartment / Unit / Flat,False,0,m2,False
2017560658,listing,/2-hood-street-hampton-vic-3188-2017560658,1500000,is-sold,Sold by private treaty 26 Feb 2022,20220226,2 Hood Street,HAMPTON,VIC,3188,-37.93412,145.0082,3,3,3,House,House,False,0,m2,False
2017561099,listing,/38-bateman-street-hampton-vic-3188-2017561099,2250000,is-sold,Sold at auction 23 Feb 2022,20220223,38 Bateman Street,HAMPTON,VIC,3188,-37.93394,145.0158,3,3,3,House,House,False,0,m2,False
2017561590,listing,/2-29-littlewood-street-hampton-vic-3188-2017561590,1635000,is-sold,Sold at auction 26 Feb 2022,20220226,2/29 Littlewood Street,HAMPTON,VIC,3188,-37.9344635,145.006073,3,3,3,Townhouse,Townhouse,False,0,m2,False
2017564281,listing,/26-lonsdale-avenue-hampton-east-vic-3188-2017564281,1465000,is-sold,Sold by private treaty 02 Mar 2022,20220302,26 Lonsdale Avenue,HAMPTON EAST,VIC,3188,-37.93563,145.028351,3,3,3,House,House,False,0,m2,False
2017564455,listing,/152-ludstone-street-hampton-vic-3188-2017564455,1435000,is-sold,Sold at auction 24 Feb 2022,20220224,152 Ludstone Street,HAMPTON,VIC,3188,-37.9351959,145.0193,3,3,3,House,House,False,0,m2,False
2017564512,listing,/6-oswald-thomas-avenue-hampton-east-vic-3188-2017564512,2360000,is-sold,Sold at auction 26 Feb 2022,20220226,6 Oswald Thomas Avenue,HAMPTON EAST,VIC,3188,-37.9354477,145.0302,3,3,3,House,House,False,582,m2,False
2017565816,listing,/91-linacre-road-hampton-vic-3188-2017565816,2000000,is-sold,Sold at auction 28 Feb 2022,20220228,91 Linacre Road,HAMPTON,VIC,3188,-37.9431152,145.0118,3,3,3,House,House,False,0,m2,False
2017565817,listing,/17-littlewood-street-hampton-vic-3188-2017565817,4500000,is-sold,Sold at auction 26 Feb 2022,20220226,17 Littlewood Street,HAMPTON,VIC,3188,-37.9344139,145.0051,6,6,6,House,House,False,771,m2,False
2017576149,listing,/2a-leith-crescent-hampton-east-vic-3188-2017576149,Price Withheld,is-sold,Sold at auction 05 Mar 2022,20220305,2A Leith Crescent,HAMPTON EAST,VIC,3188,-37.9433861,145.029373,3,3,3,Townhouse,Townhouse,False,399,m2,False
2017582666,listing,/5a-heath-crescent-hampton-east-vic-3188-2017582666,1590000,is-sold,Sold at auction 05 Mar 2022,20220305,5a Heath Crescent,HAMPTON EAST,VIC,3188,-37.93719,145.028732,4,4,4,Townhouse,Townhouse,False,0,m2,False
2017582962,listing,/89-willis-street-hampton-vic-3188-2017582962,2990000,is-sold,Sold at auction 05 Mar 2022,20220305,89 Willis Street,HAMPTON,VIC,3188,-37.93693,145.008545,4,4,4,House,House,False,580,m2,False
2017583647,listing,/10-james-crescent-hampton-vic-3188-2017583647,1925000,is-sold,Sold at auction 05 Mar 2022,20220305,10 James Crescent,HAMPTON,VIC,3188,-37.94247,145.0187,2,2,2,House,House,False,0,m2,False
2017584176,listing,/2-carolyn-street-hampton-vic-3188-2017584176,1795000,is-sold,Sold at auction 02 Mar 2022,20220302,2 Carolyn Street,HAMPTON,VIC,3188,-37.9394035,145.022614,4,4,4,House,House,False,0,m2,False
2017615813,listing,/28-roydon-street-hampton-east-vic-3188-2017615813,1400000,is-sold,Sold at auction 07 Mar 2022,20220307,28 Roydon Street,HAMPTON EAST,VIC,3188,-37.9354744,145.027649,3,3,3,Townhouse,Townhouse,False,339,m2,False
2017290881,listing,/201-4-littlewood-street-hampton-vic-3188-2017290881,1850000,is-sold,Sold by private treaty 21 Feb 2022,20220221,201/4 Littlewood Street,HAMPTON,VIC,3188,-37.9348,145.003952,3,3,3,ApartmentUnitFlat,Apartment / Unit / Flat,False,0,m2,False
2017349255,listing,/6-30-nepean-avenue-hampton-east-vic-3188-2017349255,470000,is-sold,Sold by private treaty 01 Feb 2022,20220201,6/30 Nepean Avenue,HAMPTON EAST,VIC,3188,-37.933754,145.029465,2,2,2,ApartmentUnitFlat,Apartment / Unit / Flat,False,0,m2,False
2017377372,listing,/474b-bluff-road-hampton-vic-3188-2017377372,1395000,is-sold,Sold at auction 20 Feb 2022,20220220,474B Bluff Road,HAMPTON,VIC,3188,-37.940258,145.0236,4,4,4,Townhouse,Townhouse,False,0,m2,False
2017378183,listing,/104-linacre-road-hampton-vic-3188-2017378183,3200000,is-sold,Sold by private treaty 02 Feb 2022,20220202,104 Linacre Road,HAMPTON,VIC,3188,-37.9437141,145.01413,5,5,5,House,House,False,0,m2,False
2017491289,listing,/1-16-small-street-hampton-vic-3188-2017491289,785000,is-sold,Sold by private treaty 23 Jan 2022,20220123,1/16 Small Street,HAMPTON,VIC,3188,-37.9398575,145.00293,2,2,2,ApartmentUnitFlat,Apartment / Unit / Flat,False,0,m2,False
2017503274,listing,/62-orlando-street-hampton-vic-3188-2017503274,3060000,is-sold,Sold by private treaty 10 Feb 2022,20220210,62 Orlando Street,HAMPTON,VIC,3188,-37.9367867,144.9992,4,4,4,House,House,False,607,m2,False
2017506384,listing,/117-427-hampton-street-hampton-vic-3188-2017506384,590000,is-sold,Sold by private treaty 11 Feb 2022,20220211,117/427 Hampton Street,HAMPTON,VIC,3188,-37.934597,145.002716,2,2,2,ApartmentUnitFlat,Apartment / Unit / Flat,False,0,m2,False
2017507251,listing,/9a-chislehurst-road-hampton-vic-3188-2017507251,2300000,is-sold,Sold at auction 05 Feb 2022,20220205,9A Chislehurst Road,HAMPTON,VIC,3188,-37.9364243,145.0199,4,4,4,Townhouse,Townhouse,False,388,m2,False
2017514031,listing,/10-36-crisp-street-hampton-vic-3188-2017514031,690000,is-sold,Sold by private treaty 18 Feb 2022,20220218,10/36 Crisp Street,HAMPTON,VIC,3188,-37.9413834,145.00592,2,2,2,ApartmentUnitFlat,Apartment / Unit / Flat,False,0,m2,False
2017517596,listing,/8a-saltair-street-hampton-east-vic-3188-2017517596,1610000,is-sold,Sold at auction 07 Feb 2022,20220207,8A Saltair Street,HAMPTON EAST,VIC,3188,-37.94217,145.026016,3,3,3,Townhouse,Townhouse,False,0,m2,False
2017528157,listing,/1b-highbury-ave-hampton-east-vic-3188-2017528157,885000,is-sold,Sold at auction 12 Feb 2022,20220212,1B Highbury Ave,HAMPTON EAST,VIC,3188,-37.9334755,145.033035,3,3,3,Townhouse,Townhouse,False,0,m2,False
2017533394,listing,/413-bluff-road-hampton-vic-3188-2017533394,1410000,is-sold,Sold at auction 24 Jan 2022,20220124,413 Bluff Road,HAMPTON,VIC,3188,-37.94125,145.022873,4,4,4,House,House,False,0,m2,False
2017535433,listing,/10b-carolyn-street-hampton-vic-3188-2017535433,2285000,is-sold,Sold at auction 12 Feb 2022,20220212,10B Carolyn Street,HAMPTON,VIC,3188,-37.93998,145.022583,4,4,4,Townhouse,Townhouse,False,314,m2,False
2017546602,listing,/419-bluff-road-hampton-vic-3188-2017546602,1405000,is-sold,Sold at auction 19 Feb 2022,20220219,419 Bluff Road,HAMPTON,VIC,3188,-37.94053,145.02301,3,3,3,House,House,False,587,m2,False
2017546623,listing,/58-ludstone-street-hampton-vic-3188-2017546623,3140000,is-sold,Sold at auction 18 Feb 2022,20220218,58 Ludstone Street,HAMPTON,VIC,3188,-37.9340858,145.009766,4,4,4,House,House,False,615,m2,False
2017547145,listing,/41-retreat-road-hampton-vic-3188-2017547145,2970000,is-sold,Sold at auction 19 Feb 2022,20220219,41 Retreat Road,HAMPTON,VIC,3188,-37.94071,145.015488,5,5,5,House,House,False,0,m2,False
2017547900,listing,/7a-charles-street-hampton-vic-3188-2017547900,1890000,is-sold,Sold at auction 19 Feb 2022,20220219,7A Charles Street,HAMPTON,VIC,3188,-37.9382,145.0087,3,3,3,Townhouse,Townhouse,False,0,m2,False
2017548357,listing,/19-15-beach-road-hampton-vic-3188-2017548357,1453000,is-sold,Sold at auction 16 Feb 2022,20220216,19/15 Beach Road,HAMPTON,VIC,3188,-37.934185,144.996216,2,2,2,ApartmentUnitFlat,Apartment / Unit / Flat,False,0,m2,False
2017549735,listing,/10a-acheron-court-hampton-east-vic-3188-2017549735,1935000,is-sold,Sold at auction 12 Feb 2022,20220212,10A Acheron Court,HAMPTON EAST,VIC,3188,-37.942318,145.037109,4,4,4,Townhouse,Townhouse,False,327,m2,False
2017599148,listing,/4-5-beach-road-hampton-vic-3188-2017599148,Price Withheld,is-sold,Sold by private treaty 16 Feb 2022,20220216,4-5 Beach Road,HAMPTON,VIC,3188,-37.93323,144.9946,4,4,4,House,House,False,0,m2,False
2017296987,listing,/a-12-cooke-avenue-hampton-east-vic-3188-2017296987,1440000,is-sold,Sold by private treaty 03 Jan 2022,20220103,a/12 Cooke Avenue,HAMPTON EAST,VIC,3188,-37.94177,145.025009,4,4,4,Townhouse,Townhouse,False,312,m2,False
2017364185,listing,/39-littlewood-street-hampton-vic-3188-2017364185,6750000,is-sold,Sold by private treaty 14 Dec 2021,20211214,39 Littlewood Street,HAMPTON,VIC,3188,-37.93448,145.007156,5,5,5,House,House,False,1200,m2,False
2017381334,listing,/33-grenville-street-hampton-vic-3188-2017381334,3250000,is-sold,Sold by private treaty 24 Dec 2021,20211224,33 Grenville Street,HAMPTON,VIC,3188,-37.93519,145.001419,4,4,4,House,House,False,600,m2,False
2017393663,listing,/9-15-beach-rd-hampton-vic-3188-2017393663,1850000,is-sold,Sold by private treaty 17 Jan 2022,20220117,9/15 Beach Rd,HAMPTON,VIC,3188,-37.934185,144.996216,4,4,4,ApartmentUnitFlat,Apartment / Unit / Flat,False,0,m2,False
2017401686,listing,/4-138-140-linacre-road-hampton-vic-3188-2017401686,770000,is-sold,Sold by private treaty 22 Dec 2021,20211222,4/138-140 Linacre Road,HAMPTON,VIC,3188,-37.9448929,145.021851,2,2,2,ApartmentUnitFlat,Apartment / Unit / Flat,False,0,m2,False
2017410609,listing,/64-earlsfield-road-hampton-vic-3188-2017410609,2430000,is-sold,Sold by private treaty 27 Dec 2021,20211227,64 Earlsfield Road,HAMPTON,VIC,3188,-37.93687,145.016327,4,4,4,House,House,False,560,m2,False
2017415775,listing,/21b-lonsdale-avenue-hampton-east-vic-3188-2017415775,1685000,is-sold,Sold by private treaty 19 Dec 2021,20211219,21B Lonsdale Avenue,HAMPTON EAST,VIC,3188,-37.9363747,145.02774,4,4,4,Townhouse,Townhouse,False,325,m2,False
2017417898,listing,/2-57-teddington-road-hampton-vic-3188-2017417898,1290000,is-sold,Sold by private treaty 29 Dec 2021,20211229,2/57 Teddington Road,HAMPTON,VIC,3188,-37.9357834,145.021149,3,3,3,Townhouse,Townhouse,False,0,m2,False
2017419113,listing,/27-gordon-street-hampton-vic-3188-2017419113,4700000,is-sold,Sold by private treaty 16 Dec 2021,20211216,27 Gordon Street,HAMPTON,VIC,3188,-37.929966,144.997635,5,5,5,House,House,False,668,m2,False
2017420382,listing,/30-new-street-hampton-vic-3188-2017420382,5515000,is-sold,Sold by private treaty 14 Dec 2021,20211214,30 New Street,HAMPTON,VIC,3188,-37.92912,144.994278,5,5,5,House,House,False,1416,m2,False
2017421935,listing,/1b-roydon-street-hampton-vic-3188-2017421935,1740000,is-sold,Sold at auction 21 Dec 2021,20211221,1B Roydon Street,HAMPTON,VIC,3188,-37.934864,145.02507,4,4,4,House,House,False,0,m2,False
2017422972,listing,/2-22-king-street-hampton-east-vic-3188-2017422972,1210000,is-sold,Sold by private treaty 22 Jan 2022,20220122,2/22 King Street,HAMPTON EAST,VIC,3188,-37.9340324,145.032776,3,3,3,Townhouse,Townhouse,False,0,m2,False
2017423761,listing,/1b-leonard-street-hampton-east-vic-3188-2017423761,1685000,is-sold,Sold by private treaty 15 Dec 2021,20211215,1B Leonard Street,HAMPTON EAST,VIC,3188,-37.93767,145.031143,4,4,4,Townhouse,Townhouse,False,0,m2,False
2017423824,listing,/18-teddington-road-hampton-vic-3188-2017423824,2738000,is-sold,Sold by private treaty 05 Jan 2022,20220105,18 Teddington Road,HAMPTON,VIC,3188,-37.9358253,145.0151,4,4,4,House,House,False,768,m2,False
2017439257,listing,/87-orlando-street-hampton-vic-3188-2017439257,2920000,is-sold,Sold at auction 16 Dec 2021,20211216,87 Orlando Street,HAMPTON,VIC,3188,-37.9354324,144.997711,2,2,2,House,House,False,570,m2,False
2017439638,listing,/22-wishart-street-hampton-east-vic-3188-2017439638,1550000,is-sold,Sold by private treaty 21 Dec 2021,20211221,22 Wishart Street,HAMPTON EAST,VIC,3188,-37.9355659,145.027176,4,4,4,House,House,False,0,m2,False
2017446480,listing,/38-56-beach-road-hampton-vic-3188-2017446480,1375000,is-sold,Sold at auction 21 Dec 2021,20211221,38/56 Beach Road,HAMPTON,VIC,3188,-37.939415,144.9997,2,2,2,ApartmentUnitFlat,Apartment / Unit / Flat,False,0,m2,False
2017449158,listing,/unit-3-78-holyrood-street-hampton-vic-3188-2017449158,955000,is-sold,Sold by private treaty 03 Jan 2022,20220103,Unit 3/78 Holyrood Street,HAMPTON,VIC,3188,-37.9338722,145.002289,2,2,2,ApartmentUnitFlat,Apartment / Unit / Flat,False,0,m2,False
2017474729,listing,/5b-saltair-street-hampton-east-vic-3188-2017474729,1490000,is-sold,Sold at auction 21 Dec 2021,20211221,5B Saltair Street,HAMPTON EAST,VIC,3188,-37.9422951,145.025528,4,4,4,Townhouse,Townhouse,False,0,m2,False
2017527800,listing,/27b-kingston-street-hampton-vic-3188-2017527800,1510000,is-sold,Sold at auction 20 Jan 2022,20220120,27B Kingston Street,HAMPTON,VIC,3188,-37.9327126,145.013275,3,3,3,House,House,False,0,m2,False
2017250028,listing,/3-stonehaven-crescent-hampton-east-vic-3188-2017250028,2297000,is-sold,Sold at auction 05 Dec 2021,20211205,3 Stonehaven Crescent,HAMPTON EAST,VIC,3188,-37.9361267,145.030319,4,4,4,House,House,False,600,m2,False
2017273419,listing,/24-fewster-road-hampton-vic-3188-2017273419,2190000,is-sold,Sold by private treaty 02 Dec 2021,20211202,24 Fewster Road,HAMPTON,VIC,3188,-37.9383,145.015472,4,4,4,House,House,False,0,m2,False
2017364693,listing,/22-kelsall-court-hampton-east-vic-3188-2017364693,1865000,is-sold,Sold by private treaty 10 Dec 2021,20211210,22 Kelsall Court,HAMPTON EAST,VIC,3188,-37.9423561,145.032043,3,3,3,House,House,False,597,m2,False
2017397169,listing,/23-retreat-road-hampton-vic-3188-2017397169,2020000,is-sold,Sold at auction 04 Dec 2021,20211204,23 Retreat Road,HAMPTON,VIC,3188,-37.94047,145.013748,2,2,2,House,House,False,470,m2,False
2017397592,listing,/2-field-street-hampton-vic-3188-2017397592,2060000,is-sold,Sold at auction 04 Dec 2021,20211204,2 Field Street,HAMPTON,VIC,3188,-37.9444542,145.017838,2,2,2,House,House,False,720,m2,False
2017397670,listing,/5-margarita-street-hampton-vic-3188-2017397670,4200000,is-sold,Sold at auction 02 Dec 2021,20211202,5 Margarita Street,HAMPTON,VIC,3188,-37.9296875,144.999542,4,4,4,House,House,False,782,m2,False
2017399657,listing,/65-holyrood-street-hampton-vic-3188-2017399657,3475000,is-sold,Sold by private treaty 11 Dec 2021,20211211,65 Holyrood Street,HAMPTON,VIC,3188,-37.9333954,145.001312,4,4,4,House,House,False,602,m2,False
2017400160,listing,/18-king-street-hampton-east-vic-3188-2017400160,1267000,is-sold,Sold at auction 04 Dec 2021,20211204,18 King Street,HAMPTON EAST,VIC,3188,-37.93399,145.03241,3,3,3,House,House,False,360,m2,False
2017401550,listing,/71a-teddington-road-hampton-vic-3188-2017401550,1660000,is-sold,Sold at auction 08 Dec 2021,20211208,71A Teddington Road,HAMPTON,VIC,3188,-37.9362526,145.022247,3,3,3,House,House,False,0,m2,False
2017404631,listing,/15-237-thomas-street-hampton-vic-3188-2017404631,865000,is-sold,Sold by private treaty 13 Dec 2021,20211213,15/237 Thomas Street,HAMPTON,VIC,3188,-37.940155,145.021667,2,2,2,ApartmentUnitFlat,Apartment / Unit / Flat,False,0,m2,False
2017413798,listing,/96-orlando-street-hampton-vic-3188-2017413798,3310000,is-sold,Sold at auction 11 Dec 2021,20211211,96 Orlando Street,HAMPTON,VIC,3188,-37.9347649,144.997086,3,3,3,House,House,False,755,m2,False
2017413947,listing,/9-wales-street-hampton-vic-3188-2017413947,2250000,is-sold,Sold at auction 11 Dec 2021,20211211,9 Wales Street,HAMPTON,VIC,3188,-37.94417,145.0158,5,5,5,House,House,False,713,m2,False
2017420104,listing,/412-2-willis-lane-hampton-vic-3188-2017420104,420000,is-sold,Sold by private treaty 04 Dec 2021,20211204,412/2 Willis Lane,HAMPTON,VIC,3188,-37.9375725,145.001663,2,2,2,ApartmentUnitFlat,Apartment / Unit / Flat,False,0,m2,False
2017421016,listing,/2-6-flowerdale-road-hampton-east-vic-3188-2017421016,810000,is-sold,Sold at auction 10 Dec 2021,20211210,2/6 Flowerdale Road,HAMPTON EAST,VIC,3188,-37.94279,145.035034,2,2,2,Townhouse,Townhouse,False,0,m2,False
2017425483,listing,/34-may-street-hampton-vic-3188-2017425483,2550000,is-sold,Sold at auction 01 Dec 2021,20211201,34 May Street,HAMPTON,VIC,3188,-37.9369278,145.011765,3,3,3,House,House,False,0,m2,False
2017428410,listing,/1-25-small-street-hampton-vic-3188-2017428410,1400000,is-sold,Sold prior to auction 14 Dec 2021,20211214,1/25 Small Street,HAMPTON,VIC,3188,-37.93926,145.0015,3,3,3,ApartmentUnitFlat,Apartment / Unit / Flat,False,0,m2,False
2017429505,listing,/6a-nicol-street-hampton-vic-3188-2017429505,1702000,is-sold,Sold at auction 11 Dec 2021,20211211,6a Nicol Street,HAMPTON,VIC,3188,-37.9419937,145.016327,3,3,3,Townhouse,Townhouse,False,0,m2,False
2017433539,listing,/88a-linacre-road-hampton-vic-3188-2017433539,2150000,is-sold,Sold at auction 11 Dec 2021,20211211,88a Linacre Road,HAMPTON,VIC,3188,-37.9433823,145.0114,4,4,4,Townhouse,Townhouse,False,0,m2,False
2017437685,listing,/4-hudson-street-hampton-vic-3188-2017437685,3580000,is-sold,Sold at auction 07 Dec 2021,20211207,4 Hudson Street,HAMPTON,VIC,3188,-37.93783,145.011292,5,5,5,House,House,False,0,m2,False
2017448027,listing,/3-45-beach-road-hampton-vic-3188-2017448027,1200000,is-sold,Sold by private treaty 08 Dec 2021,20211208,3/45 Beach Road,HAMPTON,VIC,3188,-37.93795,144.998886,2,2,2,ApartmentUnitFlat,Apartment / Unit / Flat,False,0,m2,False
2017173458,listing,/1-22-roydon-street-hampton-east-vic-3188-2017173458,800000,is-sold,Sold by private treaty 29 Nov 2021,20211129,1/22 Roydon Street,HAMPTON EAST,VIC,3188,-37.93558,145.026642,2,2,2,Villa,Villa,False,0,m2,False
2017294617,listing,/4-12-grenville-street-hampton-vic-3188-2017294617,1590000,is-sold,Sold by private treaty 23 Nov 2021,20211123,4/12 Grenville Street,HAMPTON,VIC,3188,-37.9356956,144.999374,3,3,3,House,House,False,0,m2,False
2017299327,listing,/6-earlsfield-road-hampton-vic-3188-2017299327,2635000,is-sold,Sold by private treaty 24 Nov 2021,20211124,6 Earlsfield Road,HAMPTON,VIC,3188,-37.93187,145.017288,4,4,4,House,House,False,0,m2,False
2017303441,listing,/15-38-holyrood-street-hampton-vic-3188-2017303441,888000,is-sold,Sold by private treaty 25 Nov 2021,20211125,15/38 Holyrood Street,HAMPTON,VIC,3188,-37.9335175,144.9988,2,2,2,ApartmentUnitFlat,Apartment / Unit / Flat,False,0,m2,False
2017304552,listing,/21-kendall-street-hampton-vic-3188-2017304552,2300000,is-sold,Sold by private treaty 22 Nov 2021,20211122,21 Kendall Street,HAMPTON,VIC,3188,-37.933876,145.023224,4,4,4,House,House,False,1030,m2,False
2017309997,listing,/24-78-holyrood-street-hampton-vic-3188-2017309997,915000,is-sold,Sold by private treaty 27 Nov 2021,20211127,24/78 Holyrood Street,HAMPTON,VIC,3188,-37.9338722,145.002289,2,2,2,ApartmentUnitFlat,Apartment / Unit / Flat,False,0,m2,False
2017340813,listing,/42-linacre-rd-hampton-vic-3188-2017340813,3225000,is-sold,Sold by private treaty 28 Nov 2021,20211128,42 Linacre Rd,HAMPTON,VIC,3188,-37.94271,145.006012,5,5,5,House,House,False,0,m2,False
2017360220,listing,/1-7-foam-street-hampton-vic-3188-2017360220,2262000,is-sold,Sold at auction 20 Nov 2021,20211120,1/7 Foam Street,HAMPTON,VIC,3188,-37.9374771,145.00647,4,4,4,House,House,False,0,m2,False
2017363685,listing,/10-56-beach-road-hampton-vic-3188-2017363685,1005000,is-sold,Sold at auction 24 Nov 2021,20211124,10/56 Beach Road,HAMPTON,VIC,3188,-37.939415,144.9997,2,2,2,ApartmentUnitFlat,Apartment / Unit / Flat,False,0,m2,False
2017373569,listing,/39-apex-avenue-hampton-east-vic-3188-2017373569,1525000,is-sold,Sold at auction 27 Nov 2021,20211127,39 Apex Avenue,HAMPTON EAST,VIC,3188,-37.9380646,145.028976,3,3,3,Townhouse,Townhouse,False,0,m2,False
2017383598,listing,/9-harry-st-hampton-east-vic-3188-2017383598,1300000,is-sold,Sold at auction 22 Nov 2021,20211122,9 Harry St,HAMPTON EAST,VIC,3188,-37.9381943,145.031433,3,3,3,House,House,False,0,m2,False
2017394855,listing,/31-highett-road-hampton-vic-3188-2017394855,1360000,is-sold,Sold at auction 27 Nov 2021,20211127,31 Highett Road,HAMPTON,VIC,3188,-37.94525,145.0147,2,2,2,House,House,False,0,m2,False
2017397498,listing,/134-ludstone-st-hampton-vic-3188-2017397498,2925000,is-sold,Sold by private treaty 26 Nov 2021,20211126,134 Ludstone St,HAMPTON,VIC,3188,-37.9350281,145.017761,4,4,4,House,House,False,0,m2,False
2017402561,listing,/3-5-hastings-street-hampton-vic-3188-2017402561,1504000,is-sold,Sold at auction 27 Nov 2021,20211127,3/5 Hastings Street,HAMPTON,VIC,3188,-37.93419,144.998489,3,3,3,ApartmentUnitFlat,Apartment / Unit / Flat,False,0,m2,False
2017402831,listing,/3-austin-road-hampton-vic-3188-2017402831,1820000,is-sold,Sold at auction 27 Nov 2021,20211127,3 Austin Road,HAMPTON,VIC,3188,-37.9443321,145.014526,3,3,3,House,House,False,0,m2,False
2017405000,listing,/2-310a-hampton-street-hampton-vic-3188-2017405000,1850000,is-sold,Sold at auction 01 Dec 2021,20211201,2/310A Hampton Street,HAMPTON,VIC,3188,-37.9439964,145.001648,3,3,3,Townhouse,Townhouse,False,0,m2,False
2017410727,listing,/204-4-littlewood-street-hampton-vic-3188-2017410727,930000,is-sold,Sold by private treaty 24 Nov 2021,20211124,204/4 Littlewood Street,HAMPTON,VIC,3188,-37.9348068,145.003952,2,2,2,ApartmentUnitFlat,Apartment / Unit / Flat,False,0,m2,False
2017419307,listing,/77-wickham-road-hampton-east-vic-3188-2017419307,1425000,is-sold,Sold at auction 24 Nov 2021,20211124,77 Wickham Road,HAMPTON EAST,VIC,3188,-37.9437141,145.03241,3,3,3,House,House,False,578,m2,False
2017425378,listing,/404-336-south-rd-hampton-east-vic-3188-2017425378,810000,is-sold,Sold by private treaty 01 Dec 2021,20211201,404/336 South Rd,HAMPTON EAST,VIC,3188,-37.9330063,145.032379,3,3,3,ApartmentUnitFlat,Apartment / Unit / Flat,False,0,m2,False
2017426410,listing,/3-11-railway-crescent-hampton-vic-3188-2017426410,Price Withheld,is-sold,Sold by private treaty 30 Nov 2021,20211130,3/11 Railway Crescent,HAMPTON,VIC,3188,-37.9388161,145.001526,2,2,2,ApartmentUnitFlat,Apartment / Unit / Flat,False,0,m2,False
2017040665,listing,/8-bronte-court-hampton-vic-3188-2017040665,3800000,is-sold,Sold at auction 06 Nov 2021,20211106,8 Bronte Court,HAMPTON,VIC,3188,-37.9399376,145.020508,3,3,3,House,House,False,0,m2,False
2017040673,listing,/10-bronte-court-hampton-vic-3188-2017040673,3930000,is-sold,Sold at auction 06 Nov 2021,20211106,10 Bronte Court,HAMPTON,VIC,3188,-37.93972,145.0205,4,4,4,House,House,False,0,m2,False
2017255845,listing,/101-1a-littlewood-street-hampton-vic-3188-2017255845,852500,is-sold,Sold at auction 06 Nov 2021,20211106,101/1A Littlewood Street,HAMPTON,VIC,3188,-37.93439,145.003845,2,2,2,ApartmentUnitFlat,Apartment / Unit / Flat,False,0,m2,False
2017292034,listing,/104-28-30-linacre-road-hampton-vic-3188-2017292034,Price Withheld,is-sold,Sold by private treaty 17 Nov 2021,20211117,104/28-30 Linacre Road,HAMPTON,VIC,3188,-37.9425774,145.0046,2,2,2,ApartmentUnitFlat,Apartment / Unit / Flat,False,0,m2,False
2017294987,listing,/1-554-bluff-road-hampton-vic-3188-2017294987,857000,is-sold,Sold at auction 13 Nov 2021,20211113,1/554 Bluff Road,HAMPTON,VIC,3188,-37.9337044,145.024918,2,2,2,ApartmentUnitFlat,Apartment / Unit / Flat,False,287,m2,False
2017295632,listing,/207-4-littlewood-street-hampton-vic-3188-2017295632,785000,is-sold,Sold by private treaty 11 Nov 2021,20211111,207/4 Littlewood Street,HAMPTON,VIC,3188,-37.9348,145.003952,2,2,2,ApartmentUnitFlat,Apartment / Unit / Flat,False,0,m2,False
2017316783,listing,/29-holyrood-street-hampton-vic-3188-2017316783,4350000,is-sold,Sold by private treaty 16 Nov 2021,20211116,29 Holyrood Street,HAMPTON,VIC,3188,-37.9328232,144.996933,5,5,5,House,House,False,1100,m2,False
2017321079,listing,/42a-charming-street-hampton-east-vic-3188-2017321079,1350000,is-sold,Sold by private treaty 14 Nov 2021,20211114,42a Charming Street,HAMPTON EAST,VIC,3188,-37.9346123,145.032654,4,4,4,Townhouse,Townhouse,False,0,m2,False
2017323926,listing,/4-14-foam-street-hampton-vic-3188-2017323926,1050000,is-sold,Sold by private treaty 13 Nov 2021,20211113,4/14 Foam Street,HAMPTON,VIC,3188,-37.93812,145.00705,2,2,2,ApartmentUnitFlat,Apartment / Unit / Flat,False,0,m2,False
2017335748,listing,/18-bayside-crescent-hampton-vic-3188-2017335748,2563000,is-sold,Sold at auction 10 Nov 2021,20211110,18 Bayside Crescent,HAMPTON,VIC,3188,-37.9442329,145.006439,3,3,3,House,House,False,0,m2,False
2017336203,listing,/1-7-evans-avenue-hampton-east-vic-3188-2017336203,1057000,is-sold,Sold at auction 13 Nov 2021,20211113,1/7 Evans Avenue,HAMPTON EAST,VIC,3188,-37.9433937,145.0379,2,2,2,House,House,False,0,m2,False
2017339154,listing,/21-bridge-street-hampton-vic-3188-2017339154,4030000,is-sold,Sold at auction 13 Nov 2021,20211113,21 Bridge Street,HAMPTON,VIC,3188,-37.94446,145.003723,4,4,4,House,House,False,0,m2,False
2017352631,listing,/24-smith-street-hampton-vic-3188-2017352631,1575500,is-sold,Sold by private treaty 14 Nov 2021,20211114,24 Smith Street,HAMPTON,VIC,3188,-37.93377,145.0226,3,3,3,House,House,False,0,m2,False
2017353791,listing,/7-dudley-avenue-hampton-east-vic-3188-2017353791,1390000,is-sold,Sold at auction 20 Nov 2021,20211120,7 Dudley Avenue,HAMPTON EAST,VIC,3188,-37.9391251,145.035187,3,3,3,Townhouse,Townhouse,False,313,m2,False
2017357957,listing,/8-58-fewster-road-hampton-vic-3188-2017357957,1260000,is-sold,Sold at auction 07 Nov 2021,20211107,8/58 Fewster Road,HAMPTON,VIC,3188,-37.93952,145.019714,3,3,3,Townhouse,Townhouse,False,0,m2,False
2017360642,listing,/35-flowerdale-road-hampton-east-vic-3188-2017360642,1691000,is-sold,Sold at auction 20 Nov 2021,20211120,35 Flowerdale Road,HAMPTON EAST,VIC,3188,-37.9416847,145.034164,3,3,3,House,House,False,618,m2,False
2017360958,listing,/7-crisp-street-hampton-vic-3188-2017360958,7860000,is-sold,Sold by private treaty 18 Nov 2021,20211118,7 Crisp Street,HAMPTON,VIC,3188,-37.94067,145.003159,4,4,4,House,House,False,945,m2,False
2017367018,listing,/12-kelly-avenue-hampton-east-vic-3188-2017367018,1935000,is-sold,Sold at auction 20 Nov 2021,20211120,12 Kelly Avenue,HAMPTON EAST,VIC,3188,-37.93347,145.026215,5,5,5,House,House,False,0,m2,False
2017390128,listing,/11-barnett-street-hampton-vic-3188-2017390128,2205000,is-sold,Sold at auction 12 Nov 2021,20211112,11 Barnett Street,HAMPTON,VIC,3188,-37.93251,145.019119,4,4,4,Townhouse,Townhouse,False,390,m2,False
2017406715,listing,/g05-2-4-littlewood-street-hampton-vic-3188-2017406715,Price Withheld,is-sold,Sold by private treaty 07 Nov 2021,20211107,G05/2-4 Littlewood Street,HAMPTON,VIC,3188,-37.934803,145.003769,2,2,2,ApartmentUnitFlat,Apartment / Unit / Flat,False,0,m2,False
2017040657,listing,/2-bronte-court-hampton-vic-3188-2017040657,3696000,is-sold,Sold at auction 06 Nov 2021,20211106,2 Bronte Court,HAMPTON,VIC,3188,-37.9404526,145.020416,4,4,4,House,House,False,0,m2,False
2017040687,listing,/4-bronte-court-hampton-vic-3188-2017040687,4044444,is-sold,Sold at auction 06 Nov 2021,20211106,4 Bronte Court,HAMPTON,VIC,3188,-37.9403419,145.0206,4,4,4,House,House,False,0,m2,False
2017040694,listing,/1-bronte-court-hampton-vic-3188-2017040694,4401523,is-sold,Sold at auction 06 Nov 2021,20211106,1 Bronte Court,HAMPTON,VIC,3188,-37.93998,145.019821,4,4,4,House,House,False,0,m2,False
2017167783,listing,/7-78-fewster-road-hampton-vic-3188-2017167783,1045000,is-sold,Sold by private treaty 30 Oct 2021,20211030,7/78 Fewster Road,HAMPTON,VIC,3188,-37.93891,145.021057,2,2,2,Townhouse,Townhouse,False,166,m2,False
2017242603,listing,/206-1a-littlewood-street-hampton-vic-3188-2017242603,595000,is-sold,Sold by private treaty 26 Oct 2021,20211026,206/1a Littlewood Street,HAMPTON,VIC,3188,-37.93439,145.003845,1,1,1,ApartmentUnitFlat,Apartment / Unit / Flat,False,0,m2,False
2017267643,listing,/56e-beach-road-hampton-vic-3188-2017267643,2700000,is-sold,Sold at auction 04 Nov 2021,20211104,56E Beach Road,HAMPTON,VIC,3188,-37.9398155,144.9999,3,3,3,Townhouse,Townhouse,False,0,m2,False
2017268198,listing,/307-2-willis-lane-hampton-vic-3188-2017268198,320000,is-sold,Sold by private treaty 25 Oct 2021,20211025,307/2 Willis Lane,HAMPTON,VIC,3188,-37.9375725,145.001663,1,1,1,ApartmentUnitFlat,Apartment / Unit / Flat,False,0,m2,False
2017288566,listing,/65-beach-road-hampton-vic-3188-2017288566,4425000,is-sold,Sold by private treaty 25 Oct 2021,20211025,65 Beach Road,HAMPTON,VIC,3188,-37.9410858,145.000244,5,5,5,House,House,False,0,m2,False
2017290156,listing,/15-passchendaele-street-hampton-vic-3188-2017290156,4370000,is-sold,Sold at auction 30 Oct 2021,20211030,15 Passchendaele Street,HAMPTON,VIC,3188,-37.93246,145.007492,5,5,5,House,House,False,0,m2,False
2017302731,listing,/1-avondale-street-hampton-vic-3188-2017302731,2950000,is-sold,Sold by private treaty 01 Nov 2021,20211101,1 Avondale Street,HAMPTON,VIC,3188,-37.9297562,145.002426,4,4,4,House,House,False,0,m2,False
2017304005,listing,/5-14-wickham-road-hampton-east-vic-3188-2017304005,689999,is-sold,Sold at auction 27 Oct 2021,20211027,5/14 Wickham Road,HAMPTON EAST,VIC,3188,-37.94342,145.024918,2,2,2,ApartmentUnitFlat,Apartment / Unit / Flat,False,0,m2,False
2017304718,listing,/2-86-fewster-road-hampton-vic-3188-2017304718,790000,is-sold,Sold at auction 30 Oct 2021,20211030,2/86 Fewster Road,HAMPTON,VIC,3188,-37.939167,145.0219,2,2,2,Townhouse,Townhouse,False,0,m2,False
2017311400,listing,/3-glamis-avenue-hampton-vic-3188-2017311400,2625000,is-sold,Sold at auction 30 Oct 2021,20211030,3 Glamis Avenue,HAMPTON,VIC,3188,-37.93873,145.016312,2,2,2,House,House,False,836,m2,False
2017320581,listing,/24-apex-avenue-hampton-east-vic-3188-2017320581,1405000,is-sold,Sold at auction 26 Oct 2021,20211026,24 Apex Avenue,HAMPTON EAST,VIC,3188,-37.93813,145.026855,3,3,3,House,House,False,417,m2,False
2017321927,listing,/93-willis-street-hampton-vic-3188-2017321927,2380000,is-sold,Sold at auction 03 Nov 2021,20211103,93 Willis Street,HAMPTON,VIC,3188,-37.93701,145.008881,3,3,3,House,House,False,605,m2,False
2017326988,listing,/26-retreat-road-hampton-vic-3188-2017326988,1850000,is-sold,Sold by private treaty 29 Oct 2021,20211029,26 Retreat Road,HAMPTON,VIC,3188,-37.9408073,145.014053,3,3,3,House,House,False,0,m2,False
2017340571,listing,/75-spring-road-hampton-east-vic-3188-2017340571,1900000,is-sold,Sold at auction 04 Nov 2021,20211104,75 Spring Road,HAMPTON EAST,VIC,3188,-37.9413567,145.033081,4,4,4,House,House,False,0,m2,False
2017341301,listing,/43-beach-road-hampton-vic-3188-2017341301,4400000,is-sold,Sold at auction 30 Oct 2021,20211030,43 Beach Road,HAMPTON,VIC,3188,-37.937706,144.9987,5,5,5,House,House,False,0,m2,False
2017343485,listing,/6-45-grenville-street-hampton-vic-3188-2017343485,1170000,is-sold,Sold at auction 29 Oct 2021,20211029,6/45 Grenville Street,HAMPTON,VIC,3188,-37.93539,145.002243,2,2,2,Townhouse,Townhouse,False,0,m2,False
2017344766,listing,/81-littlewood-street-hampton-vic-3188-2017344766,3215000,is-sold,Sold at auction 05 Nov 2021,20211105,81 Littlewood Street,HAMPTON,VIC,3188,-37.9355278,145.010956,4,4,4,House,House,False,627,m2,False
2016794723,listing,/108-427-hampton-street-hampton-vic-3188-2016794723,485000,is-sold,Sold by private treaty 14 Oct 2021,20211014,108/427 Hampton Street,HAMPTON,VIC,3188,-37.934597,145.002716,1,1,1,ApartmentUnitFlat,Apartment / Unit / Flat,False,0,m2,False
2017081693,listing,/2-1-keith-street-hampton-east-vic-3188-2017081693,670000,is-sold,Sold by private treaty 25 Oct 2021,20211025,2/1 Keith Street,HAMPTON EAST,VIC,3188,-37.939846,145.029816,2,2,2,NewApartments,New Apartments / Off the Plan,False,0,m2,False
2017170792,listing,/10-grenville-street-hampton-vic-3188-2017170792,3100000,is-sold,Sold at auction 16 Oct 2021,20211016,10 Grenville Street,HAMPTON,VIC,3188,-37.93538,144.999268,4,4,4,House,House,False,603,m2,False
2017180249,listing,/111-ludstone-street-hampton-vic-3188-2017180249,2620000,is-sold,Sold at auction 23 Oct 2021,20211023,111 Ludstone Street,HAMPTON,VIC,3188,-37.93428,145.015717,5,5,5,House,House,False,683,m2,False
2017243199,listing,/10-sybil-street-hampton-east-vic-3188-2017243199,1360000,is-sold,Sold by private treaty 12 Oct 2021,20211012,10 Sybil Street,HAMPTON EAST,VIC,3188,-37.9398956,145.036362,3,3,3,House,House,False,0,m2,False
2017246664,listing,/8-bendigo-st-hampton-vic-3188-2017246664,3030000,is-sold,Sold by private treaty 11 Oct 2021,20211011,8 Bendigo St,HAMPTON,VIC,3188,-37.9327049,145.000061,3,3,3,House,House,False,754,m2,False
2017251178,listing,/310-south-road-hampton-east-vic-3188-2017251178,1238000,is-sold,Sold at auction 16 Oct 2021,20211016,310 South Road,HAMPTON EAST,VIC,3188,-37.9326744,145.029648,3,3,3,House,House,False,0,m2,False
2017258504,listing,/140-thomas-street-hampton-vic-3188-2017258504,2260000,is-sold,Sold at auction 09 Oct 2021,20211009,140 Thomas Street,HAMPTON,VIC,3188,-37.94011,145.015457,5,5,5,House,House,False,470,m2,False
2017262287,listing,/1a-walker-avenue-hampton-vic-3188-2017262287,2120000,is-sold,Sold at auction 09 Oct 2021,20211009,1A Walker Avenue,HAMPTON,VIC,3188,-37.9375534,145.019119,5,5,5,Townhouse,Townhouse,False,0,m2,False
2017268034,listing,/13-parkview-crescent-hampton-east-vic-3188-2017268034,1850000,is-sold,Sold at auction 23 Oct 2021,20211023,13 Parkview Crescent,HAMPTON EAST,VIC,3188,-37.93863,145.028046,4,4,4,House,House,False,0,m2,False
2017271894,listing,/2-1-daff-avenue-hampton-east-vic-3188-2017271894,1413000,is-sold,Sold at auction 16 Oct 2021,20211016,2/1 Daff Avenue,HAMPTON EAST,VIC,3188,-37.9434624,145.035,3,3,3,Townhouse,Townhouse,False,0,m2,False
2017274582,listing,/63a-wickham-road-hampton-east-vic-3188-2017274582,1580000,is-sold,Sold at auction 14 Oct 2021,20211014,63A Wickham Road,HAMPTON EAST,VIC,3188,-37.9434624,145.031235,4,4,4,Townhouse,Townhouse,False,269,m2,False
2017280953,listing,/1a-saltair-street-hampton-east-vic-3188-2017280953,1575000,is-sold,Sold at auction 15 Oct 2021,20211015,1A Saltair Street,HAMPTON EAST,VIC,3188,-37.9425926,145.025513,4,4,4,Townhouse,Townhouse,False,0,m2,False
2017285555,listing,/3-522-bluff-road-hampton-vic-3188-2017285555,617000,is-sold,Sold at auction 23 Oct 2021,20211023,3/522 Bluff Road,HAMPTON,VIC,3188,-37.936264,145.024521,2,2,2,ApartmentUnitFlat,Apartment / Unit / Flat,False,0,m2,False
2017285576,listing,/1-334-hampton-street-hampton-vic-3188-2017285576,685000,is-sold,Sold at auction 23 Oct 2021,20211023,1/334 Hampton Street,HAMPTON,VIC,3188,-37.94189,145.001938,2,2,2,ApartmentUnitFlat,Apartment / Unit / Flat,False,0,m2,False
2017292030,listing,/102-43-crisp-street-hampton-vic-3188-2017292030,1625000,is-sold,Sold prior to auction 15 Oct 2021,20211015,102/43 Crisp Street,HAMPTON,VIC,3188,-37.9408073,145.00708,3,3,3,ApartmentUnitFlat,Apartment / Unit / Flat,False,0,m2,False
2017292827,listing,/1-30-grenville-street-hampton-vic-3188-2017292827,1071000,is-sold,Sold at auction 20 Oct 2021,20211020,1/30 Grenville Street,HAMPTON,VIC,3188,-37.9355469,145.000824,2,2,2,Villa,Villa,False,0,m2,False
2017301538,listing,/1-8-willis-street-hampton-vic-3188-2017301538,855000,is-sold,Sold at auction 21 Oct 2021,20211021,1/8 Willis Street,HAMPTON,VIC,3188,-37.9365845,145.000748,2,2,2,ApartmentUnitFlat,Apartment / Unit / Flat,False,0,m2,False
