id,listingType,url,price,tagClassName,tagText,date,street,suburb,state,postcode,lat,lng,beds,baths,parking,propertyType,propertyTypeFormatted,isRural,landSize,landUnit,isRetirement
2018316022,listing,/3-2-fiona-court-cheltenham-vic-3192-2018316022,550000,is-sold,Sold by private treaty 27 Feb 2023,20230227,3/2 Fiona Court,CHELTENHAM,VIC,3192,-37.9671173,145.073669,2,2,2,ApartmentUnitFlat,Apartment / Unit / Flat,False,0,m2,False
2018322645,listing,/83a-park-road-cheltenham-vic-3192-2018322645,,is-sold,Sold at auction 27 Feb 2023,20230227,83A Park Road,CHELTENHAM,VIC,3192,-37.9639473,145.046356,3,3,3,Townhouse,Townhouse,False,360,m2,False
2018180633,listing,/416-1228-nepean-highway-cheltenham-vic-3192-2018180633,,is-sold,Sold by private treaty 10 Feb 2023,20230210,416/1228 Nepean Highway,CHELTENHAM,VIC,3192,-37.9658127,145.057373,2,2,2,ApartmentUnitFlat,Apartment / Unit / Flat,False,0,m2,False
2018226238,listing,/519-8-railway-road-cheltenham-vic-3192-2018226238,450000,is-sold,Sold by private treaty 10 Feb 2023,20230210,519/8 Railway Road,CHELTENHAM,VIC,3192,-37.9661827,145.056747,2,2,2,ApartmentUnitFlat,Apartment / Unit / Flat,False,0,m2,False
2018255531,listing,/3-1383-nepean-highway-cheltenham-vic-3192-2018255531,,is-sold,Sold by private treaty 20 Feb 2023,20230220,3/1383 Nepean Highway,CHELTENHAM,VIC,3192,-37.9736366,145.064667,2,2,2,ApartmentUnitFlat,Apartment / Unit / Flat,False,0,m2,False
2018296082,listing,/25-swinden-avenue-cheltenham-vic-3192-2018296082,1115000,is-sold,Sold at auction 11 Feb 2023,20230211,25 Swinden Avenue,CHELTENHAM,VIC,3192,-37.9711723,145.064911,3,3,3,House,House,False,564,m2,False
2018299049,listing,/2-29-cox-street-cheltenham-vic-3192-2018299049,1091000,is-sold,Sold at auction 11 Feb 2023,20230211,2/29 Cox Street,CHELTENHAM,VIC,3192,-37.9637947,145.074127,3,3,3,Townhouse,Townhouse,False,0,m2,False
2018301454,listing,/43-derring-lane-cheltenham-vic-3192-2018301454,1040000,is-sold,Sold at auction 11 Feb 2023,20230211,43 Derring Lane,CHELTENHAM,VIC,3192,-37.97078,145.076233,3,3,3,House,House,False,278,m2,False
2018306024,listing,/2-1-barker-street-cheltenham-vic-3192-2018306024,,is-sold,Sold prior to auction 15 Feb 2023,20230215,2/1 Barker Street,CHELTENHAM,VIC,3192,-37.9628868,145.052139,2,2,2,ApartmentUnitFlat,Apartment / Unit / Flat,False,206,m2,False
2018307467,listing,/2-tuck-street-cheltenham-vic-3192-2018307467,,is-sold,Sold at auction 18 Feb 2023,20230218,2 Tuck Street,CHELTENHAM,VIC,3192,-37.97061,145.0582,6,6,6,House,House,False,626,m2,False
2018310838,listing,/1-258-warrigal-road-cheltenham-vic-3192-2018310838,550000,is-sold,Sold at auction 24 Feb 2023,20230224,1/258 Warrigal Road,CHELTENHAM,VIC,3192,-37.96966,145.074036,2,2,2,ApartmentUnitFlat,Apartment / Unit / Flat,False,0,m2,False
2018311270,listing,/2-21-reeve-court-cheltenham-vic-3192-2018311270,720000,is-sold,Sold at auction 18 Feb 2023,20230218,2/21 Reeve Court,CHELTENHAM,VIC,3192,-37.958992,145.057632,2,2,2,Townhouse,Townhouse,False,0,m2,False
2018315534,listing,/2-113-park-road-cheltenham-vic-3192-2018315534,1120000,is-sold,Sold at auction 21 Feb 2023,20230221,2/113 Park Road,CHELTENHAM,VIC,3192,-37.963932,145.0502,3,3,3,ApartmentUnitFlat,Apartment / Unit / Flat,False,242,m2,False
2018317759,listing,/10-charles-street-cheltenham-vic-3192-2018317759,,is-sold,Sold at auction 25 Feb 2023,20230225,10 Charles Street,CHELTENHAM,VIC,3192,-37.9725876,145.060318,4,4,4,House,House,False,624,m2,False
2018318718,listing,/4-5-7-radcliff-avenue-cheltenham-vic-3192-2018318718,613500,is-sold,Sold at auction 25 Feb 2023,20230225,4/5-7 Radcliff Avenue,CHELTENHAM,VIC,3192,-37.959568,145.0588,2,2,2,Villa,Villa,False,0,m2,False
2018321804,listing,/8-alice-street-cheltenham-vic-3192-2018321804,1181000,is-sold,Sold at auction 16 Feb 2023,20230216,8 Alice Street,CHELTENHAM,VIC,3192,-37.9740677,145.07959,5,5,5,House,House,False,0,m2,False
2018322007,listing,/1-7-latrobe-street-cheltenham-vic-3192-2018322007,1550000,is-sold,Sold at auction 25 Feb 2023,20230225,1/7 Latrobe Street,CHELTENHAM,VIC,3192,-37.9735,145.0556,4,4,4,Townhouse,Townhouse,False,0,m2,False
2018324842,listing,/38-lincoln-drive-cheltenham-vic-3192-2018324842,927500,is-sold,Sold at auction 25 Feb 2023,20230225,38 Lincoln Drive,CHELTENHAM,VIC,3192,-37.9647522,145.079,3,3,3,House,House,False,522,m2,False
2018330058,listing,/6-30-munro-avenue-cheltenham-vic-3192-2018330058,520000,is-sold,Sold at auction 25 Feb 2023,20230225,6/30 Munro Avenue,CHELTENHAM,VIC,3192,-37.95723,145.045654,1,1,1,ApartmentUnitFlat,Apartment / Unit / Flat,False,0,m2,False
2018334155,listing,/7-310-warrigal-road-cheltenham-vic-3192-2018334155,595000,is-sold,Sold prior to auction 21 Feb 2023,20230221,7/310 Warrigal Road,CHELTENHAM,VIC,3192,-37.96623,145.074661,2,2,2,ApartmentUnitFlat,Apartment / Unit / Flat,False,0,m2,False
2017579447,listing,/623-8-railway-road-cheltenham-vic-3192-2017579447,455000,is-sold,Sold by private treaty 24 Jan 2023,20230124,623/8 Railway Road,CHELTENHAM,VIC,3192,-37.9661827,145.056747,2,2,2,ApartmentUnitFlat,Apartment / Unit / Flat,False,0,m2,False
2017710010,listing,/609-2-6-railway-rd-cheltenham-vic-3192-2017710010,,is-sold,Sold by private treaty 01 Feb 2023,20230201,609/2-6 Railway Rd,CHELTENHAM,VIC,3192,-37.9661522,145.056381,3,3,3,ApartmentUnitFlat,Apartment / Unit / Flat,False,0,m2,False
2017717966,listing,/609-2-6-railway-road-cheltenham-vic-3192-2017717966,,is-sold,Sold by private treaty 04 Feb 2023,20230204,609/2-6 Railway Road,CHELTENHAM,VIC,3192,-37.9661522,145.056381,3,3,3,ApartmentUnitFlat,Apartment / Unit / Flat,False,0,m2,False
2018055417,listing,/707-6-railway-road-cheltenham-vic-3192-2018055417,550000,is-sold,Sold by private treaty 23 Jan 2023,20230123,707/6 Railway Road,CHELTENHAM,VIC,3192,-37.9661522,145.056381,2,2,2,ApartmentUnitFlat,Apartment / Unit / Flat,False,0,m2,False
2018140088,listing,/12-eden-street-cheltenham-vic-3192-2018140088,1100000,is-sold,Sold by private treaty 28 Dec 2022,20221228,12 Eden Street,CHELTENHAM,VIC,3192,-37.9715347,145.059372,2,2,2,House,House,False,560,m2,False
2018173585,listing,/2-lynda-close-cheltenham-vic-3192-2018173585,750000,is-sold,Sold by private treaty 23 Dec 2022,20221223,2 Lynda Close,CHELTENHAM,VIC,3192,-37.95479,145.060349,2,2,2,Townhouse,Townhouse,False,235,m2,False
2018177139,listing,/16-mena-avenue-cheltenham-vic-3192-2018177139,,is-sold,Sold by private treaty 20 Dec 2022,20221220,16 Mena Avenue,CHELTENHAM,VIC,3192,-37.9685326,145.070251,3,3,3,House,House,False,592,m2,False
2018195496,listing,/3-44-warren-road-cheltenham-vic-3192-2018195496,522000,is-sold,Sold by private treaty 02 Jan 2023,20230102,3/44 Warren Road,CHELTENHAM,VIC,3192,-37.9558525,145.072037,2,2,2,ApartmentUnitFlat,Apartment / Unit / Flat,False,0,m2,False
2018199662,listing,/36-abbington-avenue-cheltenham-vic-3192-2018199662,,is-sold,Sold by private treaty 12 Jan 2023,20230112,36 Abbington Avenue,CHELTENHAM,VIC,3192,-37.9612122,145.04184,2,2,2,Townhouse,Townhouse,False,0,m2,False
2018225502,listing,/4-34-gillman-street-cheltenham-vic-3192-2018225502,460000,is-sold,Sold by private treaty 17 Jan 2023,20230117,4/34 Gillman Street,CHELTENHAM,VIC,3192,-37.9728279,145.058487,2,2,2,Villa,Villa,False,0,m2,False
2018232957,listing,/10-bernard-street-cheltenham-vic-3192-2018232957,870000,is-sold,Sold by private treaty 23 Dec 2022,20221223,10 Bernard Street,CHELTENHAM,VIC,3192,-37.95317,145.059647,3,3,3,Townhouse,Townhouse,False,394,m2,False
2018245464,listing,/6-323-charman-road-cheltenham-vic-3192-2018245464,440000,is-sold,Sold by private treaty 16 Jan 2023,20230116,6/323 Charman Road,CHELTENHAM,VIC,3192,-37.9637947,145.055786,2,2,2,ApartmentUnitFlat,Apartment / Unit / Flat,False,0,m2,False
2018251846,listing,/10-abbington-avenue-cheltenham-vic-3192-2018251846,770000,is-sold,Sold by private treaty 15 Jan 2023,20230115,10 Abbington Avenue,CHELTENHAM,VIC,3192,-37.9619446,145.041565,2,2,2,Townhouse,Townhouse,False,0,m2,False
2018265672,listing,/20-harpley-street-cheltenham-vic-3192-2018265672,,is-sold,Sold at auction 04 Feb 2023,20230204,20 Harpley Street,CHELTENHAM,VIC,3192,-37.9738541,145.070465,4,4,4,House,House,False,865,m2,False
2018275787,listing,/24-blackburn-drive-cheltenham-vic-3192-2018275787,1165000,is-sold,Sold by private treaty 01 Feb 2023,20230201,24 Blackburn Drive,CHELTENHAM,VIC,3192,-37.9666748,145.083328,4,4,4,House,House,False,534,m2,False
2018277508,listing,/31-eunice-drive-cheltenham-vic-3192-2018277508,,is-sold,Sold by private treaty 06 Feb 2023,20230206,31 Eunice Drive,CHELTENHAM,VIC,3192,-37.96498,145.077545,5,5,5,House,House,False,534,m2,False
2018284732,listing,/5-21-23-argus-street-cheltenham-vic-3192-2018284732,813500,is-sold,Sold at auction 04 Feb 2023,20230204,5/21-23 Argus Street,CHELTENHAM,VIC,3192,-37.9581337,145.059082,3,3,3,ApartmentUnitFlat,Apartment / Unit / Flat,False,0,m2,False
2018286826,listing,/2-2-hilda-street-cheltenham-vic-3192-2018286826,,is-sold,Sold by private treaty 08 Feb 2023,20230208,2/2 Hilda Street,CHELTENHAM,VIC,3192,-37.9749146,145.07663,3,3,3,ApartmentUnitFlat,Apartment / Unit / Flat,False,0,m2,False
2018287868,listing,/1-10-park-road-cheltenham-vic-3192-2018287868,708000,is-sold,Sold at auction 04 Feb 2023,20230204,1/10 Park Road,CHELTENHAM,VIC,3192,-37.9657326,145.056442,2,2,2,Townhouse,Townhouse,False,0,m2,False
2018299446,listing,/8-293-warrigal-road-cheltenham-vic-3192-2018299446,570000,is-sold,Sold at auction 31 Jan 2023,20230131,8/293 Warrigal Road,CHELTENHAM,VIC,3192,-37.9614258,145.0747,2,2,2,ApartmentUnitFlat,Apartment / Unit / Flat,False,0,m2,False
2018083718,listing,/36-primrose-avenue-cheltenham-vic-3192-2018083718,766000,is-sold,Sold by private treaty 19 Dec 2022,20221219,36 Primrose Avenue,CHELTENHAM,VIC,3192,-37.9567528,145.068832,3,3,3,Townhouse,Townhouse,False,0,m2,False
2018094290,listing,/200-warrigal-road-cheltenham-vic-3192-2018094290,,is-sold,Sold by private treaty 13 Dec 2022,20221213,200 Warrigal Road,CHELTENHAM,VIC,3192,-37.9743958,145.073135,4,4,4,ApartmentUnitFlat,Apartment / Unit / Flat,False,0,m2,False
2018124291,listing,/4-primrose-avenue-cheltenham-vic-3192-2018124291,813500,is-sold,Sold by private treaty 10 Dec 2022,20221210,4 Primrose Avenue,CHELTENHAM,VIC,3192,-37.95655,145.0672,3,3,3,Townhouse,Townhouse,False,0,m2,False
2018138635,listing,/37-paul-street-cheltenham-vic-3192-2018138635,,is-sold,Sold by private treaty 12 Dec 2022,20221212,37 Paul Street,CHELTENHAM,VIC,3192,-37.9612846,145.0474,4,4,4,House,House,False,591,m2,False
2018198811,listing,/53-oak-avenue-cheltenham-vic-3192-2018198811,,is-sold,Sold at auction 17 Dec 2022,20221217,53 Oak Avenue,CHELTENHAM,VIC,3192,-37.97434,145.070663,5,5,5,House,House,False,640,m2,False
2018201616,listing,/6-9-11-latrobe-street-cheltenham-vic-3192-2018201616,655000,is-sold,Sold at auction 10 Dec 2022,20221210,6/9-11 Latrobe Street,CHELTENHAM,VIC,3192,-37.9733276,145.055756,2,2,2,ApartmentUnitFlat,Apartment / Unit / Flat,False,0,m2,False
2018202480,listing,/28-nancy-street-cheltenham-vic-3192-2018202480,,is-sold,Sold at auction 13 Dec 2022,20221213,28 Nancy Street,CHELTENHAM,VIC,3192,-37.9725,145.078812,4,4,4,House,House,False,761,m2,False
2018205131,listing,/61-cavanagh-street-cheltenham-vic-3192-2018205131,1520000,is-sold,Sold at auction 10 Dec 2022,20221210,61 Cavanagh Street,CHELTENHAM,VIC,3192,-37.9603767,145.065643,4,4,4,House,House,False,662,m2,False
2018206140,listing,/92b-wilson-street-cheltenham-vic-3192-2018206140,1481000,is-sold,Sold at auction 10 Dec 2022,20221210,92b Wilson Street,CHELTENHAM,VIC,3192,-37.9571648,145.060684,4,4,4,Townhouse,Townhouse,False,291,m2,False
2018207715,listing,/8-10-eagland-road-cheltenham-vic-3192-2018207715,605000,is-sold,Sold at auction 10 Dec 2022,20221210,8/10 Eagland Road,CHELTENHAM,VIC,3192,-37.9718056,145.075073,2,2,2,ApartmentUnitFlat,Apartment / Unit / Flat,False,212,m2,False
2018214676,listing,/4-2-herald-street-cheltenham-vic-3192-2018214676,650000,is-sold,Sold at auction 17 Dec 2022,20221217,4/2 Herald Street,CHELTENHAM,VIC,3192,-37.966877,145.071411,2,2,2,ApartmentUnitFlat,Apartment / Unit / Flat,False,0,m2,False
2018216241,listing,/3-66-wilson-street-cheltenham-vic-3192-2018216241,610000,is-sold,Sold by private treaty 15 Dec 2022,20221215,3/66 Wilson Street,CHELTENHAM,VIC,3192,-37.959198,145.060577,2,2,2,ApartmentUnitFlat,Apartment / Unit / Flat,False,0,m2,False
2018216344,listing,/2-90-92-chesterville-road-cheltenham-vic-3192-2018216344,675000,is-sold,Sold at auction 17 Dec 2022,20221217,2/90-92 Chesterville Road,CHELTENHAM,VIC,3192,-37.9559937,145.057785,3,3,3,ApartmentUnitFlat,Apartment / Unit / Flat,False,0,m2,False
2018217241,listing,/5-coleman-court-cheltenham-vic-3192-2018217241,1345000,is-sold,Sold at auction 14 Dec 2022,20221214,5 Coleman Court,CHELTENHAM,VIC,3192,-37.97321,145.0578,4,4,4,House,House,False,0,m2,False
2018218899,listing,/2-bruton-avenue-cheltenham-vic-3192-2018218899,855000,is-sold,Sold by private treaty 11 Dec 2022,20221211,2 Bruton Avenue,CHELTENHAM,VIC,3192,-37.9737473,145.060684,3,3,3,House,House,False,401,m2,False
2018224963,listing,/312-278-charman-road-cheltenham-vic-3192-2018224963,292250,is-sold,Sold at auction 17 Dec 2022,20221217,312/278 Charman Road,CHELTENHAM,VIC,3192,-37.9675827,145.055542,1,1,1,ApartmentUnitFlat,Apartment / Unit / Flat,False,0,m2,False
2018230144,listing,/2-3-booker-street-cheltenham-vic-3192-2018230144,1100000,is-sold,Sold prior to auction 14 Dec 2022,20221214,2/3 Booker Street,CHELTENHAM,VIC,3192,-37.9728966,145.060013,3,3,3,Townhouse,Townhouse,False,0,m2,False
2018239582,listing,/23-31-garfield-street-cheltenham-vic-3192-2018239582,,is-sold,Sold by private treaty 16 Dec 2022,20221216,23/31 Garfield Street,CHELTENHAM,VIC,3192,-37.96156,145.0531,2,2,2,ApartmentUnitFlat,Apartment / Unit / Flat,False,0,m2,False
2018247460,listing,/99-wilson-street-cheltenham-vic-3192-2018247460,1222500,is-sold,Sold by private treaty 16 Dec 2022,20221216,99 Wilson Street,CHELTENHAM,VIC,3192,-37.9569054,145.06012,3,3,3,House,House,False,626,m2,False
2018255317,listing,/4-goulburn-street-cheltenham-vic-3192-2018255317,,is-sold,Sold at auction 19 Dec 2022,20221219,4 Goulburn Street,CHELTENHAM,VIC,3192,-37.96387,145.058533,2,2,2,House,House,False,497,m2,False
2018015820,listing,/8-1-garfield-street-cheltenham-vic-3192-2018015820,475000,is-sold,Sold by private treaty 03 Dec 2022,20221203,8/1 Garfield Street,CHELTENHAM,VIC,3192,-37.95943,145.051666,2,2,2,ApartmentUnitFlat,Apartment / Unit / Flat,False,0,m2,False
2018098528,listing,/7-3-evergreen-circuit-cheltenham-vic-3192-2018098528,510000,is-sold,Sold by private treaty 05 Dec 2022,20221205,7/3 Evergreen Circuit,CHELTENHAM,VIC,3192,-37.962326,145.067245,2,2,2,ApartmentUnitFlat,Apartment / Unit / Flat,False,0,m2,False
2018145757,listing,/18-9-latrobe-street-cheltenham-vic-3192-2018145757,,is-sold,Sold by private treaty 09 Dec 2022,20221209,18/9 Latrobe Street,CHELTENHAM,VIC,3192,-37.9730263,145.055832,2,2,2,ApartmentUnitFlat,Apartment / Unit / Flat,False,0,m2,False
2018160393,listing,/4-23-barker-street-cheltenham-vic-3192-2018160393,688555,is-sold,Sold by private treaty 30 Nov 2022,20221130,4/23 Barker Street,CHELTENHAM,VIC,3192,-37.96331,145.054611,2,2,2,Townhouse,Townhouse,False,0,m2,False
2018174588,listing,/11-tintern-mews-cheltenham-vic-3192-2018174588,910000,is-sold,Sold by private treaty 07 Dec 2022,20221207,11 Tintern Mews,CHELTENHAM,VIC,3192,-37.9515038,145.0593,3,3,3,Townhouse,Townhouse,False,0,m2,False
2018178393,listing,/25-merton-close-cheltenham-vic-3192-2018178393,1280000,is-sold,Sold at auction 03 Dec 2022,20221203,25 Merton Close,CHELTENHAM,VIC,3192,-37.9680252,145.07074,4,4,4,House,House,False,583,m2,False
2018181068,listing,/24-fairview-avenue-cheltenham-vic-3192-2018181068,1270000,is-sold,Sold at auction 03 Dec 2022,20221203,24 Fairview Avenue,CHELTENHAM,VIC,3192,-37.95668,145.065811,4,4,4,House,House,False,0,m2,False
2018183101,listing,/32b-jack-road-cheltenham-vic-3192-2018183101,1565000,is-sold,Sold at auction 03 Dec 2022,20221203,32B Jack Road,CHELTENHAM,VIC,3192,-37.9585228,145.043289,4,4,4,House,House,False,0,m2,False
2018186997,listing,/12-woodland-drive-cheltenham-vic-3192-2018186997,803000,is-sold,Sold at auction 03 Dec 2022,20221203,12 Woodland Drive,CHELTENHAM,VIC,3192,-37.9554672,145.059647,2,2,2,Townhouse,Townhouse,False,0,m2,False
2018187213,listing,/3-reuben-street-cheltenham-vic-3192-2018187213,1345000,is-sold,Sold at auction 03 Dec 2022,20221203,3 Reuben Street,CHELTENHAM,VIC,3192,-37.961483,145.061813,4,4,4,House,House,False,752,m2,False
2018188297,listing,/6-emville-court-cheltenham-vic-3192-2018188297,1150000,is-sold,Sold prior to auction 30 Nov 2022,20221130,6 Emville Court,CHELTENHAM,VIC,3192,-37.9618225,145.081314,4,4,4,House,House,False,568,m2,False
2018188648,listing,/2-26-charles-street-cheltenham-vic-3192-2018188648,600000,is-sold,Sold at auction 03 Dec 2022,20221203,2/26 Charles Street,CHELTENHAM,VIC,3192,-37.97284,145.061981,2,2,2,Villa,Villa,False,0,m2,False
2018198645,listing,/55-charlton-avenue-cheltenham-vic-3192-2018198645,770000,is-sold,Sold by private treaty 07 Dec 2022,20221207,55 Charlton Avenue,CHELTENHAM,VIC,3192,-37.9625626,145.041473,2,2,2,Townhouse,Townhouse,False,0,m2,False
2018203282,listing,/16-jellicoe-street-cheltenham-vic-3192-2018203282,,is-sold,Sold at auction 10 Dec 2022,20221210,16 Jellicoe Street,CHELTENHAM,VIC,3192,-37.9619141,145.058945,4,4,4,House,House,False,1130,m2,False
2018203618,listing,/53-silver-street-cheltenham-vic-3192-2018203618,,is-sold,Sold prior to auction 02 Dec 2022,20221202,53 Silver Street,CHELTENHAM,VIC,3192,-37.9647942,145.069427,3,3,3,House,House,False,0,m2,False
2018203833,listing,/40-weymar-street-cheltenham-vic-3192-2018203833,,is-sold,Sold at auction 10 Dec 2022,20221210,40 Weymar Street,CHELTENHAM,VIC,3192,-37.962307,145.0637,3,3,3,House,House,False,620,m2,False
2018217254,listing,/12-9-barker-street-cheltenham-vic-3192-2018217254,470000,is-sold,Sold prior to auction 06 Dec 2022,20221206,12/9 Barker Street,CHELTENHAM,VIC,3192,-37.962944,145.053314,2,2,2,ApartmentUnitFlat,Apartment / Unit / Flat,False,0,m2,False
2018217897,listing,/cheltenham-vic-3192-2018217897,1142500,is-sold,Sold by private treaty 07 Dec 2022,20221207,,CHELTENHAM,VIC,3192,-37.9641533,145.065872,3,3,3,Townhouse,Townhouse,False,132,m2,False
2018219435,listing,/2-121-weatherall-road-cheltenham-vic-3192-2018219435,756550,is-sold,Sold prior to auction 08 Dec 2022,20221208,2/121 Weatherall Road,CHELTENHAM,VIC,3192,-37.97133,145.047943,2,2,2,ApartmentUnitFlat,Apartment / Unit / Flat,False,159,m2,False
2018264184,listing,/1-199a-charman-road-cheltenham-vic-3192-2018264184,1142500,is-sold,Sold by private treaty 07 Dec 2022,20221207,1/199A Charman Road,CHELTENHAM,VIC,3192,-37.97186,145.053925,3,3,3,Townhouse,Townhouse,False,132,m2,False
2016985729,listing,/402-9-chesterville-road-cheltenham-vic-3192-2016985729,330000,is-sold,Sold by private treaty 28 Nov 2022,20221128,402/9 Chesterville Road,CHELTENHAM,VIC,3192,-37.9612846,145.056168,1,1,1,ApartmentUnitFlat,Apartment / Unit / Flat,False,0,m2,False
2018005601,listing,/14-374-warrigal-road-cheltenham-vic-3192-2018005601,580000,is-sold,Sold by private treaty 24 Nov 2022,20221124,14/374 Warrigal Road,CHELTENHAM,VIC,3192,-37.9607353,145.075638,2,2,2,ApartmentUnitFlat,Apartment / Unit / Flat,False,0,m2,False
2018035341,listing,/21-woodland-drive-cheltenham-vic-3192-2018035341,831000,is-sold,Sold by private treaty 24 Nov 2022,20221124,21 Woodland Drive,CHELTENHAM,VIC,3192,-37.95513,145.059311,3,3,3,Townhouse,Townhouse,False,227,m2,False
2018037980,listing,/17-tintern-mews-cheltenham-vic-3192-2018037980,710000,is-sold,Sold by private treaty 19 Nov 2022,20221119,17 Tintern Mews,CHELTENHAM,VIC,3192,-37.951355,145.059616,3,3,3,Townhouse,Townhouse,False,0,m2,False
2018098524,listing,/cheltenham-vic-3192-2018098524,580000,is-sold,Sold by private treaty 30 Nov 2022,20221130,,CHELTENHAM,VIC,3192,-37.9641533,145.065872,2,2,2,ApartmentUnitFlat,Apartment / Unit / Flat,False,0,m2,False
2018106745,listing,/211-2-6-railway-road-cheltenham-vic-3192-2018106745,445000,is-sold,Sold by private treaty 19 Nov 2022,20221119,211/2-6 Railway Road,CHELTENHAM,VIC,3192,-37.9661522,145.056381,2,2,2,ApartmentUnitFlat,Apartment / Unit / Flat,False,0,m2,False
2018124004,listing,/26-central-park-walk-cheltenham-vic-3192-2018124004,685000,is-sold,Sold by private treaty 29 Nov 2022,20221129,26 Central Park Walk,CHELTENHAM,VIC,3192,-37.95614,145.067963,2,2,2,Townhouse,Townhouse,False,0,m2,False
2018140251,listing,/14-leon-street-cheltenham-vic-3192-2018140251,1340000,is-sold,Sold by private treaty 25 Nov 2022,20221125,14 Leon Street,CHELTENHAM,VIC,3192,-37.96072,145.061447,4,4,4,House,House,False,696,m2,False
2018152822,listing,/1282-nepean-highway-cheltenham-vic-3192-2018152822,1090000,is-sold,Sold at auction 19 Nov 2022,20221119,1282 Nepean Highway,CHELTENHAM,VIC,3192,-37.9708061,145.061279,3,3,3,House,House,False,562,m2,False
2018153076,listing,/1-24-lorna-street-cheltenham-vic-3192-2018153076,,is-sold,Sold by private treaty 21 Nov 2022,20221121,1/24 Lorna Street,CHELTENHAM,VIC,3192,-37.9631233,145.069351,3,3,3,Townhouse,Townhouse,False,0,m2,False
2018154409,listing,/4-gold-street-cheltenham-vic-3192-2018154409,1340000,is-sold,Sold at auction 19 Nov 2022,20221119,4 Gold Street,CHELTENHAM,VIC,3192,-37.965004,145.062836,3,3,3,House,House,False,603,m2,False
2018159032,listing,/5-12-16-axelton-street-cheltenham-vic-3192-2018159032,1120000,is-sold,Sold at auction 19 Nov 2022,20221119,5/12-16 Axelton Street,CHELTENHAM,VIC,3192,-37.9672356,145.0637,3,3,3,ApartmentUnitFlat,Apartment / Unit / Flat,False,244,m2,False
2018165697,listing,/25b-jean-street-cheltenham-vic-3192-2018165697,760000,is-sold,Sold by private treaty 26 Nov 2022,20221126,25B Jean Street,CHELTENHAM,VIC,3192,-37.9606972,145.050842,3,3,3,House,House,False,0,m2,False
2018166443,listing,/4-tintern-grove-cheltenham-vic-3192-2018166443,1342000,is-sold,Sold at auction 24 Nov 2022,20221124,4 Tintern Grove,CHELTENHAM,VIC,3192,-37.95235,145.059982,4,4,4,House,House,False,500,m2,False
2018170373,listing,/2-310-warrigal-road-cheltenham-vic-3192-2018170373,626000,is-sold,Sold at auction 26 Nov 2022,20221126,2/310 Warrigal Road,CHELTENHAM,VIC,3192,-37.9659042,145.074692,2,2,2,ApartmentUnitFlat,Apartment / Unit / Flat,False,236,m2,False
2018170987,listing,/18-jennifer-street-cheltenham-vic-3192-2018170987,1000000,is-sold,Sold by private treaty 28 Nov 2022,20221128,18 Jennifer Street,CHELTENHAM,VIC,3192,-37.96386,145.067322,3,3,3,House,House,False,530,m2,False
2018171554,listing,/13a-elman-road-cheltenham-vic-3192-2018171554,1112000,is-sold,Sold at auction 26 Nov 2022,20221126,13A Elman Road,CHELTENHAM,VIC,3192,-37.9681969,145.057343,3,3,3,ApartmentUnitFlat,Apartment / Unit / Flat,False,374,m2,False
2018174081,listing,/46-chesterville-road-cheltenham-vic-3192-2018174081,1237000,is-sold,Sold at auction 26 Nov 2022,20221126,46 Chesterville Road,CHELTENHAM,VIC,3192,-37.9588776,145.057236,3,3,3,House,House,False,594,m2,False
2018183826,listing,/30-allnutt-parade-cheltenham-vic-3192-2018183826,,is-sold,Sold at auction 22 Nov 2022,20221122,30 Allnutt Parade,CHELTENHAM,VIC,3192,-37.97051,145.074692,4,4,4,House,House,False,851,m2,False
2018188416,listing,/5-tracey-court-cheltenham-vic-3192-2018188416,990000,is-sold,Sold prior to auction 28 Nov 2022,20221128,5 Tracey Court,CHELTENHAM,VIC,3192,-37.96915,145.076,2,2,2,House,House,False,725,m2,False
2017729864,listing,/g01-5-maude-street-cheltenham-vic-3192-2017729864,795000,is-sold,Sold by private treaty 18 Nov 2022,20221118,G01/5 Maude Street,CHELTENHAM,VIC,3192,-37.96403,145.054276,2,2,2,ApartmentUnitFlat,Apartment / Unit / Flat,False,126,m2,False
2017904781,listing,/45-harpley-street-cheltenham-vic-3192-2017904781,1351888,is-sold,Sold at auction 07 Nov 2022,20221107,45 Harpley Street,CHELTENHAM,VIC,3192,-37.9736557,145.0723,3,3,3,House,House,False,830,m2,False
2017944551,listing,/82-bernard-street-cheltenham-vic-3192-2017944551,1162000,is-sold,Sold by private treaty 03 Nov 2022,20221103,82 Bernard Street,CHELTENHAM,VIC,3192,-37.95421,145.06723,3,3,3,House,House,False,578,m2,False
2018024002,listing,/2-87-bernard-street-cheltenham-vic-3192-2018024002,520000,is-sold,Sold by private treaty 03 Nov 2022,20221103,2/87 Bernard Street,CHELTENHAM,VIC,3192,-37.95405,145.07106,2,2,2,ApartmentUnitFlat,Apartment / Unit / Flat,False,0,m2,False
2018051600,listing,/8-1-latrobe-street-cheltenham-vic-3192-2018051600,842000,is-sold,Sold by private treaty 05 Nov 2022,20221105,8/1 Latrobe Street,CHELTENHAM,VIC,3192,-37.97333,145.054825,2,2,2,Townhouse,Townhouse,False,0,m2,False
2018063510,listing,/5-maple-court-cheltenham-vic-3192-2018063510,1402500,is-sold,Sold at auction 05 Nov 2022,20221105,5 Maple Court,CHELTENHAM,VIC,3192,-37.97108,145.080246,5,5,5,House,House,False,0,m2,False
2018092554,listing,/3-171-warrigal-road-cheltenham-vic-3192-2018092554,576000,is-sold,Sold by private treaty 18 Nov 2022,20221118,3/171 Warrigal Road,CHELTENHAM,VIC,3192,-37.97219,145.0728,2,2,2,ApartmentUnitFlat,Apartment / Unit / Flat,False,0,m2,False
2018094256,listing,/1-198-charman-road-cheltenham-vic-3192-2018094256,970000,is-sold,Sold by private treaty 15 Nov 2022,20221115,1/198 Charman Road,CHELTENHAM,VIC,3192,-37.97146,145.054764,3,3,3,Townhouse,Townhouse,False,0,m2,False
2018124155,listing,/g05-7-11-maude-street-cheltenham-vic-3192-2018124155,700000,is-sold,Sold at auction 05 Nov 2022,20221105,G05/7-11 Maude Street,CHELTENHAM,VIC,3192,-37.9640541,145.054443,2,2,2,ApartmentUnitFlat,Apartment / Unit / Flat,False,131,m2,False
2018125359,listing,/45-nancy-street-cheltenham-vic-3192-2018125359,1160000,is-sold,Sold prior to auction 03 Nov 2022,20221103,45 Nancy Street,CHELTENHAM,VIC,3192,-37.9717026,145.07901,3,3,3,House,House,False,573,m2,False
2018126131,listing,/8-weymar-street-cheltenham-vic-3192-2018126131,1180000,is-sold,Sold by private treaty 09 Nov 2022,20221109,8 Weymar Street,CHELTENHAM,VIC,3192,-37.96225,145.061,3,3,3,House,House,False,591,m2,False
2018129262,listing,/1-5-gillman-street-cheltenham-vic-3192-2018129262,905000,is-sold,Sold at auction 05 Nov 2022,20221105,1/5 Gillman Street,CHELTENHAM,VIC,3192,-37.971962,145.055618,3,3,3,Townhouse,Townhouse,False,0,m2,False
2018140265,listing,/19-peters-drive-cheltenham-vic-3192-2018140265,1140000,is-sold,Sold at auction 19 Nov 2022,20221119,19 Peters Drive,CHELTENHAM,VIC,3192,-37.961216,145.0777,4,4,4,House,House,False,558,m2,False
2018140939,listing,/26-abbington-avenue-cheltenham-vic-3192-2018140939,972000,is-sold,Sold at auction 12 Nov 2022,20221112,26 Abbington Avenue,CHELTENHAM,VIC,3192,-37.9615326,145.041733,3,3,3,Townhouse,Townhouse,False,157,m2,False
2018140969,listing,/8-5-7-hall-street-cheltenham-vic-3192-2018140969,642500,is-sold,Sold at auction 12 Nov 2022,20221112,8/5-7 Hall Street,CHELTENHAM,VIC,3192,-37.96454,145.054047,2,2,2,ApartmentUnitFlat,Apartment / Unit / Flat,False,1964,m2,False
2018152572,listing,/16-irene-court-cheltenham-vic-3192-2018152572,,is-sold,Sold at auction 15 Nov 2022,20221115,16 Irene Court,CHELTENHAM,VIC,3192,-37.9655457,145.0737,3,3,3,House,House,False,604,m2,False
2018152596,listing,/6-11-wilson-street-cheltenham-vic-3192-2018152596,691200,is-sold,Sold prior to auction 12 Nov 2022,20221112,6/11 Wilson Street,CHELTENHAM,VIC,3192,-37.96477,145.0601,2,2,2,ApartmentUnitFlat,Apartment / Unit / Flat,False,0,m2,False
2018158653,listing,/7-30-garfield-street-cheltenham-vic-3192-2018158653,612500,is-sold,Sold by private treaty 18 Nov 2022,20221118,7/30 Garfield Street,CHELTENHAM,VIC,3192,-37.9613876,145.053482,2,2,2,ApartmentUnitFlat,Apartment / Unit / Flat,False,0,m2,False
2018165323,listing,/7-moonda-grove-cheltenham-vic-3192-2018165323,1041000,is-sold,Sold prior to auction 09 Nov 2022,20221109,7 Moonda Grove,CHELTENHAM,VIC,3192,-37.9682121,145.0665,3,3,3,House,House,False,707,m2,False
2018172267,listing,/4-1383-nepean-highway-cheltenham-vic-3192-2018172267,380000,is-sold,Sold by private treaty 13 Nov 2022,20221113,4/1383 Nepean Highway,CHELTENHAM,VIC,3192,-37.9736366,145.064667,2,2,2,ApartmentUnitFlat,Apartment / Unit / Flat,False,0,m2,False
2017269905,listing,/1-28-tulip-grove-cheltenham-vic-3192-2017269905,605000,is-sold,Sold by private treaty 21 Oct 2022,20221021,1/28 Tulip Grove,CHELTENHAM,VIC,3192,-37.96086,145.0492,2,2,2,ApartmentUnitFlat,Apartment / Unit / Flat,False,0,m2,False
2017873759,listing,/1-amber-court-cheltenham-vic-3192-2017873759,971500,is-sold,Sold by private treaty 20 Oct 2022,20221020,1 Amber Court,CHELTENHAM,VIC,3192,-37.9736862,145.071152,3,3,3,House,House,False,0,m2,False
2018028818,listing,/2c-jack-road-cheltenham-vic-3192-2018028818,1175000,is-sold,Sold at auction 22 Oct 2022,20221022,2c Jack Road,CHELTENHAM,VIC,3192,-37.9617081,145.042679,3,3,3,Townhouse,Townhouse,False,0,m2,False
2018075159,listing,/38-rosewarne-avenue-cheltenham-vic-3192-2018075159,1468000,is-sold,Sold at auction 15 Oct 2022,20221015,38 Rosewarne Avenue,CHELTENHAM,VIC,3192,-37.9554672,145.063522,4,4,4,House,House,False,640,m2,False
2018090215,listing,/2-24-gillman-street-cheltenham-vic-3192-2018090215,760000,is-sold,Sold at auction 22 Oct 2022,20221022,2/24 Gillman Street,CHELTENHAM,VIC,3192,-37.9725838,145.057281,2,2,2,ApartmentUnitFlat,Apartment / Unit / Flat,False,0,m2,False
2018091913,listing,/1-shirlian-street-cheltenham-vic-3192-2018091913,1155000,is-sold,Sold by private treaty 26 Oct 2022,20221026,1 Shirlian Street,CHELTENHAM,VIC,3192,-37.9671249,145.077545,4,4,4,House,House,False,529,m2,False
2018092154,listing,/14a-davie-avenue-cheltenham-vic-3192-2018092154,1716000,is-sold,Sold at auction 22 Oct 2022,20221022,14a Davie Avenue,CHELTENHAM,VIC,3192,-37.9583359,145.046448,4,4,4,Townhouse,Townhouse,False,360,m2,False
2018093889,listing,/12-alden-court-cheltenham-vic-3192-2018093889,1117000,is-sold,Sold by private treaty 19 Oct 2022,20221019,12 Alden Court,CHELTENHAM,VIC,3192,-37.97282,145.074722,3,3,3,House,House,False,688,m2,False
2018095026,listing,/2-9-reeve-court-cheltenham-vic-3192-2018095026,875000,is-sold,Sold at auction 22 Oct 2022,20221022,2/9 Reeve Court,CHELTENHAM,VIC,3192,-37.9600143,145.057526,2,2,2,ApartmentUnitFlat,Apartment / Unit / Flat,False,338,m2,False
2018095422,listing,/56-snowdon-drive-cheltenham-vic-3192-2018095422,1207500,is-sold,Sold at auction 22 Oct 2022,20221022,56 Snowdon Drive,CHELTENHAM,VIC,3192,-37.97241,145.08223,3,3,3,House,House,False,595,m2,False
2018095780,listing,/11-sydney-street-cheltenham-vic-3192-2018095780,1515000,is-sold,Sold at auction 22 Oct 2022,20221022,11 Sydney Street,CHELTENHAM,VIC,3192,-37.97113,145.052841,3,3,3,House,House,False,641,m2,False
2018096376,listing,/7-jennifer-street-cheltenham-vic-3192-2018096376,2260000,is-sold,Sold at auction 22 Oct 2022,20221022,7 Jennifer Street,CHELTENHAM,VIC,3192,-37.9633064,145.066544,5,5,5,House,House,False,0,m2,False
2018098755,listing,/7-tintern-grove-cheltenham-vic-3192-2018098755,1340000,is-sold,Sold at auction 22 Oct 2022,20221022,7 Tintern Grove,CHELTENHAM,VIC,3192,-37.9523125,145.059464,4,4,4,House,House,False,496,m2,False
2018105364,listing,/70-310-warrigal-road-cheltenham-vic-3192-2018105364,612000,is-sold,Sold prior to auction 26 Oct 2022,20221026,70/310 Warrigal Road,CHELTENHAM,VIC,3192,-37.96642,145.075928,2,2,2,Townhouse,Townhouse,False,0,m2,False
2018105564,listing,/2-17-19-hilda-street-cheltenham-vic-3192-2018105564,680000,is-sold,Sold at auction 29 Oct 2022,20221029,2/17-19 Hilda Street,CHELTENHAM,VIC,3192,-37.97307,145.076569,3,3,3,ApartmentUnitFlat,Apartment / Unit / Flat,False,203,m2,False
2018107731,listing,/30-barclay-drive-cheltenham-vic-3192-2018107731,1330000,is-sold,Sold at auction 27 Oct 2022,20221027,30 Barclay Drive,CHELTENHAM,VIC,3192,-37.9629822,145.082916,4,4,4,House,House,False,711,m2,False
2018122417,listing,/41a-olympic-avenue-cheltenham-vic-3192-2018122417,1600000,is-sold,Sold at auction 28 Oct 2022,20221028,41a Olympic Avenue,CHELTENHAM,VIC,3192,-37.96156,145.043259,4,4,4,Townhouse,Townhouse,False,0,m2,False
2018132224,listing,/106-19-hall-street-cheltenham-vic-3192-2018132224,420000,is-sold,Sold by private treaty 28 Oct 2022,20221028,106/19 Hall Street,CHELTENHAM,VIC,3192,-37.96364,145.053543,1,1,1,ApartmentUnitFlat,Apartment / Unit / Flat,False,0,m2,False
2018140183,listing,/2-19-garfield-street-cheltenham-vic-3192-2018140183,735000,is-sold,Sold at auction 02 Nov 2022,20221102,2/19 Garfield Street,CHELTENHAM,VIC,3192,-37.96078,145.052429,2,2,2,ApartmentUnitFlat,Apartment / Unit / Flat,False,0,m2,False
2018222927,listing,/41a-olympic-avenue-cheltenham-vic-3192-2018222927,1600000,is-sold,Sold at auction 28 Oct 2022,20221028,41a Olympic Avenue,CHELTENHAM,VIC,3192,-37.96156,145.043259,4,4,4,Townhouse,Townhouse,False,0,m2,False
2017722583,listing,/18-338-bay-road-cheltenham-vic-3192-2017722583,280000,is-sold,Sold by private treaty 10 Oct 2022,20221010,18/338 Bay Road,CHELTENHAM,VIC,3192,-37.9566345,145.042984,1,1,1,ApartmentUnitFlat,Apartment / Unit / Flat,False,0,m2,False
2017897213,listing,/17-338-bay-road-cheltenham-vic-3192-2017897213,270000,is-sold,Sold by private treaty 13 Oct 2022,20221013,17/338 Bay Road,CHELTENHAM,VIC,3192,-37.9566345,145.042984,1,1,1,ApartmentUnitFlat,Apartment / Unit / Flat,False,0,m2,False
2017898602,listing,/14-primrose-avenue-cheltenham-vic-3192-2017898602,828500,is-sold,Sold at auction 04 Oct 2022,20221004,14 Primrose Avenue,CHELTENHAM,VIC,3192,-37.9565926,145.0677,3,3,3,Townhouse,Townhouse,False,171,m2,False
2018035660,listing,/1-ward-street-cheltenham-vic-3192-2018035660,,is-sold,Sold by private treaty 06 Oct 2022,20221006,1 Ward Street,CHELTENHAM,VIC,3192,-37.9729652,145.067627,4,4,4,House,House,False,703,m2,False
2018038821,listing,/15-38-jean-street-cheltenham-vic-3192-2018038821,725000,is-sold,Sold by private treaty 14 Oct 2022,20221014,15/38 Jean Street,CHELTENHAM,VIC,3192,-37.9597855,145.051,2,2,2,Townhouse,Townhouse,False,0,m2,False
2018047309,listing,/114-19-hall-street-cheltenham-vic-3192-2018047309,535000,is-sold,Sold by private treaty 13 Oct 2022,20221013,114/19 Hall Street,CHELTENHAM,VIC,3192,-37.96364,145.053543,2,2,2,ApartmentUnitFlat,Apartment / Unit / Flat,False,0,m2,False
2018051036,listing,/10-cox-street-cheltenham-vic-3192-2018051036,915000,is-sold,Sold by private treaty 11 Oct 2022,20221011,10 Cox Street,CHELTENHAM,VIC,3192,-37.9639549,145.072662,3,3,3,House,House,False,408,m2,False
2018051859,listing,/90-devon-street-cheltenham-vic-3192-2018051859,1170000,is-sold,Sold by private treaty 13 Oct 2022,20221013,90 Devon Street,CHELTENHAM,VIC,3192,-37.96969,145.068756,3,3,3,House,House,False,661,m2,False
2018055492,listing,/2-18-20-baringhup-street-cheltenham-vic-3192-2018055492,580000,is-sold,Sold by private treaty 04 Oct 2022,20221004,2/18-20 Baringhup Street,CHELTENHAM,VIC,3192,-37.9656754,145.063339,2,2,2,ApartmentUnitFlat,Apartment / Unit / Flat,False,0,m2,False
2018055508,listing,/3-cronin-court-cheltenham-vic-3192-2018055508,1120000,is-sold,Sold at auction 08 Oct 2022,20221008,3 Cronin Court,CHELTENHAM,VIC,3192,-37.9672241,145.079086,3,3,3,House,House,False,0,m2,False
2018063307,listing,/10-310-warrigal-road-cheltenham-vic-3192-2018063307,515000,is-sold,Sold at auction 08 Oct 2022,20221008,10/310 Warrigal Road,CHELTENHAM,VIC,3192,-37.9661179,145.074982,2,2,2,ApartmentUnitFlat,Apartment / Unit / Flat,False,0,m2,False
2018065285,listing,/2-6-argus-street-cheltenham-vic-3192-2018065285,778000,is-sold,Sold by private treaty 08 Oct 2022,20221008,2/6 Argus Street,CHELTENHAM,VIC,3192,-37.958477,145.0579,3,3,3,ApartmentUnitFlat,Apartment / Unit / Flat,False,0,m2,False
2018065487,listing,/2-15-voltri-street-cheltenham-vic-3192-2018065487,890000,is-sold,Sold at auction 08 Oct 2022,20221008,2/15 Voltri Street,CHELTENHAM,VIC,3192,-37.9747658,145.075638,4,4,4,Townhouse,Townhouse,False,402,m2,False
2018067155,listing,/2-17-silver-street-cheltenham-vic-3192-2018067155,902000,is-sold,Sold at auction 08 Oct 2022,20221008,2/17 Silver Street,CHELTENHAM,VIC,3192,-37.9639969,145.0631,2,2,2,ApartmentUnitFlat,Apartment / Unit / Flat,False,163,m2,False
2018068183,listing,/1-23-mernda-avenue-cheltenham-vic-3192-2018068183,1000000,is-sold,Sold at auction 08 Oct 2022,20221008,1/23 Mernda Avenue,CHELTENHAM,VIC,3192,-37.9573,145.044144,3,3,3,Townhouse,Townhouse,False,0,m2,False
2018076175,listing,/37-olympic-avenue-cheltenham-vic-3192-2018076175,1460000,is-sold,Sold at auction 15 Oct 2022,20221015,37 Olympic Avenue,CHELTENHAM,VIC,3192,-37.96159,145.043625,3,3,3,Townhouse,Townhouse,False,0,m2,False
2018077897,listing,/27-lincoln-drive-cheltenham-vic-3192-2018077897,1150000,is-sold,Sold at auction 15 Oct 2022,20221015,27 Lincoln Drive,CHELTENHAM,VIC,3192,-37.9650955,145.078384,3,3,3,House,House,False,538,m2,False
2018084064,listing,/4-392-394-bay-road-cheltenham-vic-3192-2018084064,590000,is-sold,Sold prior to auction 14 Oct 2022,20221014,4/392-394 Bay Road,CHELTENHAM,VIC,3192,-37.95703,145.0471,2,2,2,ApartmentUnitFlat,Apartment / Unit / Flat,False,185,m2,False
2018095477,listing,/35-weymar-street-cheltenham-vic-3192-2018095477,1250000,is-sold,Sold prior to auction 05 Oct 2022,20221005,35 Weymar Street,CHELTENHAM,VIC,3192,-37.9618263,145.063568,3,3,3,House,House,False,632,m2,False
2018098900,listing,/5-snowdon-drive-cheltenham-vic-3192-2018098900,1140000,is-sold,Sold prior to auction 14 Oct 2022,20221014,5 Snowdon Drive,CHELTENHAM,VIC,3192,-37.97444,145.079941,3,3,3,House,House,False,539,m2,False
2017774173,listing,/2d-jack-road-cheltenham-vic-3192-2017774173,1200000,is-sold,Sold by private treaty 27 Sep 2022,20220927,2d Jack Road,CHELTENHAM,VIC,3192,-37.9617081,145.042679,3,3,3,Townhouse,Townhouse,False,0,m2,False
2017780064,listing,/427-8-railway-road-cheltenham-vic-3192-2017780064,340500,is-sold,Sold by private treaty 19 Sep 2022,20220919,427/8 Railway Road,CHELTENHAM,VIC,3192,-37.9661827,145.056747,1,1,1,ApartmentUnitFlat,Apartment / Unit / Flat,False,0,m2,False
2017931126,listing,/12-310-warrigal-road-cheltenham-vic-3192-2017931126,535000,is-sold,Sold by private treaty 23 Sep 2022,20220923,12/310 Warrigal Road,CHELTENHAM,VIC,3192,-37.9663963,145.074966,2,2,2,ApartmentUnitFlat,Apartment / Unit / Flat,False,127,m2,False
2018017536,listing,/3-tanti-street-cheltenham-vic-3192-2018017536,1315000,is-sold,Sold at auction 17 Sep 2022,20220917,3 Tanti Street,CHELTENHAM,VIC,3192,-37.9657135,145.0715,3,3,3,House,House,False,651,m2,False
2018018692,listing,/22-centre-dandenong-road-cheltenham-vic-3192-2018018692,1030000,is-sold,Sold at auction 17 Sep 2022,20220917,22 Centre Dandenong Road,CHELTENHAM,VIC,3192,-37.9662781,145.061111,3,3,3,House,House,False,598,m2,False
2018020952,listing,/91-centre-dandenong-road-cheltenham-vic-3192-2018020952,1175000,is-sold,Sold by private treaty 27 Sep 2022,20220927,91 Centre Dandenong Road,CHELTENHAM,VIC,3192,-37.96646,145.0678,4,4,4,House,House,False,795,m2,False
2018021004,listing,/65-argus-street-cheltenham-vic-3192-2018021004,1040000,is-sold,Sold by private treaty 26 Sep 2022,20220926,65 Argus Street,CHELTENHAM,VIC,3192,-37.9588165,145.0647,3,3,3,House,House,False,579,m2,False
2018021066,listing,/28a-eden-street-cheltenham-vic-3192-2018021066,1100000,is-sold,Sold at auction 17 Sep 2022,20220917,28A Eden Street,CHELTENHAM,VIC,3192,-37.97176,145.06073,3,3,3,Townhouse,Townhouse,False,0,m2,False
2018022359,listing,/13-munro-avenue-cheltenham-vic-3192-2018022359,1340000,is-sold,Sold at auction 17 Sep 2022,20220917,13 Munro Avenue,CHELTENHAM,VIC,3192,-37.95813,145.044922,3,3,3,House,House,False,580,m2,False
2018024846,listing,/2-11-herald-street-cheltenham-vic-3192-2018024846,746000,is-sold,Sold at auction 17 Sep 2022,20220917,2/11 Herald Street,CHELTENHAM,VIC,3192,-37.9660759,145.070786,2,2,2,ApartmentUnitFlat,Apartment / Unit / Flat,False,0,m2,False
2018027194,listing,/6-abbington-avenue-cheltenham-vic-3192-2018027194,750000,is-sold,Sold by private treaty 21 Sep 2022,20220921,6 Abbington Avenue,CHELTENHAM,VIC,3192,-37.9620552,145.04155,2,2,2,Townhouse,Townhouse,False,133,m2,False
2018033032,listing,/2-2-crawford-street-cheltenham-vic-3192-2018033032,1502000,is-sold,Sold at auction 17 Sep 2022,20220917,2/2 Crawford Street,CHELTENHAM,VIC,3192,-37.9711571,145.048691,3,3,3,ApartmentUnitFlat,Apartment / Unit / Flat,False,550,m2,False
2018034122,listing,/13-clendon-court-cheltenham-vic-3192-2018034122,1270000,is-sold,Sold at auction 28 Sep 2022,20220928,13 Clendon Court,CHELTENHAM,VIC,3192,-37.9519424,145.0595,5,5,5,House,House,False,0,m2,False
2018034327,listing,/13-338-bay-road-cheltenham-vic-3192-2018034327,385000,is-sold,Sold by private treaty 03 Oct 2022,20221003,13/338 Bay Road,CHELTENHAM,VIC,3192,-37.9566345,145.042984,2,2,2,ApartmentUnitFlat,Apartment / Unit / Flat,False,0,m2,False
2018050539,listing,/9-cameron-street-cheltenham-vic-3192-2018050539,1400000,is-sold,Sold by private treaty 28 Sep 2022,20220928,9 Cameron Street,CHELTENHAM,VIC,3192,-37.9689,145.058258,3,3,3,House,House,False,603,m2,False
2018052951,listing,/10-jean-street-cheltenham-vic-3192-2018052951,1430000,is-sold,Sold at auction 01 Oct 2022,20221001,10 Jean Street,CHELTENHAM,VIC,3192,-37.961586,145.052338,3,3,3,House,House,False,777,m2,False
2018053838,listing,/204-30-garfield-street-cheltenham-vic-3192-2018053838,497000,is-sold,Sold by private treaty 15 Sep 2022,20220915,204/30 Garfield Street,CHELTENHAM,VIC,3192,-37.9613876,145.053482,2,2,2,ApartmentUnitFlat,Apartment / Unit / Flat,False,0,m2,False
2018054936,listing,/9-15-sunray-avenue-cheltenham-vic-3192-2018054936,830000,is-sold,Sold at auction 01 Oct 2022,20221001,9/15 Sunray Avenue,CHELTENHAM,VIC,3192,-37.9625854,145.062653,3,3,3,House,House,False,332,m2,False
2018076710,listing,/3-5-sydney-street-cheltenham-vic-3192-2018076710,781600,is-sold,Sold at auction 01 Oct 2022,20221001,3/5 Sydney Street,CHELTENHAM,VIC,3192,-37.971138,145.053467,2,2,2,ApartmentUnitFlat,Apartment / Unit / Flat,False,201,m2,False
2018111548,listing,/3-glenden-retreat-cheltenham-vic-3192-2018111548,955000,is-sold,Sold by private treaty 04 Oct 2022,20221004,3 Glenden Retreat-,CHELTENHAM,VIC,3192,-37.9547043,145.058151,3,3,3,Townhouse,Townhouse,False,0,m2,False
2016704284,listing,/6-55-57-wilson-street-cheltenham-vic-3192-2016704284,,is-sold,Sold by private treaty 02 Sep 2022,20220902,6/55-57 Wilson Street,CHELTENHAM,VIC,3192,-37.9592857,145.060013,2,2,2,Townhouse,Townhouse,False,0,m2,False
2017658920,listing,/64-wingrove-street-cheltenham-vic-3192-2017658920,1000000,is-sold,Sold by private treaty 05 Sep 2022,20220905,64 Wingrove Street,CHELTENHAM,VIC,3192,-37.953186,145.0668,3,3,3,House,House,False,613,m2,False
2017747852,listing,/426-8-railway-road-cheltenham-vic-3192-2017747852,323000,is-sold,Sold by private treaty 04 Sep 2022,20220904,426/8 Railway Road,CHELTENHAM,VIC,3192,-37.9661827,145.056747,1,1,1,ApartmentUnitFlat,Apartment / Unit / Flat,False,0,m2,False
2017885649,listing,/8-avalon-court-cheltenham-vic-3192-2017885649,1620000,is-sold,Sold by private treaty 03 Sep 2022,20220903,8 Avalon Court,CHELTENHAM,VIC,3192,-37.9665146,145.068909,4,4,4,House,House,False,684,m2,False
2017932494,listing,/124a-devon-street-cheltenham-vic-3192-2017932494,875000,is-sold,Sold by private treaty 07 Sep 2022,20220907,124a Devon Street,CHELTENHAM,VIC,3192,-37.97005,145.072571,2,2,2,Townhouse,Townhouse,False,301,m2,False
2017946807,listing,/1-41-centre-dandenong-road-cheltenham-vic-3192-2017946807,592000,is-sold,Sold by private treaty 09 Sep 2022,20220909,1/41 Centre Dandenong Road,CHELTENHAM,VIC,3192,-37.9660225,145.062744,2,2,2,ApartmentUnitFlat,Apartment / Unit / Flat,False,0,m2,False
2017959101,listing,/4-11-15-axelton-street-cheltenham-vic-3192-2017959101,560000,is-sold,Sold by private treaty 13 Sep 2022,20220913,4/11-15 Axelton Street,CHELTENHAM,VIC,3192,-37.9673271,145.063324,2,2,2,ApartmentUnitFlat,Apartment / Unit / Flat,False,0,m2,False
2017979022,listing,/4-2a-gillman-street-cheltenham-vic-3192-2017979022,425000,is-sold,Sold by private treaty 05 Sep 2022,20220905,4/2A Gillman Street,CHELTENHAM,VIC,3192,-37.9724541,145.05513,2,2,2,ApartmentUnitFlat,Apartment / Unit / Flat,False,0,m2,False
2017986659,listing,/69-310-warrigal-road-cheltenham-vic-3192-2017986659,610000,is-sold,Sold by private treaty 11 Sep 2022,20220911,69/310 Warrigal Road,CHELTENHAM,VIC,3192,-37.9664574,145.075928,2,2,2,Townhouse,Townhouse,False,0,m2,False
2017990049,listing,/59-warren-road-cheltenham-vic-3192-2017990049,1160000,is-sold,Sold at auction 03 Sep 2022,20220903,59 Warren Road,CHELTENHAM,VIC,3192,-37.9552231,145.0725,3,3,3,House,House,False,654,m2,False
2017991713,listing,/7-fairview-avenue-cheltenham-vic-3192-2017991713,1175000,is-sold,Sold at auction 05 Sep 2022,20220905,7 Fairview Avenue,CHELTENHAM,VIC,3192,-37.9581375,145.064957,3,3,3,House,House,False,592,m2,False
2017993364,listing,/1-fir-grove-cheltenham-vic-3192-2017993364,1550000,is-sold,Sold at auction 03 Sep 2022,20220903,1 Fir Grove,CHELTENHAM,VIC,3192,-37.9612732,145.047852,4,4,4,House,House,False,596,m2,False
2017997389,listing,/1-axelton-street-cheltenham-vic-3192-2017997389,1660000,is-sold,Sold at auction 10 Sep 2022,20220910,1 Axelton Street,CHELTENHAM,VIC,3192,-37.96815,145.0631,3,3,3,House,House,False,674,m2,False
2018000359,listing,/312-278-charman-road-cheltenham-vic-3192-2018000359,205000,is-sold,Sold at auction 13 Sep 2022,20220913,312/278 Charman Road,CHELTENHAM,VIC,3192,-37.9675827,145.055542,1,1,1,ApartmentUnitFlat,Apartment / Unit / Flat,False,0,m2,False
2018000592,listing,/43-charlton-avenue-cheltenham-vic-3192-2018000592,800000,is-sold,Sold at auction 10 Sep 2022,20220910,43 Charlton Avenue,CHELTENHAM,VIC,3192,-37.96251,145.0411,3,3,3,Townhouse,Townhouse,False,0,m2,False
2018010380,listing,/30-pyingerra-crescent-cheltenham-vic-3192-2018010380,1625000,is-sold,Sold prior to auction 08 Sep 2022,20220908,30 Pyingerra Crescent,CHELTENHAM,VIC,3192,-37.9697876,145.0432,4,4,4,House,House,False,500,m2,False
2018018326,listing,/302-6-railway-road-cheltenham-vic-3192-2018018326,450000,is-sold,Sold by private treaty 10 Sep 2022,20220910,302/6 Railway Road,CHELTENHAM,VIC,3192,-37.9661522,145.056381,2,2,2,ApartmentUnitFlat,Apartment / Unit / Flat,False,0,m2,False
2018022985,listing,/3-1-wedd-street-cheltenham-vic-3192-2018022985,450000,is-sold,Sold by private treaty 12 Sep 2022,20220912,3/1 Wedd Street,CHELTENHAM,VIC,3192,-37.96649,145.05954,1,1,1,ApartmentUnitFlat,Apartment / Unit / Flat,False,0,m2,False
2018031486,listing,/3b-luxmoore-street-cheltenham-vic-3192-2018031486,795000,is-sold,Sold by private treaty 07 Sep 2022,20220907,3b Luxmoore Street,CHELTENHAM,VIC,3192,-37.9590073,145.043259,4,4,4,Townhouse,Townhouse,False,324,m2,False
2018041003,listing,/4-1-elman-road-cheltenham-vic-3192-2018041003,705000,is-sold,Sold at auction 07 Sep 2022,20220907,4/1 Elman Road,CHELTENHAM,VIC,3192,-37.9689445,145.056839,2,2,2,ApartmentUnitFlat,Apartment / Unit / Flat,False,0,m2,False
2017582363,listing,/7-jacaranda-ave-cheltenham-vic-3192-2017582363,1025000,is-sold,Sold by private treaty 23 Aug 2022,20220823,7 Jacaranda Ave,CHELTENHAM,VIC,3192,-37.970665,145.07869,3,3,3,House,House,False,535,m2,False
2017839997,listing,/6-david-court-cheltenham-vic-3192-2017839997,1090000,is-sold,Sold at auction 15 Aug 2022,20220815,6 David Court,CHELTENHAM,VIC,3192,-37.97276,145.0655,3,3,3,House,House,False,324,m2,False
2017882217,listing,/1-1379-1381-nepean-highway-cheltenham-vic-3192-2017882217,410000,is-sold,Sold by private treaty 18 Aug 2022,20220818,1/1379-1381 Nepean Highway,CHELTENHAM,VIC,3192,-37.9734573,145.064514,3,3,3,ApartmentUnitFlat,Apartment / Unit / Flat,False,0,m2,False
2017883172,listing,/4-2b-haughton-street-cheltenham-vic-3192-2017883172,410000,is-sold,Sold by private treaty 31 Aug 2022,20220831,4/2B Haughton Street,CHELTENHAM,VIC,3192,-37.97392,145.06839,1,1,1,ApartmentUnitFlat,Apartment / Unit / Flat,False,0,m2,False
2017890708,listing,/10-138-centre-dandenong-road-cheltenham-vic-3192-2017890708,515000,is-sold,Sold by private treaty 19 Aug 2022,20220819,10/138 Centre Dandenong Road,CHELTENHAM,VIC,3192,-37.96854,145.073242,2,2,2,ApartmentUnitFlat,Apartment / Unit / Flat,False,0,m2,False
2017912757,listing,/4-301-warrigal-road-cheltenham-vic-3192-2017912757,500000,is-sold,Sold by private treaty 27 Aug 2022,20220827,4/301 Warrigal Road,CHELTENHAM,VIC,3192,-37.96084,145.075073,2,2,2,ApartmentUnitFlat,Apartment / Unit / Flat,False,0,m2,False
2017932557,listing,/8-338-bay-road-cheltenham-vic-3192-2017932557,350000,is-sold,Sold by private treaty 31 Aug 2022,20220831,8/338 Bay Road,CHELTENHAM,VIC,3192,-37.9566345,145.042984,1,1,1,ApartmentUnitFlat,Apartment / Unit / Flat,False,0,m2,False
2017946064,listing,/23-tintern-mews-cheltenham-vic-3192-2017946064,820000,is-sold,Sold prior to auction 25 Aug 2022,20220825,23 Tintern Mews,CHELTENHAM,VIC,3192,-37.95127,145.05867,2,2,2,ApartmentUnitFlat,Apartment / Unit / Flat,False,308,m2,False
2017947205,listing,/1-2-herald-street-cheltenham-vic-3192-2017947205,732000,is-sold,Sold by private treaty 16 Aug 2022,20220816,1/2 Herald Street,CHELTENHAM,VIC,3192,-37.9666367,145.071136,2,2,2,ApartmentUnitFlat,Apartment / Unit / Flat,False,0,m2,False
2017951510,listing,/1-17-tulip-grove-cheltenham-vic-3192-2017951510,1325000,is-sold,Sold at auction 13 Aug 2022,20220813,1/17 Tulip Grove,CHELTENHAM,VIC,3192,-37.9624519,145.048447,3,3,3,Townhouse,Townhouse,False,310,m2,False
2017956370,listing,/5-tintern-mews-cheltenham-vic-3192-2017956370,900000,is-sold,Sold at auction 15 Aug 2022,20220815,5 Tintern Mews,CHELTENHAM,VIC,3192,-37.9516335,145.058731,3,3,3,House,House,False,289,m2,False
2017957764,listing,/17-wingrove-street-cheltenham-vic-3192-2017957764,1537500,is-sold,Sold at auction 24 Aug 2022,20220824,17 Wingrove Street,CHELTENHAM,VIC,3192,-37.9521027,145.061615,4,4,4,House,House,False,584,m2,False
2017958967,listing,/64a-devon-street-cheltenham-vic-3192-2017958967,1200000,is-sold,Sold prior to auction 19 Aug 2022,20220819,64a Devon Street,CHELTENHAM,VIC,3192,-37.9693565,145.066544,4,4,4,House,House,False,325,m2,False
2017959794,listing,/71-park-road-cheltenham-vic-3192-2017959794,1620000,is-sold,Sold at auction 20 Aug 2022,20220820,71 Park Road,CHELTENHAM,VIC,3192,-37.9638672,145.044754,4,4,4,House,House,False,403,m2,False
2017961962,listing,/2-5-david-court-cheltenham-vic-3192-2017961962,1101000,is-sold,Sold at auction 20 Aug 2022,20220820,2/5 David Court,CHELTENHAM,VIC,3192,-37.9729347,145.0656,3,3,3,Townhouse,Townhouse,False,309,m2,False
2017964709,listing,/1-301-warrigal-road-cheltenham-vic-3192-2017964709,500000,is-sold,Sold at auction 20 Aug 2022,20220820,1/301 Warrigal Road,CHELTENHAM,VIC,3192,-37.96084,145.075073,2,2,2,ApartmentUnitFlat,Apartment / Unit / Flat,False,228,m2,False
2017977812,listing,/31-bellevue-road-cheltenham-vic-3192-2017977812,1126100,is-sold,Sold at auction 27 Aug 2022,20220827,31 Bellevue Road,CHELTENHAM,VIC,3192,-37.962204,145.041245,3,3,3,Townhouse,Townhouse,False,242,m2,False
2017981288,listing,/110-wilson-street-cheltenham-vic-3192-2017981288,990000,is-sold,Sold by private treaty 28 Aug 2022,20220828,110 Wilson Street,CHELTENHAM,VIC,3192,-37.95576,145.060944,3,3,3,House,House,False,563,m2,False
2017993967,listing,/1333-nepean-highway-cheltenham-vic-3192-2017993967,1455000,is-sold,Sold at auction 27 Aug 2022,20220827,1333 Nepean Highway,CHELTENHAM,VIC,3192,-37.9691658,145.061249,4,4,4,House,House,False,0,m2,False
2018004690,listing,/387-bay-road-cheltenham-vic-3192-2018004690,1367500,is-sold,Sold prior to auction 01 Sep 2022,20220901,387 Bay Road,CHELTENHAM,VIC,3192,-37.95631,145.044983,4,4,4,House,House,False,617,m2,False
2017632272,listing,/2-1268-nepean-highway-cheltenham-vic-3192-2017632272,700000,is-sold,Sold by private treaty 08 Aug 2022,20220808,2/1268 Nepean Highway,CHELTENHAM,VIC,3192,-37.96983,145.060425,2,2,2,ApartmentUnitFlat,Apartment / Unit / Flat,False,0,m2,False
2017781141,listing,/3-318-warrigal-road-cheltenham-vic-3192-2017781141,580000,is-sold,Sold by private treaty 26 Jul 2022,20220726,3/318 Warrigal Road,CHELTENHAM,VIC,3192,-37.9656944,145.0749,2,2,2,ApartmentUnitFlat,Apartment / Unit / Flat,False,0,m2,False
2017826969,listing,/196-warrigal-road-cheltenham-vic-3192-2017826969,871000,is-sold,Sold at auction 01 Aug 2022,20220801,196 Warrigal Road,CHELTENHAM,VIC,3192,-37.9746857,145.073135,3,3,3,House,House,False,438,m2,False
2017837209,listing,/407-bay-road-cheltenham-vic-3192-2017837209,1305000,is-sold,Sold by private treaty 10 Aug 2022,20220810,407 Bay Road,CHELTENHAM,VIC,3192,-37.95663,145.047165,4,4,4,House,House,False,0,m2,False
2017893086,listing,/1d-kayden-street-cheltenham-vic-3192-2017893086,730000,is-sold,Sold at auction 25 Jul 2022,20220725,1D Kayden Street,CHELTENHAM,VIC,3192,-37.9569435,145.069168,3,3,3,Townhouse,Townhouse,False,0,m2,False
2017902105,listing,/2-26-glebe-avenue-cheltenham-vic-3192-2017902105,1200000,is-sold,Sold by private treaty 27 Jul 2022,20220727,2/26 Glebe Avenue,CHELTENHAM,VIC,3192,-37.96987,145.053146,3,3,3,ApartmentUnitFlat,Apartment / Unit / Flat,False,455,m2,False
2017910989,listing,/3-reeve-court-cheltenham-vic-3192-2017910989,1050000,is-sold,Sold at auction 23 Jul 2022,20220723,3 Reeve Court,CHELTENHAM,VIC,3192,-37.9605255,145.057373,3,3,3,House,House,False,699,m2,False
2017912352,listing,/12-wedd-street-cheltenham-vic-3192-2017912352,1198000,is-sold,Sold at auction 26 Jul 2022,20220726,12 Wedd Street,CHELTENHAM,VIC,3192,-37.9671974,145.060822,4,4,4,House,House,False,700,m2,False
2017915940,listing,/3-6-haines-street-cheltenham-vic-3192-2017915940,1020000,is-sold,Sold at auction 30 Jul 2022,20220730,3/6 Haines Street,CHELTENHAM,VIC,3192,-37.96761,145.06163,3,3,3,Townhouse,Townhouse,False,214,m2,False
2017918797,listing,/8-287-291-warrigal-road-cheltenham-vic-3192-2017918797,610000,is-sold,Sold by private treaty 27 Jul 2022,20220727,8/287-291 Warrigal Road,CHELTENHAM,VIC,3192,-37.9619827,145.0746,2,2,2,ApartmentUnitFlat,Apartment / Unit / Flat,False,155,m2,False
2017918915,listing,/8-justin-court-cheltenham-vic-3192-2017918915,1250000,is-sold,Sold by private treaty 28 Jul 2022,20220728,8 Justin Court,CHELTENHAM,VIC,3192,-37.97287,145.079819,3,3,3,House,House,False,0,m2,False
2017919732,listing,/399-bay-road-cheltenham-vic-3192-2017919732,1050000,is-sold,Sold by private treaty 04 Aug 2022,20220804,399 Bay Road,CHELTENHAM,VIC,3192,-37.9565125,145.046173,3,3,3,House,House,False,590,m2,False
2017934021,listing,/14-3-evergreen-circuit-cheltenham-vic-3192-2017934021,415000,is-sold,Sold by private treaty 05 Aug 2022,20220805,14/3 Evergreen Circuit,CHELTENHAM,VIC,3192,-37.962326,145.067245,1,1,1,ApartmentUnitFlat,Apartment / Unit / Flat,False,0,m2,False
2017935796,listing,/9-herald-street-cheltenham-vic-3192-2017935796,1005000,is-sold,Sold at auction 13 Aug 2022,20220813,9 Herald Street,CHELTENHAM,VIC,3192,-37.96613,145.070679,3,3,3,House,House,False,532,m2,False
2017938725,listing,/4-227-charman-road-cheltenham-vic-3192-2017938725,660000,is-sold,Sold by private treaty 25 Jul 2022,20220725,4/227 Charman Road,CHELTENHAM,VIC,3192,-37.9691849,145.0546,2,2,2,Townhouse,Townhouse,False,0,m2,False
2017943814,listing,/2-christensen-street-cheltenham-vic-3192-2017943814,1511000,is-sold,Sold at auction 13 Aug 2022,20220813,2 Christensen Street,CHELTENHAM,VIC,3192,-37.95232,145.065643,4,4,4,House,House,False,843,m2,False
2017947233,listing,/2-24-davie-avenue-cheltenham-vic-3192-2017947233,1072000,is-sold,Sold at auction 13 Aug 2022,20220813,2/24 Davie Avenue,CHELTENHAM,VIC,3192,-37.9575844,145.046646,3,3,3,Townhouse,Townhouse,False,0,m2,False
2017950896,listing,/111-devon-street-cheltenham-vic-3192-2017950896,1765000,is-sold,Sold by private treaty 13 Aug 2022,20220813,111 Devon Street,CHELTENHAM,VIC,3192,-37.96946,145.071365,4,4,4,House,House,False,0,m2,False
2017961574,listing,/4-berkefeld-court-cheltenham-vic-3192-2017961574,1255000,is-sold,Sold at auction 13 Aug 2022,20220813,4 Berkefeld Court,CHELTENHAM,VIC,3192,-37.9661026,145.066788,4,4,4,House,House,False,554,m2,False
2017980649,listing,/408-6-railway-road-cheltenham-vic-3192-2017980649,450000,is-sold,Sold by private treaty 02 Aug 2022,20220802,408/6 Railway Road,CHELTENHAM,VIC,3192,-37.9661522,145.056381,2,2,2,ApartmentUnitFlat,Apartment / Unit / Flat,False,0,m2,False
2017701827,listing,/202-11-maude-street-cheltenham-vic-3192-2017701827,645000,is-sold,Sold by private treaty 12 Jul 2022,20220712,202/11 Maude Street,CHELTENHAM,VIC,3192,-37.96412,145.054749,2,2,2,ApartmentUnitFlat,Apartment / Unit / Flat,False,0,m2,False
2017772961,listing,/48-tulip-grove-cheltenham-vic-3192-2017772961,1125000,is-sold,Sold by private treaty 12 Jul 2022,20220712,48 Tulip Grove,CHELTENHAM,VIC,3192,-37.95921,145.048965,3,3,3,House,House,False,647,m2,False
2017799208,listing,/622-8-railway-road-cheltenham-vic-3192-2017799208,417000,is-sold,Sold by private treaty 18 Jul 2022,20220718,622/8 Railway Road,CHELTENHAM,VIC,3192,-37.9661827,145.056747,2,2,2,ApartmentUnitFlat,Apartment / Unit / Flat,False,0,m2,False
2017816842,listing,/2-1317a-nepean-highway-cheltenham-vic-3192-2017816842,751500,is-sold,Sold by private treaty 08 Jul 2022,20220708,2/1317A Nepean Highway,CHELTENHAM,VIC,3192,-37.9675522,145.0598,2,2,2,Townhouse,Townhouse,False,92,m2,False
2017825576,listing,/9-83-bernard-street-cheltenham-vic-3192-2017825576,601000,is-sold,Sold by private treaty 12 Jul 2022,20220712,9/83 Bernard Street,CHELTENHAM,VIC,3192,-37.95421,145.0707,2,2,2,ApartmentUnitFlat,Apartment / Unit / Flat,False,0,m2,False
2017835495,listing,/2-323-charman-road-cheltenham-vic-3192-2017835495,582500,is-sold,Sold by private treaty 21 Jul 2022,20220721,2/323 Charman Road,CHELTENHAM,VIC,3192,-37.9637947,145.055786,2,2,2,ApartmentUnitFlat,Apartment / Unit / Flat,False,0,m2,False
2017836770,listing,/198-centre-dandenong-road-cheltenham-vic-3192-2017836770,970000,is-sold,Sold by private treaty 14 Jul 2022,20220714,198 Centre Dandenong Road,CHELTENHAM,VIC,3192,-37.96874,145.080322,3,3,3,House,House,False,537,m2,False
2017870158,listing,/1-macao-court-cheltenham-vic-3192-2017870158,1075000,is-sold,Sold at auction 09 Jul 2022,20220709,1 Macao Court,CHELTENHAM,VIC,3192,-37.96472,145.0733,4,4,4,House,House,False,590,m2,False
2017872332,listing,/122-weatherall-road-cheltenham-vic-3192-2017872332,1651000,is-sold,Sold at auction 09 Jul 2022,20220709,122 Weatherall Road,CHELTENHAM,VIC,3192,-37.97176,145.04686,4,4,4,House,House,False,720,m2,False
2017883586,listing,/22a-heather-grove-cheltenham-vic-3192-2017883586,850000,is-sold,Sold at auction 16 Jul 2022,20220716,22A Heather Grove,CHELTENHAM,VIC,3192,-37.96214,145.051147,2,2,2,Townhouse,Townhouse,False,535,m2,False
2017889405,listing,/5-wembley-avenue-cheltenham-vic-3192-2017889405,1080000,is-sold,Sold by private treaty 21 Jul 2022,20220721,5 Wembley Avenue,CHELTENHAM,VIC,3192,-37.9632225,145.0448,3,3,3,House,House,False,462,m2,False
2017891000,listing,/48-mulberry-avenue-cheltenham-vic-3192-2017891000,749900,is-sold,Sold prior to auction 18 Jul 2022,20220718,48 Mulberry Avenue,CHELTENHAM,VIC,3192,-37.9557533,145.069214,3,3,3,Townhouse,Townhouse,False,0,m2,False
2017892361,listing,/86-benkel-avenue-cheltenham-vic-3192-2017892361,1492000,is-sold,Sold at auction 15 Jul 2022,20220715,86 Benkel Avenue,CHELTENHAM,VIC,3192,-37.9675827,145.085419,5,5,5,House,House,False,0,m2,False
2017895429,listing,/21-wallingford-street-cheltenham-vic-3192-2017895429,1780000,is-sold,Sold prior to auction 15 Jul 2022,20220715,21 Wallingford Street,CHELTENHAM,VIC,3192,-37.9702568,145.0642,4,4,4,House,House,False,564,m2,False
2017895756,listing,/15-abbington-avenue-cheltenham-vic-3192-2017895756,1150000,is-sold,Sold by private treaty 14 Jul 2022,20220714,15 Abbington Avenue,CHELTENHAM,VIC,3192,-37.9613953,145.041428,4,4,4,House,House,False,0,m2,False
2017896800,listing,/5-brett-court-cheltenham-vic-3192-2017896800,1175000,is-sold,Sold at auction 23 Jul 2022,20220723,5 Brett Court,CHELTENHAM,VIC,3192,-37.96042,145.069855,3,3,3,House,House,False,545,m2,False
2017901351,listing,/3-coral-court-cheltenham-vic-3192-2017901351,986000,is-sold,Sold at auction 23 Jul 2022,20220723,3 Coral Court,CHELTENHAM,VIC,3192,-37.9719467,145.077316,3,3,3,House,House,False,547,m2,False
2017906309,listing,/18-mulberry-avenue-cheltenham-vic-3192-2017906309,860000,is-sold,Sold at auction 23 Jul 2022,20220723,18 Mulberry Avenue,CHELTENHAM,VIC,3192,-37.9556,145.068008,3,3,3,Townhouse,Townhouse,False,138,m2,False
2017923158,listing,/10-12-14-barker-street-cheltenham-vic-3192-2017923158,845000,is-sold,Sold by private treaty 20 Jul 2022,20220720,10/12-14 Barker Street,CHELTENHAM,VIC,3192,-37.9636955,145.054352,3,3,3,Townhouse,Townhouse,False,0,m2,False
2017968588,listing,/3-reeve-court-cheltenham-vic-3192-2017968588,1050000,is-sold,Sold at auction 23 Jul 2022,20220723,3 Reeve Court,CHELTENHAM,VIC,3192,-37.9605255,145.057373,3,3,3,House,House,False,699,m2,False
2017558628,listing,/106-3-chesterville-road-cheltenham-vic-3192-2017558628,330000,is-sold,Sold by private treaty 25 Jun 2022,20220625,106/3 Chesterville Road,CHELTENHAM,VIC,3192,-37.961834,145.056152,1,1,1,ApartmentUnitFlat,Apartment / Unit / Flat,False,0,m2,False
2017588712,listing,/6-garfield-street-cheltenham-vic-3192-2017588712,1160000,is-sold,Sold by private treaty 20 Jun 2022,20220620,6 Garfield Street,CHELTENHAM,VIC,3192,-37.959774,145.05246,3,3,3,House,House,False,543,m2,False
2017797566,listing,/71-bernard-street-cheltenham-vic-3192-2017797566,1020000,is-sold,Sold by private treaty 24 Jun 2022,20220624,71 Bernard Street,CHELTENHAM,VIC,3192,-37.95356,145.066711,3,3,3,House,House,False,664,m2,False
2017797851,listing,/1-21-barker-street-cheltenham-vic-3192-2017797851,690000,is-sold,Sold by private treaty 30 Jun 2022,20220630,1/21 Barker Street,CHELTENHAM,VIC,3192,-37.9631653,145.054459,2,2,2,Townhouse,Townhouse,False,0,m2,False
2017823773,listing,/8-17a-judd-parade-cheltenham-vic-3192-2017823773,660000,is-sold,Sold by private treaty 08 Jul 2022,20220708,8/17A Judd Parade,CHELTENHAM,VIC,3192,-37.9734535,145.073685,2,2,2,ApartmentUnitFlat,Apartment / Unit / Flat,False,0,m2,False
2017826087,listing,/1-6-hilda-street-cheltenham-vic-3192-2017826087,820000,is-sold,Sold at auction 19 Jun 2022,20220619,1/6 Hilda Street,CHELTENHAM,VIC,3192,-37.97455,145.0767,3,3,3,House,House,False,0,m2,False
2017827255,listing,/10-374-warrigal-road-cheltenham-vic-3192-2017827255,660000,is-sold,Sold at auction 18 Jun 2022,20220618,10/374 Warrigal Road,CHELTENHAM,VIC,3192,-37.9607353,145.075638,2,2,2,ApartmentUnitFlat,Apartment / Unit / Flat,False,0,m2,False
2017828607,listing,/1-61-follett-road-cheltenham-vic-3192-2017828607,1165000,is-sold,Sold at auction 18 Jun 2022,20220618,1/61 Follett Road,CHELTENHAM,VIC,3192,-37.9706573,145.072968,4,4,4,Townhouse,Townhouse,False,0,m2,False
2017828683,listing,/7a-plunkett-street-cheltenham-vic-3192-2017828683,1412500,is-sold,Sold by private treaty 24 Jun 2022,20220624,7A Plunkett Street,CHELTENHAM,VIC,3192,-37.9647865,145.063339,4,4,4,Townhouse,Townhouse,False,322,m2,False
2017829361,listing,/238-warrigal-road-cheltenham-vic-3192-2017829361,940000,is-sold,Sold by private treaty 07 Jul 2022,20220707,238 Warrigal Road,CHELTENHAM,VIC,3192,-37.9712448,145.073746,3,3,3,House,House,False,579,m2,False
2017838492,listing,/1-233-warrigal-road-cheltenham-vic-3192-2017838492,701000,is-sold,Sold at auction 25 Jun 2022,20220625,1/233 Warrigal Road,CHELTENHAM,VIC,3192,-37.96675,145.07399,2,2,2,ApartmentUnitFlat,Apartment / Unit / Flat,False,0,m2,False
2017839463,listing,/6-higham-street-cheltenham-vic-3192-2017839463,1635000,is-sold,Sold by private treaty 29 Jun 2022,20220629,6 Higham Street,CHELTENHAM,VIC,3192,-37.9713631,145.0557,4,4,4,House,House,False,663,m2,False
2017842987,listing,/22-munro-avenue-cheltenham-vic-3192-2017842987,1395000,is-sold,Sold by private treaty 27 Jun 2022,20220627,22 Munro Avenue,CHELTENHAM,VIC,3192,-37.9576569,145.045563,3,3,3,House,House,False,627,m2,False
2017850114,listing,/6-jellicoe-street-cheltenham-vic-3192-2017850114,1280000,is-sold,Sold at auction 02 Jul 2022,20220702,6 Jellicoe Street,CHELTENHAM,VIC,3192,-37.96172,145.057892,3,3,3,House,House,False,0,m2,False
2017853689,listing,/2-30-gillman-street-cheltenham-vic-3192-2017853689,1130000,is-sold,Sold at auction 02 Jul 2022,20220702,2/30 Gillman Street,CHELTENHAM,VIC,3192,-37.9728355,145.058,3,3,3,House,House,False,402,m2,False
2017872835,listing,/3-61-follett-road-cheltenham-vic-3192-2017872835,856000,is-sold,Sold by private treaty 30 Jun 2022,20220630,3/61 Follett Road,CHELTENHAM,VIC,3192,-37.9706573,145.072968,2,2,2,Townhouse,Townhouse,False,0,m2,False
2017872838,listing,/2-61-follett-road-cheltenham-vic-3192-2017872838,900000,is-sold,Sold by private treaty 28 Jun 2022,20220628,2/61 Follett Road,CHELTENHAM,VIC,3192,-37.9706573,145.072968,2,2,2,Townhouse,Townhouse,False,0,m2,False
2017875380,listing,/3-5-sunray-avenue-cheltenham-vic-3192-2017875380,645000,is-sold,Sold prior to auction 07 Jul 2022,20220707,3/5 Sunray Avenue,CHELTENHAM,VIC,3192,-37.9626465,145.061462,2,2,2,ApartmentUnitFlat,Apartment / Unit / Flat,False,121,m2,False
2017887427,listing,/4-6-bellevue-road-cheltenham-vic-3192-2017887427,615000,is-sold,Sold by private treaty 06 Jul 2022,20220706,4/6 Bellevue Road,CHELTENHAM,VIC,3192,-37.9623146,145.040131,2,2,2,ApartmentUnitFlat,Apartment / Unit / Flat,False,0,m2,False
2017897859,listing,/6-hamlet-street-cheltenham-vic-3192-2017897859,,is-sold,Sold by private treaty 24 Jun 2022,20220624,6 Hamlet Street,CHELTENHAM,VIC,3192,-37.9580269,145.040588,7,7,7,House,House,False,560,m2,False
2016747975,listing,/309-9-chesterville-road-cheltenham-vic-3192-2016747975,315000,is-sold,Sold by private treaty 14 Jun 2022,20220614,309/9 Chesterville Road,CHELTENHAM,VIC,3192,-37.9612846,145.056168,1,1,1,ApartmentUnitFlat,Apartment / Unit / Flat,False,0,m2,False
2017579488,listing,/2-21-stuart-avenue-cheltenham-vic-3192-2017579488,1035000,is-sold,Sold at auction 08 Jun 2022,20220608,2/21 Stuart Avenue,CHELTENHAM,VIC,3192,-37.96037,145.045044,3,3,3,Townhouse,Townhouse,False,285,m2,False
2017691001,listing,/3-34-gillman-street-cheltenham-vic-3192-2017691001,405000,is-sold,Sold at auction 06 Jun 2022,20220606,3/34 Gillman Street,CHELTENHAM,VIC,3192,-37.9728279,145.058487,2,2,2,ApartmentUnitFlat,Apartment / Unit / Flat,False,0,m2,False
2017722476,listing,/709-6-railway-road-cheltenham-vic-3192-2017722476,661000,is-sold,Sold by private treaty 04 Jun 2022,20220604,709/6 Railway Road,CHELTENHAM,VIC,3192,-37.9661522,145.056381,3,3,3,ApartmentUnitFlat,Apartment / Unit / Flat,False,0,m2,False
2017757270,listing,/2-340-bay-road-cheltenham-vic-3192-2017757270,475000,is-sold,Sold by private treaty 14 Jun 2022,20220614,2/340 Bay Road,CHELTENHAM,VIC,3192,-37.9566231,145.043518,2,2,2,ApartmentUnitFlat,Apartment / Unit / Flat,False,0,m2,False
2017766829,listing,/43-lincoln-drive-cheltenham-vic-3192-2017766829,1225000,is-sold,Sold at auction 12 Jun 2022,20220612,43 Lincoln Drive,CHELTENHAM,VIC,3192,-37.963913,145.078568,3,3,3,House,House,False,537,m2,False
2017795349,listing,/31-gillman-street-cheltenham-vic-3192-2017795349,1440000,is-sold,Sold by private treaty 05 Jun 2022,20220605,31 Gillman Street,CHELTENHAM,VIC,3192,-37.9721375,145.057968,4,4,4,House,House,False,584,m2,False
2017795586,listing,/8-9-11-radcliff-avenue-cheltenham-vic-3192-2017795586,685000,is-sold,Sold at auction 04 Jun 2022,20220604,8/9-11 Radcliff Avenue,CHELTENHAM,VIC,3192,-37.959877,145.0593,2,2,2,ApartmentUnitFlat,Apartment / Unit / Flat,False,0,m2,False
2017797829,listing,/3-1-6-chaprowe-court-cheltenham-vic-3192-2017797829,500000,is-sold,Sold at auction 04 Jun 2022,20220604,3/1-6 Chaprowe Court,CHELTENHAM,VIC,3192,-37.9608154,145.058578,2,2,2,ApartmentUnitFlat,Apartment / Unit / Flat,False,0,m2,False
2017799926,listing,/58-jells-road-cheltenham-vic-3192-2017799926,1320000,is-sold,Sold at auction 11 Jun 2022,20220611,58 Jells Road,CHELTENHAM,VIC,3192,-37.96393,145.080978,3,3,3,House,House,False,534,m2,False
2017809503,listing,/32-gillman-street-cheltenham-vic-3192-2017809503,1070000,is-sold,Sold by private treaty 04 Jun 2022,20220604,32 Gillman Street,CHELTENHAM,VIC,3192,-37.97261,145.058182,3,3,3,House,House,False,0,m2,False
2017814839,listing,/3-27-heather-grove-cheltenham-vic-3192-2017814839,568000,is-sold,Sold at auction 04 Jun 2022,20220604,3/27 Heather Grove,CHELTENHAM,VIC,3192,-37.9606667,145.049728,2,2,2,ApartmentUnitFlat,Apartment / Unit / Flat,False,0,m2,False
2017816167,listing,/24b-paul-street-cheltenham-vic-3192-2017816167,1630000,is-sold,Sold at auction 07 Jun 2022,20220607,24b Paul Street,CHELTENHAM,VIC,3192,-37.9623375,145.04776,3,3,3,Townhouse,Townhouse,False,0,m2,False
2017825741,listing,/513-1228-nepean-highway-cheltenham-vic-3192-2017825741,490000,is-sold,Sold by private treaty 10 Jun 2022,20220610,513/1228 Nepean Highway,CHELTENHAM,VIC,3192,-37.9658127,145.057373,2,2,2,ApartmentUnitFlat,Apartment / Unit / Flat,False,0,m2,False
2017825922,listing,/47a-wilson-street-cheltenham-vic-3192-2017825922,887500,is-sold,Sold at auction 18 Jun 2022,20220618,47A Wilson Street,CHELTENHAM,VIC,3192,-37.9612846,145.059387,2,2,2,Villa,Villa,False,0,m2,False
2017825924,listing,/17-hartwell-place-cheltenham-vic-3192-2017825924,1260000,is-sold,Sold prior to auction 06 Jun 2022,20220606,17 Hartwell Place,CHELTENHAM,VIC,3192,-37.9576836,145.062317,3,3,3,House,House,False,591,m2,False
2017827895,listing,/1-waller-court-cheltenham-vic-3192-2017827895,1960000,is-sold,Sold at auction 18 Jun 2022,20220618,1 Waller Court,CHELTENHAM,VIC,3192,-37.97323,145.056473,4,4,4,House,House,False,828,m2,False
2017840610,listing,/32b-evesham-road-cheltenham-vic-3192-2017840610,1370000,is-sold,Sold at auction 14 Jun 2022,20220614,32B Evesham Road,CHELTENHAM,VIC,3192,-37.96994,145.0646,3,3,3,Townhouse,Townhouse,False,0,m2,False
2017846681,listing,/17a-norland-street-cheltenham-vic-3192-2017846681,1445000,is-sold,Sold by private treaty 18 Jun 2022,20220618,17A Norland Street,CHELTENHAM,VIC,3192,-37.96758,145.068832,4,4,4,Townhouse,Townhouse,False,0,m2,False
2017882934,listing,/9-105-park-road-cheltenham-vic-3192-2017882934,740000,is-sold,Sold by private treaty 15 Jun 2022,20220615,9/105 Park Road,CHELTENHAM,VIC,3192,-37.96374,145.049179,2,2,2,House,House,False,163,m2,False
2017235081,listing,/14-31-33-garfield-street-cheltenham-vic-3192-2017235081,505000,is-sold,Sold by private treaty 31 May 2022,20220531,14/31-33 Garfield Street,CHELTENHAM,VIC,3192,-37.96156,145.0531,2,2,2,ApartmentUnitFlat,Apartment / Unit / Flat,False,0,m2,False
2017614742,listing,/14-jean-street-cheltenham-vic-3192-2017614742,850000,is-sold,Sold by private treaty 28 May 2022,20220528,14 Jean Street,CHELTENHAM,VIC,3192,-37.9614,145.052,2,2,2,Townhouse,Townhouse,False,0,m2,False
2017711231,listing,/6-5-7-radcliff-avenue-cheltenham-vic-3192-2017711231,524999,is-sold,Sold at auction 23 May 2022,20220523,6/5-7 Radcliff Avenue,CHELTENHAM,VIC,3192,-37.9597054,145.058975,2,2,2,ApartmentUnitFlat,Apartment / Unit / Flat,False,0,m2,False
2017715600,listing,/11-38-jean-street-cheltenham-vic-3192-2017715600,756000,is-sold,Sold by private treaty 26 May 2022,20220526,11/38 Jean Street,CHELTENHAM,VIC,3192,-37.9597855,145.051,2,2,2,Townhouse,Townhouse,False,0,m2,False
2017724759,listing,/7-227-charman-road-cheltenham-vic-3192-2017724759,595000,is-sold,Sold by private treaty 01 Jun 2022,20220601,7/227 Charman Road,CHELTENHAM,VIC,3192,-37.9691925,145.054688,2,2,2,ApartmentUnitFlat,Apartment / Unit / Flat,False,0,m2,False
2017747190,listing,/10-11-15-garfield-street-cheltenham-vic-3192-2017747190,870000,is-sold,Sold by private treaty 30 May 2022,20220530,10/11-15 Garfield Street,CHELTENHAM,VIC,3192,-37.9604568,145.052017,3,3,3,Townhouse,Townhouse,False,158,m2,False
2017752877,listing,/39-cobham-street-cheltenham-vic-3192-2017752877,1670000,is-sold,Sold at auction 21 May 2022,20220521,39 Cobham Street,CHELTENHAM,VIC,3192,-37.97228,145.0669,4,4,4,House,House,False,586,m2,False
2017758695,listing,/15-1a-jean-street-cheltenham-vic-3192-2017758695,699000,is-sold,Sold by private treaty 01 Jun 2022,20220601,15/1A Jean Street,CHELTENHAM,VIC,3192,-37.96278,145.05397,2,2,2,ApartmentUnitFlat,Apartment / Unit / Flat,False,156,m2,False
2017759603,listing,/2-17-stuart-avenue-cheltenham-vic-3192-2017759603,941000,is-sold,Sold at auction 21 May 2022,20220521,2/17 Stuart Avenue,CHELTENHAM,VIC,3192,-37.96026,145.044754,2,2,2,Townhouse,Townhouse,False,0,m2,False
2017763082,listing,/18c-gillman-street-cheltenham-vic-3192-2017763082,940000,is-sold,Sold by private treaty 24 May 2022,20220524,18C Gillman Street,CHELTENHAM,VIC,3192,-37.97273,145.056778,3,3,3,ApartmentUnitFlat,Apartment / Unit / Flat,False,0,m2,False
2017769437,listing,/65-central-park-walk-cheltenham-vic-3192-2017769437,720000,is-sold,Sold at auction 21 May 2022,20220521,65 Central Park Walk,CHELTENHAM,VIC,3192,-37.95604,145.0691,2,2,2,Townhouse,Townhouse,False,0,m2,False
2017772560,listing,/405-1228-nepean-highway-cheltenham-vic-3192-2017772560,460000,is-sold,Sold by private treaty 21 May 2022,20220521,405/1228 Nepean Highway,CHELTENHAM,VIC,3192,-37.9658127,145.057373,2,2,2,ApartmentUnitFlat,Apartment / Unit / Flat,False,0,m2,False
2017774215,listing,/104-11-maude-street-cheltenham-vic-3192-2017774215,668000,is-sold,Sold by private treaty 25 May 2022,20220525,104/11 Maude Street,CHELTENHAM,VIC,3192,-37.96412,145.054749,2,2,2,ApartmentUnitFlat,Apartment / Unit / Flat,False,0,m2,False
2017776960,listing,/29-cobham-street-cheltenham-vic-3192-2017776960,1760000,is-sold,Sold prior to auction 25 May 2022,20220525,29 Cobham Street,CHELTENHAM,VIC,3192,-37.9721832,145.066071,4,4,4,House,House,False,589,m2,False
2017778021,listing,/2-93-bernard-street-cheltenham-vic-3192-2017778021,610000,is-sold,Sold at auction 26 May 2022,20220526,2/93 Bernard Street,CHELTENHAM,VIC,3192,-37.9542351,145.071854,2,2,2,ApartmentUnitFlat,Apartment / Unit / Flat,False,0,m2,False
2017778777,listing,/3-17-oak-avenue-cheltenham-vic-3192-2017778777,745000,is-sold,Sold at auction 28 May 2022,20220528,3/17 Oak Avenue,CHELTENHAM,VIC,3192,-37.9738045,145.067276,3,3,3,ApartmentUnitFlat,Apartment / Unit / Flat,False,237,m2,False
2017791808,listing,/4-moonda-grove-cheltenham-vic-3192-2017791808,1415000,is-sold,Sold at auction 04 Jun 2022,20220604,4 Moonda Grove,CHELTENHAM,VIC,3192,-37.9685326,145.06723,4,4,4,House,House,False,772,m2,False
2017797166,listing,/83b-park-road-cheltenham-vic-3192-2017797166,1568000,is-sold,Sold by private treaty 30 May 2022,20220530,83B Park Road,CHELTENHAM,VIC,3192,-37.9639664,145.046341,3,3,3,Townhouse,Townhouse,False,292,m2,False
2017799170,listing,/1-nova-court-cheltenham-vic-3192-2017799170,1650000,is-sold,Sold prior to auction 01 Jun 2022,20220601,1 Nova Court,CHELTENHAM,VIC,3192,-37.96191,145.077057,4,4,4,House,House,False,550,m2,False
2017804280,listing,/10-mulberry-avenue-cheltenham-vic-3192-2017804280,862000,is-sold,Sold at auction 04 Jun 2022,20220604,10 Mulberry Avenue,CHELTENHAM,VIC,3192,-37.95558,145.067657,3,3,3,Townhouse,Townhouse,False,0,m2,False
2017595135,listing,/15-bellevue-road-cheltenham-vic-3192-2017595135,1350000,is-sold,Sold at auction 20 May 2022,20220520,15 Bellevue Road,CHELTENHAM,VIC,3192,-37.9620628,145.040619,4,4,4,House,House,False,0,m2,False
2017714528,listing,/3-35-herald-street-cheltenham-vic-3192-2017714528,580000,is-sold,Sold at auction 07 May 2022,20220507,3/35 Herald Street,CHELTENHAM,VIC,3192,-37.962883,145.071136,2,2,2,ApartmentUnitFlat,Apartment / Unit / Flat,False,0,m2,False
2017720860,listing,/1-selwood-retreat-cheltenham-vic-3192-2017720860,920000,is-sold,Sold prior to auction 10 May 2022,20220510,1 Selwood Retreat,CHELTENHAM,VIC,3192,-37.9536819,145.06073,3,3,3,House,House,False,572,m2,False
2017726397,listing,/4-8-bellevue-road-cheltenham-vic-3192-2017726397,640000,is-sold,Sold by private treaty 17 May 2022,20220517,4/8 Bellevue Road,CHELTENHAM,VIC,3192,-37.96235,145.040329,2,2,2,ApartmentUnitFlat,Apartment / Unit / Flat,False,303,m2,False
2017728729,listing,/14-reuben-street-cheltenham-vic-3192-2017728729,1566000,is-sold,Sold at auction 07 May 2022,20220507,14 Reuben Street,CHELTENHAM,VIC,3192,-37.960762,145.062576,4,4,4,House,House,False,612,m2,False
2017736647,listing,/11-82-90-wilson-street-cheltenham-vic-3192-2017736647,686000,is-sold,Sold at auction 14 May 2022,20220514,11/82-90 Wilson Street,CHELTENHAM,VIC,3192,-37.95777,145.061111,2,2,2,ApartmentUnitFlat,Apartment / Unit / Flat,False,0,m2,False
2017738526,listing,/3-119-123-park-road-cheltenham-vic-3192-2017738526,1201000,is-sold,Sold by private treaty 20 May 2022,20220520,3/119-123 Park Road,CHELTENHAM,VIC,3192,-37.9646072,145.050613,3,3,3,Townhouse,Townhouse,False,274,m2,False
2017740073,listing,/100-bernard-street-cheltenham-vic-3192-2017740073,1130000,is-sold,Sold at auction 14 May 2022,20220514,100 Bernard Street,CHELTENHAM,VIC,3192,-37.95436,145.068878,3,3,3,House,House,False,591,m2,False
2017743122,listing,/215-6-railway-road-cheltenham-vic-3192-2017743122,450000,is-sold,Sold by private treaty 06 May 2022,20220506,215/6 Railway Road,CHELTENHAM,VIC,3192,-37.9661522,145.056381,2,2,2,ApartmentUnitFlat,Apartment / Unit / Flat,False,0,m2,False
2017743158,listing,/1-28-luxmoore-street-cheltenham-vic-3192-2017743158,978000,is-sold,Sold at auction 18 May 2022,20220518,1/28 Luxmoore Street,CHELTENHAM,VIC,3192,-37.959774,145.045746,3,3,3,Townhouse,Townhouse,False,302,m2,False
2017745721,listing,/35-luxmoore-street-cheltenham-vic-3192-2017745721,1510000,is-sold,Sold at auction 14 May 2022,20220514,35 Luxmoore Street,CHELTENHAM,VIC,3192,-37.959507,145.046524,3,3,3,House,House,False,641,m2,False
2017746043,listing,/2-17-tulip-grove-cheltenham-vic-3192-2017746043,1222000,is-sold,Sold at auction 14 May 2022,20220514,2/17 Tulip Grove,CHELTENHAM,VIC,3192,-37.96245,145.0482,3,3,3,Townhouse,Townhouse,False,0,m2,False
2017746527,listing,/2-320-warrigal-road-cheltenham-vic-3192-2017746527,570000,is-sold,Sold by private treaty 17 May 2022,20220517,2/320 Warrigal Road,CHELTENHAM,VIC,3192,-37.9654541,145.074875,2,2,2,ApartmentUnitFlat,Apartment / Unit / Flat,False,0,m2,False
2017747352,listing,/112-15-maude-street-cheltenham-vic-3192-2017747352,560000,is-sold,Sold by private treaty 04 May 2022,20220504,112/15 Maude Street,CHELTENHAM,VIC,3192,-37.96414,145.05513,2,2,2,ApartmentUnitFlat,Apartment / Unit / Flat,False,0,m2,False
2017751115,listing,/5-barrett-street-cheltenham-vic-3192-2017751115,2250000,is-sold,Sold by private treaty 16 May 2022,20220516,5 Barrett Street,CHELTENHAM,VIC,3192,-37.96992,145.055954,4,4,4,House,House,False,603,m2,False
2017757746,listing,/419-8-railway-road-cheltenham-vic-3192-2017757746,440000,is-sold,Sold by private treaty 09 May 2022,20220509,419/8 Railway Road,CHELTENHAM,VIC,3192,-37.9661827,145.056747,2,2,2,ApartmentUnitFlat,Apartment / Unit / Flat,False,0,m2,False
2017763557,listing,/14-erskine-avenue-cheltenham-vic-3192-2017763557,1385000,is-sold,Sold by private treaty 20 May 2022,20220520,14 Erskine Avenue,CHELTENHAM,VIC,3192,-37.9624367,145.043549,3,3,3,House,House,False,577,m2,False
2017764933,listing,/11-heather-grove-cheltenham-vic-3192-2017764933,1450000,is-sold,Sold at auction 07 May 2022,20220507,11 Heather Grove,CHELTENHAM,VIC,3192,-37.9616432,145.05014,3,3,3,House,House,False,594,m2,False
2017769669,listing,/2-amber-court-cheltenham-vic-3192-2017769669,1350000,is-sold,Sold at auction 16 May 2022,20220516,2 Amber Court,CHELTENHAM,VIC,3192,-37.97379,145.071747,4,4,4,House,House,False,594,m2,False
2017783126,listing,/31-tiffany-avenue-cheltenham-vic-3192-2017783126,1400000,is-sold,Sold prior to auction 19 May 2022,20220519,31 Tiffany Avenue,CHELTENHAM,VIC,3192,-37.9724426,145.080078,3,3,3,House,House,False,309,m2,False
2017560386,listing,/213-6-railway-road-cheltenham-vic-3192-2017560386,349000,is-sold,Sold by private treaty 30 Apr 2022,20220430,213/6 Railway Road,CHELTENHAM,VIC,3192,-37.9661522,145.056381,1,1,1,ApartmentUnitFlat,Apartment / Unit / Flat,False,0,m2,False
2017628977,listing,/10-central-park-walk-cheltenham-vic-3192-2017628977,785000,is-sold,Sold prior to auction 27 Apr 2022,20220427,10 Central Park Walk,CHELTENHAM,VIC,3192,-37.9560776,145.0675,3,3,3,Townhouse,Townhouse,False,0,m2,False
2017666483,listing,/3-5-7-hall-street-cheltenham-vic-3192-2017666483,765000,is-sold,Sold by private treaty 28 Apr 2022,20220428,3/5-7 Hall Street,CHELTENHAM,VIC,3192,-37.96454,145.054047,2,2,2,Townhouse,Townhouse,False,0,m2,False
2017669486,listing,/8-105-107-park-road-cheltenham-vic-3192-2017669486,765000,is-sold,Sold by private treaty 03 May 2022,20220503,8/105-107 Park Road,CHELTENHAM,VIC,3192,-37.963726,145.049057,2,2,2,Villa,Villa,False,0,m2,False
2017670628,listing,/1-woodland-drive-cheltenham-vic-3192-2017670628,790000,is-sold,Sold by private treaty 27 Apr 2022,20220427,1 Woodland Drive,CHELTENHAM,VIC,3192,-37.9559135,145.0604,2,2,2,House,House,False,0,m2,False
2017689711,listing,/28a-parkin-avenue-cheltenham-vic-3192-2017689711,1475000,is-sold,Sold at auction 30 Apr 2022,20220430,28A Parkin Avenue,CHELTENHAM,VIC,3192,-37.96158,145.064987,4,4,4,Townhouse,Townhouse,False,322,m2,False
2017699044,listing,/3-25-brampton-street-cheltenham-vic-3192-2017699044,600000,is-sold,Sold by private treaty 01 May 2022,20220501,3/25 Brampton Street,CHELTENHAM,VIC,3192,-37.9655952,145.075562,2,2,2,Townhouse,Townhouse,False,0,m2,False
2017707397,listing,/26-mena-avenue-cheltenham-vic-3192-2017707397,1255000,is-sold,Sold at auction 23 Apr 2022,20220423,26 Mena Avenue,CHELTENHAM,VIC,3192,-37.96774,145.070374,2,2,2,House,House,False,591,m2,False
2017712054,listing,/1-78-albenca-street-cheltenham-vic-3192-2017712054,1363000,is-sold,Sold at auction 30 Apr 2022,20220430,1/78 Albenca Street,CHELTENHAM,VIC,3192,-37.9740448,145.075455,3,3,3,Townhouse,Townhouse,False,0,m2,False
2017716417,listing,/8-rosewarne-avenue-cheltenham-vic-3192-2017716417,1810000,is-sold,Sold at auction 30 Apr 2022,20220430,8 Rosewarne Avenue,CHELTENHAM,VIC,3192,-37.95777,145.063019,5,5,5,House,House,False,800,m2,False
2017716436,listing,/300-warrigal-road-cheltenham-vic-3192-2017716436,651000,is-sold,Sold at auction 30 Apr 2022,20220430,300 Warrigal Road,CHELTENHAM,VIC,3192,-37.966877,145.074509,2,2,2,ApartmentUnitFlat,Apartment / Unit / Flat,False,247,m2,False
2017717296,listing,/7-109-weatherall-road-cheltenham-vic-3192-2017717296,451000,is-sold,Sold at auction 30 Apr 2022,20220430,7/109 Weatherall Road,CHELTENHAM,VIC,3192,-37.9705353,145.046692,1,1,1,ApartmentUnitFlat,Apartment / Unit / Flat,False,0,m2,False
2017717354,listing,/3-117-park-road-cheltenham-vic-3192-2017717354,415000,is-sold,Sold at auction 30 Apr 2022,20220430,3/117 Park Road,CHELTENHAM,VIC,3192,-37.96438,145.050354,2,2,2,ApartmentUnitFlat,Apartment / Unit / Flat,False,0,m2,False
2017718291,listing,/5-138-centre-dandenong-road-cheltenham-vic-3192-2017718291,467000,is-sold,Sold at auction 30 Apr 2022,20220430,5/138 Centre Dandenong Road,CHELTENHAM,VIC,3192,-37.96815,145.073318,2,2,2,ApartmentUnitFlat,Apartment / Unit / Flat,False,0,m2,False
2017720302,listing,/4-barrett-street-cheltenham-vic-3192-2017720302,2150000,is-sold,Sold at auction 02 May 2022,20220502,4 Barrett Street,CHELTENHAM,VIC,3192,-37.9704,145.055649,4,4,4,House,House,False,687,m2,False
2017723356,listing,/30-luxmoore-street-cheltenham-vic-3192-2017723356,1254000,is-sold,Sold at auction 30 Apr 2022,20220430,30 Luxmoore Street,CHELTENHAM,VIC,3192,-37.9598122,145.045929,3,3,3,Townhouse,Townhouse,False,309,m2,False
2017728324,listing,/5a-charles-street-cheltenham-vic-3192-2017728324,1200000,is-sold,Sold at auction 30 Apr 2022,20220430,5A Charles Street,CHELTENHAM,VIC,3192,-37.97194,145.059,3,3,3,Townhouse,Townhouse,False,311,m2,False
2017732987,listing,/4-10-hilda-street-cheltenham-vic-3192-2017732987,835500,is-sold,Sold prior to auction 28 Apr 2022,20220428,4/10 Hilda Street,CHELTENHAM,VIC,3192,-37.9742355,145.0774,3,3,3,ApartmentUnitFlat,Apartment / Unit / Flat,False,0,m2,False
2017747571,listing,/6-mayne-street-cheltenham-vic-3192-2017747571,1425000,is-sold,Sold prior to auction 02 May 2022,20220502,6 Mayne Street,CHELTENHAM,VIC,3192,-37.9546356,145.064957,3,3,3,House,House,False,0,m2,False
2017782679,listing,/2-1270-nepean-highway-cheltenham-vic-3192-2017782679,727000,is-sold,Sold by private treaty 26 Apr 2022,20220426,2/1270 Nepean Highway,CHELTENHAM,VIC,3192,-37.97,145.060455,2,2,2,ApartmentUnitFlat,Apartment / Unit / Flat,False,221,m2,False
2017421778,listing,/5-1359-nepean-highway-cheltenham-vic-3192-2017421778,315000,is-sold,Sold by private treaty 12 Apr 2022,20220412,5/1359 Nepean Highway,CHELTENHAM,VIC,3192,-37.9713478,145.062912,1,1,1,ApartmentUnitFlat,Apartment / Unit / Flat,False,0,m2,False
2017440969,listing,/2-ward-st-cheltenham-vic-3192-2017440969,1260000,is-sold,Sold by private treaty 21 Apr 2022,20220421,2 Ward St,CHELTENHAM,VIC,3192,-37.97281,145.068069,3,3,3,House,House,False,688,m2,False
2017579421,listing,/2-berkefeld-court-cheltenham-vic-3192-2017579421,1036000,is-sold,Sold by private treaty 22 Apr 2022,20220422,2 Berkefeld Court,CHELTENHAM,VIC,3192,-37.9662666,145.06665,3,3,3,House,House,False,554,m2,False
2017622197,listing,/6-30-32-jean-street-cheltenham-vic-3192-2017622197,783000,is-sold,Sold by private treaty 11 Apr 2022,20220411,6/30-32 Jean Street,CHELTENHAM,VIC,3192,-37.9603348,145.0513,3,3,3,ApartmentUnitFlat,Apartment / Unit / Flat,False,147,m2,False
2017646363,listing,/7-11-wilson-street-cheltenham-vic-3192-2017646363,750000,is-sold,Sold at auction 22 Apr 2022,20220422,7/11 Wilson Street,CHELTENHAM,VIC,3192,-37.9647865,145.059982,2,2,2,Villa,Villa,False,0,m2,False
2017648218,listing,/2-19-reeve-court-cheltenham-vic-3192-2017648218,775000,is-sold,Sold by private treaty 22 Apr 2022,20220422,2/19 Reeve Court,CHELTENHAM,VIC,3192,-37.9592,145.057678,2,2,2,Townhouse,Townhouse,False,0,m2,False
2017651222,listing,/15-friendship-square-cheltenham-vic-3192-2017651222,1420000,is-sold,Sold at auction 10 Apr 2022,20220410,15 Friendship Square,CHELTENHAM,VIC,3192,-37.95919,145.0666,3,3,3,House,House,False,684,m2,False
2017661937,listing,/39-farm-road-cheltenham-vic-3192-2017661937,1235000,is-sold,Sold at auction 09 Apr 2022,20220409,39 Farm Road,CHELTENHAM,VIC,3192,-37.9629822,145.080322,3,3,3,House,House,False,0,m2,False
2017667114,listing,/134-wilson-street-cheltenham-vic-3192-2017667114,1368000,is-sold,Sold at auction 23 Apr 2022,20220423,134 Wilson Street,CHELTENHAM,VIC,3192,-37.9540749,145.061249,3,3,3,House,House,False,0,m2,False
2017671935,listing,/30-kelmar-street-cheltenham-vic-3192-2017671935,1585000,is-sold,Sold at auction 09 Apr 2022,20220409,30 Kelmar Street,CHELTENHAM,VIC,3192,-37.9607544,145.0646,3,3,3,House,House,False,0,m2,False
2017681633,listing,/13a-devon-street-cheltenham-vic-3192-2017681633,1675000,is-sold,Sold at auction 09 Apr 2022,20220409,13A Devon Street,CHELTENHAM,VIC,3192,-37.9683342,145.061813,4,4,4,House,House,False,344,m2,False
2017697239,listing,/19b-friendship-square-cheltenham-vic-3192-2017697239,1240000,is-sold,Sold at auction 23 Apr 2022,20220423,19B Friendship Square,CHELTENHAM,VIC,3192,-37.9596748,145.066589,4,4,4,Townhouse,Townhouse,False,0,m2,False
2017699440,listing,/10-holmby-road-cheltenham-vic-3192-2017699440,1970000,is-sold,Sold at auction 23 Apr 2022,20220423,10 Holmby Road,CHELTENHAM,VIC,3192,-37.96849,145.058334,3,3,3,House,House,False,602,m2,False
2017699793,listing,/7-hannah-street-cheltenham-vic-3192-2017699793,1475000,is-sold,Sold at auction 23 Apr 2022,20220423,7 Hannah Street,CHELTENHAM,VIC,3192,-37.95706,145.071945,5,5,5,House,House,False,654,m2,False
2017701022,listing,/14-camelia-grove-cheltenham-vic-3192-2017701022,1815000,is-sold,Sold at auction 23 Apr 2022,20220423,14 Camelia Grove,CHELTENHAM,VIC,3192,-37.9701843,145.076843,3,3,3,House,House,False,1084,m2,False
2017701656,listing,/125-devon-street-cheltenham-vic-3192-2017701656,1408000,is-sold,Sold at auction 18 Apr 2022,20220418,125 Devon Street,CHELTENHAM,VIC,3192,-37.9697075,145.072784,3,3,3,House,House,False,0,m2,False
2017702246,listing,/1-18-jack-road-cheltenham-vic-3192-2017702246,700000,is-sold,Sold at auction 23 Apr 2022,20220423,1/18 Jack Road,CHELTENHAM,VIC,3192,-37.96003,145.043015,2,2,2,ApartmentUnitFlat,Apartment / Unit / Flat,False,0,m2,False
2017712689,listing,/34-abbington-avenue-cheltenham-vic-3192-2017712689,790000,is-sold,Sold at auction 22 Apr 2022,20220422,34 Abbington Avenue,CHELTENHAM,VIC,3192,-37.96126,145.04184,2,2,2,House,House,False,0,m2,False
2017716358,listing,/12-reeve-court-cheltenham-vic-3192-2017716358,1310000,is-sold,Sold prior to auction 22 Apr 2022,20220422,12 Reeve Court,CHELTENHAM,VIC,3192,-37.9600639,145.058,3,3,3,House,House,False,343,m2,False
2017724255,listing,/9-bettina-court-cheltenham-vic-3192-2017724255,1345000,is-sold,Sold by private treaty 22 Apr 2022,20220422,9 Bettina Court,CHELTENHAM,VIC,3192,-37.96093,145.077332,3,3,3,House,House,False,695,m2,False
2017199261,listing,/914-6-railway-road-cheltenham-vic-3192-2017199261,,is-sold,Sold by private treaty 05 Apr 2022,20220405,914/6 Railway Road,CHELTENHAM,VIC,3192,-37.9661522,145.056381,2,2,2,ApartmentUnitFlat,Apartment / Unit / Flat,False,0,m2,False
2017369291,listing,/3-17a-judd-parade-cheltenham-vic-3192-2017369291,685000,is-sold,Sold by private treaty 05 Apr 2022,20220405,3/17a Judd Parade,CHELTENHAM,VIC,3192,-37.9733047,145.0743,2,2,2,ApartmentUnitFlat,Apartment / Unit / Flat,False,0,m2,False
2017535144,listing,/2-295-bay-road-cheltenham-vic-3192-2017535144,833000,is-sold,Sold by private treaty 28 Mar 2022,20220328,2/295 Bay Road,CHELTENHAM,VIC,3192,-37.9550667,145.035278,2,2,2,Townhouse,Townhouse,False,0,m2,False
2017578906,listing,/1-7-9-kayden-street-cheltenham-vic-3192-2017578906,715000,is-sold,Sold by private treaty 07 Apr 2022,20220407,1/7-9 Kayden Street,CHELTENHAM,VIC,3192,-37.95723,145.07074,2,2,2,ApartmentUnitFlat,Apartment / Unit / Flat,False,269,m2,False
2017613094,listing,/20-centre-dandenong-road-cheltenham-vic-3192-2017613094,1065000,is-sold,Sold by private treaty 28 Mar 2022,20220328,20 Centre Dandenong Road,CHELTENHAM,VIC,3192,-37.9662552,145.060944,3,3,3,House,House,False,634,m2,False
2017634439,listing,/36-follett-road-cheltenham-vic-3192-2017634439,1465000,is-sold,Sold at auction 02 Apr 2022,20220402,36 Follett Road,CHELTENHAM,VIC,3192,-37.9711456,145.07196,3,3,3,House,House,False,0,m2,False
2017645816,listing,/11-everest-drive-cheltenham-vic-3192-2017645816,933000,is-sold,Sold at auction 02 Apr 2022,20220402,11 Everest Drive,CHELTENHAM,VIC,3192,-37.95492,145.058792,3,3,3,Townhouse,Townhouse,False,0,m2,False
2017646097,listing,/14-coral-court-cheltenham-vic-3192-2017646097,1427000,is-sold,Sold at auction 02 Apr 2022,20220402,14 Coral Court,CHELTENHAM,VIC,3192,-37.9720573,145.078171,4,4,4,House,House,False,688,m2,False
2017647038,listing,/31-regent-parade-cheltenham-vic-3192-2017647038,1305000,is-sold,Sold at auction 02 Apr 2022,20220402,31 Regent Parade,CHELTENHAM,VIC,3192,-37.9559174,145.064362,4,4,4,House,House,False,0,m2,False
2017650645,listing,/303-15-maude-street-cheltenham-vic-3192-2017650645,619500,is-sold,Sold at auction 02 Apr 2022,20220402,303/15 Maude Street,CHELTENHAM,VIC,3192,-37.96414,145.05513,2,2,2,ApartmentUnitFlat,Apartment / Unit / Flat,False,0,m2,False
2017650782,listing,/24b-wembley-avenue-cheltenham-vic-3192-2017650782,1770000,is-sold,Sold at auction 02 Apr 2022,20220402,24B Wembley Avenue,CHELTENHAM,VIC,3192,-37.9620056,145.045609,4,4,4,Townhouse,Townhouse,False,0,m2,False
2017650920,listing,/7-131-cavanagh-street-cheltenham-vic-3192-2017650920,425000,is-sold,Sold by private treaty 02 Apr 2022,20220402,7/131 Cavanagh Street,CHELTENHAM,VIC,3192,-37.955368,145.066635,2,2,2,ApartmentUnitFlat,Apartment / Unit / Flat,False,0,m2,False
2017656236,listing,/2-elissa-court-cheltenham-vic-3192-2017656236,1385000,is-sold,Sold at auction 02 Apr 2022,20220402,2 Elissa Court,CHELTENHAM,VIC,3192,-37.96399,145.077118,4,4,4,House,House,False,840,m2,False
2017661657,listing,/2-13-15-stuart-avenue-cheltenham-vic-3192-2017661657,1420000,is-sold,Sold at auction 02 Apr 2022,20220402,2/13-15 Stuart Avenue,CHELTENHAM,VIC,3192,-37.96003,145.04454,3,3,3,Townhouse,Townhouse,False,0,m2,False
2017662115,listing,/2-44-wilson-street-cheltenham-vic-3192-2017662115,866000,is-sold,Sold at auction 02 Apr 2022,20220402,2/44 Wilson Street,CHELTENHAM,VIC,3192,-37.9609451,145.0599,2,2,2,ApartmentUnitFlat,Apartment / Unit / Flat,False,0,m2,False
2017663062,listing,/2-6-leon-street-cheltenham-vic-3192-2017663062,1175000,is-sold,Sold prior to auction 01 Apr 2022,20220401,2/6 Leon Street,CHELTENHAM,VIC,3192,-37.9613152,145.061417,3,3,3,ApartmentUnitFlat,Apartment / Unit / Flat,False,0,m2,False
2017666517,listing,/26-luxmoore-street-cheltenham-vic-3192-2017666517,1633000,is-sold,Sold at auction 08 Apr 2022,20220408,26 Luxmoore Street,CHELTENHAM,VIC,3192,-37.9597664,145.045578,3,3,3,House,House,False,0,m2,False
2017667320,listing,/17b-goulburn-street-cheltenham-vic-3192-2017667320,941000,is-sold,Sold at auction 07 Apr 2022,20220407,17B Goulburn Street,CHELTENHAM,VIC,3192,-37.9631233,145.059448,2,2,2,Townhouse,Townhouse,False,0,m2,False
2017668061,listing,/6-maiya-court-cheltenham-vic-3192-2017668061,1740000,is-sold,Sold at auction 09 Apr 2022,20220409,6 Maiya Court,CHELTENHAM,VIC,3192,-37.9704323,145.044022,5,5,5,House,House,False,0,m2,False
2017675947,listing,/19-mulberry-avenue-cheltenham-vic-3192-2017675947,880000,is-sold,Sold by private treaty 04 Apr 2022,20220404,19 Mulberry Avenue,CHELTENHAM,VIC,3192,-37.95543,145.068253,3,3,3,Townhouse,Townhouse,False,0,m2,False
2016928380,listing,/206-11-maude-street-cheltenham-vic-3192-2016928380,585000,is-sold,Sold by private treaty 25 Mar 2022,20220325,206/11 Maude Street,CHELTENHAM,VIC,3192,-37.96412,145.054749,1,1,1,NewApartments,New Apartments / Off the Plan,False,0,m2,False
2017043016,listing,/3-78-albenca-street-cheltenham-vic-3192-2017043016,1335000,is-sold,Sold at auction 26 Mar 2022,20220326,3/78 Albenca Street,CHELTENHAM,VIC,3192,-37.9740448,145.075455,3,3,3,Townhouse,Townhouse,False,0,m2,False
2017518448,listing,/109-5-maude-street-cheltenham-vic-3192-2017518448,685000,is-sold,Sold by private treaty 21 Mar 2022,20220321,109/5 Maude Street,CHELTENHAM,VIC,3192,-37.96403,145.054276,2,2,2,ApartmentUnitFlat,Apartment / Unit / Flat,False,100,m2,False
2017528293,listing,/g07-11-maude-street-cheltenham-vic-3192-2017528293,960000,is-sold,Sold by private treaty 22 Mar 2022,20220322,G07/11 Maude Street,CHELTENHAM,VIC,3192,-37.96412,145.054749,3,3,3,ApartmentUnitFlat,Apartment / Unit / Flat,False,0,m2,False
2017603818,listing,/5-shipston-road-cheltenham-vic-3192-2017603818,1565000,is-sold,Sold at auction 19 Mar 2022,20220319,5 Shipston Road,CHELTENHAM,VIC,3192,-37.9714,145.06897,4,4,4,House,House,False,591,m2,False
2017611224,listing,/5-1305-1307-nepean-highway-cheltenham-vic-3192-2017611224,830000,is-sold,Sold prior to auction 24 Mar 2022,20220324,5/1305-1307 Nepean Highway,CHELTENHAM,VIC,3192,-37.96646,145.05896,3,3,3,House,House,False,0,m2,False
2017611448,listing,/28-parnell-street-cheltenham-vic-3192-2017611448,966500,is-sold,Sold at auction 19 Mar 2022,20220319,28 Parnell Street,CHELTENHAM,VIC,3192,-37.95382,145.062546,3,3,3,ApartmentUnitFlat,Apartment / Unit / Flat,False,319,m2,False
2017615251,listing,/1-184-weatherall-road-cheltenham-vic-3192-2017615251,1130000,is-sold,Sold at auction 19 Mar 2022,20220319,1/184 Weatherall Road,CHELTENHAM,VIC,3192,-37.97232,145.0519,3,3,3,ApartmentUnitFlat,Apartment / Unit / Flat,False,0,m2,False
2017617524,listing,/1-107-cavanagh-street-cheltenham-vic-3192-2017617524,975000,is-sold,Sold at auction 19 Mar 2022,20220319,1/107 Cavanagh Street,CHELTENHAM,VIC,3192,-37.95721,145.06633,3,3,3,House,House,False,0,m2,False
2017622133,listing,/10-mackenzie-street-cheltenham-vic-3192-2017622133,720000,is-sold,Sold at auction 19 Mar 2022,20220319,10 Mackenzie Street,CHELTENHAM,VIC,3192,-37.9707146,145.052719,2,2,2,ApartmentUnitFlat,Apartment / Unit / Flat,False,218,m2,False
2017622679,listing,/1a-marita-court-cheltenham-vic-3192-2017622679,,is-sold,Sold at auction 26 Mar 2022,20220326,1A Marita Court,CHELTENHAM,VIC,3192,-37.9572563,145.063751,4,4,4,ApartmentUnitFlat,Apartment / Unit / Flat,False,0,m2,False
2017625608,listing,/1-28-sunray-avenue-cheltenham-vic-3192-2017625608,1050000,is-sold,Sold at auction 26 Mar 2022,20220326,1/28 Sunray Avenue,CHELTENHAM,VIC,3192,-37.9632339,145.063644,3,3,3,ApartmentUnitFlat,Apartment / Unit / Flat,False,0,m2,False
2017626327,listing,/203-5-maude-street-cheltenham-vic-3192-2017626327,505000,is-sold,Sold by private treaty 22 Mar 2022,20220322,203/5 Maude Street,CHELTENHAM,VIC,3192,-37.96403,145.054276,1,1,1,ApartmentUnitFlat,Apartment / Unit / Flat,False,59,m2,False
2017627970,listing,/149-cavanagh-street-cheltenham-vic-3192-2017627970,1015000,is-sold,Sold at auction 26 Mar 2022,20220326,149 Cavanagh Street,CHELTENHAM,VIC,3192,-37.9540634,145.0668,3,3,3,House,House,False,535,m2,False
2017632916,listing,/4-pembroke-crescent-cheltenham-vic-3192-2017632916,1234000,is-sold,Sold at auction 26 Mar 2022,20220326,4 Pembroke Crescent,CHELTENHAM,VIC,3192,-37.9581833,145.067734,3,3,3,House,House,False,0,m2,False
2017635417,listing,/5-elman-road-cheltenham-vic-3192-2017635417,1512000,is-sold,Sold at auction 26 Mar 2022,20220326,5 Elman Road,CHELTENHAM,VIC,3192,-37.96868,145.057236,4,4,4,House,House,False,0,m2,False
2017636655,listing,/8-lendor-court-cheltenham-vic-3192-2017636655,1212000,is-sold,Sold at auction 24 Mar 2022,20220324,8 Lendor Court,CHELTENHAM,VIC,3192,-37.9642868,145.084717,3,3,3,House,House,False,0,m2,False
2017638185,listing,/2-78-albenca-street-cheltenham-vic-3192-2017638185,1330000,is-sold,Sold by private treaty 26 Mar 2022,20220326,2/78 Albenca Street,CHELTENHAM,VIC,3192,-37.9740448,145.075455,3,3,3,Townhouse,Townhouse,False,0,m2,False
2017651297,listing,/37a-evesham-road-cheltenham-vic-3192-2017651297,1425000,is-sold,Sold at auction 25 Mar 2022,20220325,37a Evesham Road,CHELTENHAM,VIC,3192,-37.96964,145.06485,3,3,3,House,House,False,294,m2,False
2017652869,listing,/54a-herald-street-cheltenham-vic-3192-2017652869,1005000,is-sold,Sold prior to auction 26 Mar 2022,20220326,54a Herald Street,CHELTENHAM,VIC,3192,-37.961586,145.072052,3,3,3,Townhouse,Townhouse,False,303,m2,False
2017341144,listing,/4-83-85-bernard-street-cheltenham-vic-3192-2017341144,625000,is-sold,Sold by private treaty 16 Mar 2022,20220316,4/83-85 Bernard Street,CHELTENHAM,VIC,3192,-37.95421,145.0707,2,2,2,ApartmentUnitFlat,Apartment / Unit / Flat,False,0,m2,False
2017499367,listing,/59-310-warrigal-road-cheltenham-vic-3192-2017499367,675000,is-sold,Sold by private treaty 15 Mar 2022,20220315,59/310 Warrigal Road,CHELTENHAM,VIC,3192,-37.9671364,145.07576,2,2,2,Townhouse,Townhouse,False,0,m2,False
2017547762,listing,/97-herald-street-cheltenham-vic-3192-2017547762,1050000,is-sold,Sold at auction 12 Mar 2022,20220312,97 Herald Street,CHELTENHAM,VIC,3192,-37.95663,145.072449,3,3,3,House,House,False,532,m2,False
2017574906,listing,/g04-15-maude-street-cheltenham-vic-3192-2017574906,690000,is-sold,Sold by private treaty 17 Mar 2022,20220317,G04/15 Maude Street,CHELTENHAM,VIC,3192,-37.96414,145.05513,2,2,2,ApartmentUnitFlat,Apartment / Unit / Flat,False,0,m2,False
2017580774,listing,/3-17-tulip-grove-cheltenham-vic-3192-2017580774,1253000,is-sold,Sold at auction 05 Mar 2022,20220305,3/17 Tulip Grove,CHELTENHAM,VIC,3192,-37.9624252,145.048035,3,3,3,Townhouse,Townhouse,False,0,m2,False
2017581766,listing,/9-18-barrett-street-cheltenham-vic-3192-2017581766,747500,is-sold,Sold by private treaty 16 Mar 2022,20220316,9/18 Barrett Street,CHELTENHAM,VIC,3192,-37.9705,145.056992,3,3,3,ApartmentUnitFlat,Apartment / Unit / Flat,False,0,m2,False
