id,listingType,url,price,tagClassName,tagText,date,street,suburb,state,postcode,lat,lng,beds,baths,parking,propertyType,propertyTypeFormatted,isRural,landSize,landUnit,isRetirement
2018309897,listing,/43-aviation-drive-mount-duneed-vic-3217-2018309897,660000,is-sold,Sold by private treaty 27 Feb 2023,20230227,43 Aviation Drive,MOUNT DUNEED,VIC,3217,-38.2222939,144.33313,3,3,3,House,House,False,366,m2,False
2018253437,listing,/22-secluded-drive-armstrong-creek-vic-3217-2018253437,732500,is-sold,Sold by private treaty 03 Mar 2023,20230303,22 Secluded Drive,ARMSTRONG CREEK,VIC,3217,-38.2337646,144.3511,3,3,3,House,House,False,539,m2,False
2018285069,listing,/23-fletcher-drive-armstrong-creek-vic-3217-2018285069,,is-sold,Sold by private treaty 02 Mar 2023,20230302,23 Fletcher Drive,ARMSTRONG CREEK,VIC,3217,-38.23824,144.358017,4,4,4,House,House,False,400,m2,False
2018119011,listing,/26-honeyeater-way-mount-duneed-vic-3217-2018119011,399000,is-sold,Sold by private treaty 06 Mar 2023,20230306,26 Honeyeater Way,MOUNT DUNEED,VIC,3217,-38.21716,144.330612,,,,VacantLand,Vacant land,False,416,m2,False
2018262415,listing,/2173-warralily-boulevard-armstrong-creek-vic-3217-2018262415,,is-sold,Sold by private treaty 04 Mar 2023,20230304,2173 Warralily Boulevard,ARMSTRONG CREEK,VIC,3217,-38.2399445,144.356,4,2,2,House,House,False,556,m2,False
2017989482,listing,/49-everton-crescent-charlemont-vic-3217-2017989482,540000,is-sold,Sold by private treaty 24 Feb 2023,20230224,49 Everton Crescent,CHARLEMONT,VIC,3217,-38.2106323,144.3636,3,2,1,House,House,False,220,m2,False
2018150306,listing,/18-whitecliff-way-armstrong-creek-vic-3217-2018150306,660000,is-sold,Sold by private treaty 09 Mar 2023,20230309,18 Whitecliff Way,ARMSTRONG CREEK,VIC,3217,-38.23443,144.370956,4,2,2,House,House,False,453,m2,False
2018191482,listing,/17-19-spirit-crescent-armstrong-creek-vic-3217-2018191482,,is-sold,Sold by private treaty 16 Feb 2023,20230216,17-19 Spirit Crescent,ARMSTRONG CREEK,VIC,3217,-38.2359734,144.347153,4,2,2,House,House,False,0,m2,False
2018208958,listing,/12-conquest-street-mount-duneed-vic-3217-2018208958,780000,is-sold,Sold by private treaty 16 Feb 2023,20230216,12 Conquest Street,MOUNT DUNEED,VIC,3217,-38.21957,144.325378,3,2,3,House,House,False,448,m2,False
2018215791,listing,/105-warralily-boulevard-armstrong-creek-vic-3217-2018215791,690000,is-sold,Sold by private treaty 16 Feb 2023,20230216,105 Warralily Boulevard,ARMSTRONG CREEK,VIC,3217,-38.23948,144.370667,4,2,2,House,House,False,749,m2,False
2018221796,listing,/17-albanel-street-armstrong-creek-vic-3217-2018221796,,is-sold,Sold by private treaty 06 Mar 2023,20230306,17 Albanel Street,ARMSTRONG CREEK,VIC,3217,-38.2457161,144.345917,4,2,1,House,House,False,294,m2,False
2018284315,listing,/13-sevenhill-drive-mount-duneed-vic-3217-2018284315,,is-sold,Sold by private treaty 27 Feb 2023,20230227,13 Sevenhill Drive,MOUNT DUNEED,VIC,3217,-38.2314224,144.3248,4,2,2,House,House,False,0,m2,False
2018285271,listing,/13-chateau-way-mount-duneed-vic-3217-2018285271,660000,is-sold,Sold by private treaty 16 Feb 2023,20230216,13 Chateau Way,MOUNT DUNEED,VIC,3217,-38.23673,144.329,3,2,2,House,House,False,336,m2,False
2018298863,listing,/20-mount-duneed-road-mount-duneed-vic-3217-2018298863,,is-sold,Sold by private treaty 23 Feb 2023,20230223,20 Mount Duneed Road,MOUNT DUNEED,VIC,3217,-38.24847,144.3303,5,2,3,House,House,True,13.88,ha,False
2018299137,listing,/20-mount-duneed-road-mount-duneed-vic-3217-2018299137,,is-sold,Sold by private treaty 23 Feb 2023,20230223,20 Mount Duneed Road,MOUNT DUNEED,VIC,3217,-38.24847,144.3303,5,2,3,House,House,True,13.88,ha,False
2018300113,listing,/41-fawkner-crescent-armstrong-creek-vic-3217-2018300113,795000,is-sold,Sold by private treaty 14 Feb 2023,20230214,41 Fawkner Crescent,ARMSTRONG CREEK,VIC,3217,-38.2438736,144.382614,4,2,2,House,House,False,448,m2,False
2018306634,listing,/5-7-silvercrest-way-armstrong-creek-vic-3217-2018306634,840500,is-sold,Sold by private treaty 17 Feb 2023,20230217,5-7 Silvercrest Way,ARMSTRONG CREEK,VIC,3217,-38.23625,144.375336,4,2,2,House,House,False,659,m2,False
2018341127,listing,/16-mcmahon-avenue-armstrong-creek-vic-3217-2018341127,650000,is-sold,Sold by private treaty 14 Feb 2023,20230214,16 McMahon Avenue,ARMSTRONG CREEK,VIC,3217,-38.24014,144.3647,4,2,2,House,House,False,425,m2,False
2018345395,listing,/31-prominence-boulevard-armstrong-creek-vic-3217-2018345395,,is-sold,Sold by private treaty 15 Feb 2023,20230215,31 Prominence Boulevard,ARMSTRONG CREEK,VIC,3217,-38.23857,144.365524,4,2,2,House,House,False,400,m2,False
2018346939,listing,/33-heathcote-street-mount-duneed-vic-3217-2018346939,550000,is-sold,Sold by private treaty 02 Mar 2023,20230302,33 Heathcote Street,MOUNT DUNEED,VIC,3217,-38.23673,144.329,3,2,1,House,House,False,275,m2,False
2018067732,listing,/72-atherton-street-armstrong-creek-vic-3217-2018067732,675000,is-sold,Sold by private treaty 03 Feb 2023,20230203,72 Atherton Street,ARMSTRONG CREEK,VIC,3217,-38.2415657,144.3796,4,2,2,House,House,False,392,m2,False
2018076039,listing,/43-spirit-crescent-armstrong-creek-vic-3217-2018076039,740000,is-sold,Sold by private treaty 08 Feb 2023,20230208,43 Spirit Crescent,ARMSTRONG CREEK,VIC,3217,-38.2359734,144.347153,4,2,2,House,House,False,447,m2,False
2018142966,listing,/18-gallery-walk-mount-duneed-vic-3217-2018142966,600000,is-sold,Sold by private treaty 10 Feb 2023,20230210,18 Gallery Walk,MOUNT DUNEED,VIC,3217,-38.21823,144.32605,4,2,2,Townhouse,Townhouse,False,140,m2,False
2018143932,listing,/17-crystall-place-armstrong-creek-vic-3217-2018143932,615000,is-sold,Sold by private treaty 05 Feb 2023,20230205,17 Crystall Place,ARMSTRONG CREEK,VIC,3217,-38.2408524,144.370728,3,2,1,House,House,False,384,m2,False
2018158500,listing,/54-coastside-drive-armstrong-creek-vic-3217-2018158500,863000,is-sold,Sold by private treaty 03 Feb 2023,20230203,54 Coastside Drive,ARMSTRONG CREEK,VIC,3217,-38.2420845,144.339264,4,2,2,House,House,False,534,m2,False
2018216122,listing,/25-prominence-boulevard-armstrong-creek-vic-3217-2018216122,635000,is-sold,Sold by private treaty 02 Feb 2023,20230202,25 Prominence Boulevard,ARMSTRONG CREEK,VIC,3217,-38.2389259,144.365616,4,2,2,House,House,False,0,m2,False
2018219644,listing,/15-nairn-drive-armstrong-creek-vic-3217-2018219644,806000,is-sold,Sold by private treaty 02 Feb 2023,20230202,15 Nairn Drive,ARMSTRONG CREEK,VIC,3217,-38.22158,144.352768,4,2,2,House,House,False,512,m2,False
2018241828,listing,/143-ambrosia-drive-armstrong-creek-vic-3217-2018241828,665000,is-sold,Sold by private treaty 13 Feb 2023,20230213,143 Ambrosia Drive,ARMSTRONG CREEK,VIC,3217,-38.2388573,144.356949,4,2,2,House,House,False,400,m2,False
2018255995,listing,/2-stannis-street-charlemont-vic-3217-2018255995,605000,is-sold,Sold by private treaty 03 Feb 2023,20230203,2 Stannis Street,CHARLEMONT,VIC,3217,-38.216465,144.360229,3,2,2,House,House,False,377,m2,False
2018256775,listing,/17-hangar-street-mount-duneed-vic-3217-2018256775,,is-sold,Sold by private treaty 03 Feb 2023,20230203,17 Hangar Street,MOUNT DUNEED,VIC,3217,-38.2202,144.333755,4,2,2,House,House,False,402,m2,False
2018287815,listing,/20-daybreak-avenue-armstrong-creek-vic-3217-2018287815,645000,is-sold,Sold by private treaty 03 Feb 2023,20230203,20 Daybreak Avenue,ARMSTRONG CREEK,VIC,3217,-38.2360458,144.365845,4,2,2,House,House,False,385,m2,False
2018298587,listing,/15-celestial-way-mount-duneed-vic-3217-2018298587,660000,is-sold,Sold by private treaty 03 Feb 2023,20230203,15 Celestial Way,MOUNT DUNEED,VIC,3217,-38.2236862,144.32225,3,2,2,House,House,False,0,m2,False
2018299122,listing,/29-oakdale-street-charlemont-vic-3217-2018299122,,is-sold,Sold by private treaty 03 Feb 2023,20230203,29 Oakdale Street,CHARLEMONT,VIC,3217,-38.215004,144.364334,4,2,2,House,House,False,516,m2,False
2018299799,listing,/11-chamberlain-drive-armstrong-creek-vic-3217-2018299799,705000,is-sold,Sold by private treaty 08 Feb 2023,20230208,11 Chamberlain Drive,ARMSTRONG CREEK,VIC,3217,-38.224968,144.350143,4,2,2,House,House,False,448,m2,False
2018312603,listing,/10-evergreen-street-armstrong-creek-vic-3217-2018312603,730000,is-sold,Sold by private treaty 01 Feb 2023,20230201,10 Evergreen Street,ARMSTRONG CREEK,VIC,3217,-38.23889,144.363266,4,2,2,House,House,False,448,m2,False
2018312610,listing,/33-abode-street-armstrong-creek-vic-3217-2018312610,710000,is-sold,Sold by private treaty 08 Feb 2023,20230208,33 Abode Street,ARMSTRONG CREEK,VIC,3217,-38.23469,144.347321,4,2,2,House,House,False,400,m2,False
2018313085,listing,/18-ashcroft-drive-charlemont-vic-3217-2018313085,617000,is-sold,Sold by private treaty 07 Feb 2023,20230207,18 Ashcroft Drive,CHARLEMONT,VIC,3217,-38.209034,144.3642,3,2,2,House,House,False,262,m2,False
2018325786,listing,/23-evergreen-street-armstrong-creek-vic-3217-2018325786,700000,is-sold,Sold by private treaty 11 Feb 2023,20230211,23 Evergreen Street,ARMSTRONG CREEK,VIC,3217,-38.2391,144.362885,4,2,2,House,House,False,426,m2,False
2018326721,listing,/15-mcarthur-crescent-armstrong-creek-vic-3217-2018326721,660000,is-sold,Sold by private treaty 07 Feb 2023,20230207,15 McArthur Crescent,ARMSTRONG CREEK,VIC,3217,-38.24089,144.379745,3,2,2,House,House,False,312,m2,False
2018331371,listing,/9-keats-circuit-armstrong-creek-vic-3217-2018331371,378000,is-sold,Sold by private treaty 13 Feb 2023,20230213,9 Keats Circuit,ARMSTRONG CREEK,VIC,3217,-38.2399139,144.352859,,,,VacantLand,Vacant land,False,0,m2,False
2017880749,listing,/8-12-cleary-street-armstrong-creek-vic-3217-2017880749,880000,is-sold,Sold by private treaty 20 Jan 2023,20230120,8-12 Cleary Street,ARMSTRONG CREEK,VIC,3217,-38.2389,144.3561,4,3,2,House,House,False,644,m2,False
2017947730,listing,/13-parkfield-boulevard-charlemont-vic-3217-2017947730,585000,is-sold,Sold by private treaty 17 Jan 2023,20230117,13 Parkfield Boulevard,CHARLEMONT,VIC,3217,-38.2146759,144.36937,3,2,2,House,House,False,0,m2,False
2018009833,listing,/24-whitfords-drive-armstrong-creek-vic-3217-2018009833,630000,is-sold,Sold by private treaty 15 Jan 2023,20230115,24 Whitfords Drive,ARMSTRONG CREEK,VIC,3217,-38.2395325,144.363525,4,2,2,House,House,False,438,m2,False
2018084706,listing,/12-golden-wattle-drive-mount-duneed-vic-3217-2018084706,790000,is-sold,Sold by private treaty 25 Jan 2023,20230125,12 Golden Wattle Drive,MOUNT DUNEED,VIC,3217,-38.22578,144.329941,4,2,2,House,House,False,512,m2,False
2018084728,listing,/5-parkfield-boulevard-charlemont-vic-3217-2018084728,550000,is-sold,Sold by private treaty 27 Jan 2023,20230127,5 Parkfield Boulevard,CHARLEMONT,VIC,3217,-38.2147675,144.370392,3,2,2,House,House,False,0,m2,False
2018096000,listing,/16-coastside-drive-armstrong-creek-vic-3217-2018096000,,is-sold,Sold by private treaty 23 Jan 2023,20230123,16 Coastside Drive,ARMSTRONG CREEK,VIC,3217,-38.24187,144.33548,4,2,2,House,House,False,507,m2,False
2018121704,listing,/16-falcon-street-armstrong-creek-vic-3217-2018121704,597500,is-sold,Sold by private treaty 31 Jan 2023,20230131,16 Falcon Street,ARMSTRONG CREEK,VIC,3217,-38.2430534,144.3726,4,2,2,House,House,False,376,m2,False
2018128953,listing,/1-anvil-street-charlemont-vic-3217-2018128953,670000,is-sold,Sold by private treaty 17 Jan 2023,20230117,1 Anvil Street,CHARLEMONT,VIC,3217,-38.2130127,144.354889,4,2,2,House,House,False,366,m2,False
2018189279,listing,/129-carter-road-armstrong-creek-vic-3217-2018189279,500000,is-sold,Sold by private treaty 30 Jan 2023,20230130,129 Carter Road,ARMSTRONG CREEK,VIC,3217,-38.2321777,144.371643,2,2,1,Townhouse,Townhouse,False,0,m2,False
2018215372,listing,/34-baelish-drive-charlemont-vic-3217-2018215372,600000,is-sold,Sold by private treaty 21 Jan 2023,20230121,34 Baelish Drive,CHARLEMONT,VIC,3217,-38.2113876,144.3554,3,2,1,House,House,False,238,m2,False
2018215945,listing,/35-hillsborough-walk-charlemont-vic-3217-2018215945,550000,is-sold,Sold by private treaty 01 Feb 2023,20230201,35 Hillsborough Walk,CHARLEMONT,VIC,3217,-38.21393,144.369324,3,2,2,Townhouse,Townhouse,False,102,m2,False
2018232829,listing,/12-hudson-street-armstrong-creek-vic-3217-2018232829,655000,is-sold,Sold by private treaty 20 Jan 2023,20230120,12 Hudson Street,ARMSTRONG CREEK,VIC,3217,-38.24141,144.367157,3,2,2,House,House,False,409,m2,False
2018245730,listing,/2-teags-way-armstrong-creek-vic-3217-2018245730,635000,is-sold,Sold by private treaty 23 Jan 2023,20230123,2 Teags Way,ARMSTRONG CREEK,VIC,3217,-38.24145,144.341125,4,2,2,House,House,False,503,m2,False
2018275050,listing,/59-mcarthur-crescent-armstrong-creek-vic-3217-2018275050,675000,is-sold,Sold by private treaty 27 Jan 2023,20230127,59 Mcarthur Crescent,ARMSTRONG CREEK,VIC,3217,-38.2404938,144.379471,3,2,2,House,House,False,350,m2,False
2018283330,listing,/23-rotunno-drive-charlemont-vic-3217-2018283330,339000,is-sold,Sold by private treaty 24 Jan 2023,20230124,23 Rotunno Drive,CHARLEMONT,VIC,3217,-38.2133751,144.36409,,,,VacantLand,Vacant land,False,316,m2,False
2018285246,listing,/36-shipstern-street-armstrong-creek-vic-3217-2018285246,715000,is-sold,Sold by private treaty 18 Jan 2023,20230118,36 Shipstern street,ARMSTRONG CREEK,VIC,3217,-38.229023,144.365433,4,2,2,House,House,False,400,m2,False
2018285275,listing,/211-boundary-road-mount-duneed-vic-3217-2018285275,746000,is-sold,Sold by private treaty 18 Jan 2023,20230118,211 Boundary Road,MOUNT DUNEED,VIC,3217,-38.2179642,144.325058,4,2,2,House,House,False,0,m2,False
2018286436,listing,/18-worn-road-charlemont-vic-3217-2018286436,745000,is-sold,Sold by private treaty 15 Jan 2023,20230115,18 Worn Road,CHARLEMONT,VIC,3217,-38.21305,144.355835,4,2,2,House,House,False,507,m2,False
2018288664,listing,/12-otago-street-mount-duneed-vic-3217-2018288664,710000,is-sold,Sold by private treaty 31 Jan 2023,20230131,12 Otago Street,MOUNT DUNEED,VIC,3217,-38.23588,144.3279,4,2,2,House,House,False,400,m2,False
2018298904,listing,/28-dobell-street-mount-duneed-vic-3217-2018298904,842000,is-sold,Sold by private treaty 24 Jan 2023,20230124,28 Dobell Street,MOUNT DUNEED,VIC,3217,-38.23352,144.326111,4,2,2,House,House,False,447,m2,False
2017662351,listing,/lot-199-affogato-crescent-mount-duneed-vic-3217-2017662351,,is-sold,Sold by private treaty 13 Jan 2023,20230113,Lot 199 Affogato Crescent,MOUNT DUNEED,VIC,3217,-38.21823,144.32605,3,2,1,House,House,False,240,m2,False
2017964541,listing,/86-southwinds-road-armstrong-creek-vic-3217-2017964541,620000,is-sold,Sold by private treaty 22 Dec 2022,20221222,86 Southwinds Road,ARMSTRONG CREEK,VIC,3217,-38.2341728,144.371826,4,2,2,House,House,False,418,m2,False
2018034534,listing,/127-carter-road-armstrong-creek-vic-3217-2018034534,,is-sold,Sold by private treaty 30 Dec 2022,20221230,127 Carter Road,ARMSTRONG CREEK,VIC,3217,-38.2321777,144.371643,2,2,1,Townhouse,Townhouse,False,0,m2,False
2018038472,listing,/2195-warralily-boulevard-armstrong-creek-vic-3217-2018038472,860000,is-sold,Sold by private treaty 07 Jan 2023,20230107,2195 Warralily Boulevard,ARMSTRONG CREEK,VIC,3217,-38.24018,144.355774,4,2,2,House,House,False,509,m2,False
2018052622,listing,/18-rockingham-street-armstrong-creek-vic-3217-2018052622,669000,is-sold,Sold by private treaty 12 Jan 2023,20230112,18 Rockingham Street,ARMSTRONG CREEK,VIC,3217,-38.2418861,144.3626,4,2,2,House,House,False,447,m2,False
2018077795,listing,/33-pemberton-street-mount-duneed-vic-3217-2018077795,460000,is-sold,Sold by private treaty 13 Jan 2023,20230113,33 Pemberton Street,MOUNT DUNEED,VIC,3217,-38.21823,144.32605,,,,VacantLand,Vacant land,False,464,m2,False
2018124073,listing,/4-motion-drive-mount-duneed-vic-3217-2018124073,900000,is-sold,Sold by private treaty 02 Jan 2023,20230102,4 Motion Drive,MOUNT DUNEED,VIC,3217,-38.2165451,144.327011,4,2,3,House,House,False,576,m2,False
2018126812,listing,/48-ross-street-armstrong-creek-vic-3217-2018126812,702500,is-sold,Sold by private treaty 08 Jan 2023,20230108,48 Ross Street,ARMSTRONG CREEK,VIC,3217,-38.243557,144.34433,4,2,2,House,House,False,457,m2,False
2018168660,listing,/48-vaughan-drive-armstrong-creek-vic-3217-2018168660,665000,is-sold,Sold by private treaty 09 Jan 2023,20230109,48 Vaughan Drive,ARMSTRONG CREEK,VIC,3217,-38.23041,144.360046,4,2,2,House,House,False,400,m2,False
2018205261,listing,/46-prevelly-circuit-armstrong-creek-vic-3217-2018205261,740000,is-sold,Sold by private treaty 10 Jan 2023,20230110,46 Prevelly Circuit,ARMSTRONG CREEK,VIC,3217,-38.2425957,144.339844,4,2,2,House,House,False,512,m2,False
2018205275,listing,/18-everlasting-terrace-mount-duneed-vic-3217-2018205275,651100,is-sold,Sold by private treaty 04 Jan 2023,20230104,18 Everlasting Terrace,MOUNT DUNEED,VIC,3217,-38.2270279,144.330978,3,2,2,House,House,False,336,m2,False
2018205580,listing,/14-worn-road-charlemont-vic-3217-2018205580,777000,is-sold,Sold by private treaty 03 Jan 2023,20230103,14 Worn Road,CHARLEMONT,VIC,3217,-38.2131157,144.35643,4,2,2,House,House,False,525,m2,False
2018209980,listing,/9-beard-street-armstrong-creek-vic-3217-2018209980,595000,is-sold,Sold by private treaty 13 Jan 2023,20230113,9 Beard Street,ARMSTRONG CREEK,VIC,3217,-38.24264,144.364517,3,2,1,House,House,False,276,m2,False
2018219647,listing,/20-spirit-crescent-armstrong-creek-vic-3217-2018219647,660000,is-sold,Sold by private treaty 03 Jan 2023,20230103,20 Spirit Crescent,ARMSTRONG CREEK,VIC,3217,-38.2359734,144.347153,3,2,1,House,House,False,287,m2,False
2018228297,listing,/49-element-circuit-armstrong-creek-vic-3217-2018228297,660000,is-sold,Sold by private treaty 11 Jan 2023,20230111,49 Element Circuit,ARMSTRONG CREEK,VIC,3217,-38.2321434,144.348526,4,2,2,House,House,False,0,m2,False
2018244513,listing,/1-ackland-street-armstrong-creek-vic-3217-2018244513,615000,is-sold,Sold by private treaty 21 Dec 2022,20221221,1 Ackland Street,ARMSTRONG CREEK,VIC,3217,-38.2433548,144.3641,4,2,2,House,House,False,267,m2,False
2018251390,listing,/66-pearlrock-drive-mount-duneed-vic-3217-2018251390,347500,is-sold,Sold by private treaty 22 Dec 2022,20221222,66 Pearlrock Drive,MOUNT DUNEED,VIC,3217,-38.21823,144.32605,,,,VacantLand,Vacant land,False,0,m2,False
2018255178,listing,/16-simpson-circuit-armstrong-creek-vic-3217-2018255178,725000,is-sold,Sold by private treaty 09 Jan 2023,20230109,16 Simpson Circuit,ARMSTRONG CREEK,VIC,3217,-38.2418556,144.354553,4,2,2,House,House,False,448,m2,False
2018256623,listing,/13-swaine-street-armstrong-creek-vic-3217-2018256623,625000,is-sold,Sold by private treaty 22 Dec 2022,20221222,13 Swaine Street,ARMSTRONG CREEK,VIC,3217,-38.23173,144.361954,4,2,2,House,House,False,350,m2,False
2018285898,listing,/525-mt-duneed-road-freshwater-creek-vic-3217-2018285898,2500000,is-sold,Sold by private treaty 12 Jan 2023,20230112,525 Mt Duneed Road,FRESHWATER CREEK,VIC,3217,-38.2427139,144.272263,3,2,2,House,House,True,5.65,ha,False
2018020171,listing,/24-yellow-gum-way-mount-duneed-vic-3217-2018020171,382000,is-sold,Sold by private treaty 19 Dec 2022,20221219,24 Yellow Gum Way,MOUNT DUNEED,VIC,3217,-38.2155037,144.330215,,,,VacantLand,Vacant land,False,400,m2,False
2018035179,listing,/25-ross-street-armstrong-creek-vic-3217-2018035179,660000,is-sold,Sold by private treaty 15 Dec 2022,20221215,25 Ross Street,ARMSTRONG CREEK,VIC,3217,-38.2438164,144.346481,4,2,2,House,House,False,448,m2,False
2018057261,listing,/11-macedon-street-armstrong-creek-vic-3217-2018057261,597000,is-sold,Sold by private treaty 15 Dec 2022,20221215,11 Macedon Street,ARMSTRONG CREEK,VIC,3217,-38.225132,144.353271,4,2,1,House,House,False,0,m2,False
2018072527,listing,/15-sanderling-avenue-armstrong-creek-vic-3217-2018072527,600000,is-sold,Sold by private treaty 12 Dec 2022,20221212,15 Sanderling Avenue,ARMSTRONG CREEK,VIC,3217,-38.24158,144.37262,4,2,2,House,House,False,374,m2,False
2018075700,listing,/16-winton-street-charlemont-vic-3217-2018075700,580000,is-sold,Sold by private treaty 15 Dec 2022,20221215,16 Winton Street,CHARLEMONT,VIC,3217,-38.2096672,144.363953,3,2,2,House,House,False,349,m2,False
2018096601,listing,/14-alpina-avenue-mount-duneed-vic-3217-2018096601,710000,is-sold,Sold by private treaty 20 Dec 2022,20221220,14 Alpina Avenue,MOUNT DUNEED,VIC,3217,-38.2177162,144.333344,4,2,2,House,House,False,448,m2,False
2018103619,listing,/10-secluded-drive-armstrong-creek-vic-3217-2018103619,660000,is-sold,Sold by private treaty 14 Dec 2022,20221214,10 Secluded Drive,ARMSTRONG CREEK,VIC,3217,-38.2337646,144.3511,4,2,2,House,House,False,448,m2,False
2018153391,listing,/18-jacana-way-armstrong-creek-vic-3217-2018153391,586000,is-sold,Sold by private treaty 14 Dec 2022,20221214,18 Jacana Way,ARMSTRONG CREEK,VIC,3217,-38.2412834,144.372269,4,2,2,House,House,False,400,m2,False
2018167324,listing,/13a-kalkarra-crescent-mount-duneed-vic-3217-2018167324,,is-sold,Sold by private treaty 15 Dec 2022,20221215,13a Kalkarra Crescent,MOUNT DUNEED,VIC,3217,-38.25575,144.34404,4,2,6,AcreageSemiRural,Acreage / Semi-Rural,True,1.17,ha,False
2018172047,listing,/12-isle-avenue-armstrong-creek-vic-3217-2018172047,680000,is-sold,Sold by private treaty 09 Dec 2022,20221209,12 Isle Avenue,ARMSTRONG CREEK,VIC,3217,-38.24289,144.344833,3,2,2,House,House,False,0,m2,False
2018190024,listing,/16-gymea-street-mount-duneed-vic-3217-2018190024,330000,is-sold,Sold by private treaty 18 Dec 2022,20221218,16 Gymea Street,MOUNT DUNEED,VIC,3217,-38.21823,144.32605,,,,VacantLand,Vacant land,False,337,m2,False
2018205583,listing,/2205-warralily-boulevard-armstrong-creek-vic-3217-2018205583,900000,is-sold,Sold by private treaty 09 Dec 2022,20221209,2205 Warralily Boulevard,ARMSTRONG CREEK,VIC,3217,-38.24018,144.355774,4,2,2,House,House,False,510,m2,False
2018212648,listing,/37-coastside-drive-armstrong-creek-vic-3217-2018212648,820000,is-sold,Sold by private treaty 11 Dec 2022,20221211,37 Coastside Drive,ARMSTRONG CREEK,VIC,3217,-38.2415543,144.33728,4,2,2,House,House,False,400,m2,False
2018220706,listing,/15-caitlin-chase-armstrong-creek-vic-3217-2018220706,630000,is-sold,Sold by private treaty 13 Dec 2022,20221213,15 Caitlin Chase,ARMSTRONG CREEK,VIC,3217,-38.23723,144.374329,4,2,2,House,House,False,448,m2,False
2018227300,listing,/51-fawkner-crescent-armstrong-creek-vic-3217-2018227300,710000,is-sold,Sold by private treaty 18 Dec 2022,20221218,51 Fawkner Crescent,ARMSTRONG CREEK,VIC,3217,-38.2440376,144.381821,4,2,2,House,House,False,400,m2,False
2018232824,listing,/4-sandvue-street-armstrong-creek-vic-3217-2018232824,810000,is-sold,Sold by private treaty 13 Dec 2022,20221213,4 Sandvue Street,ARMSTRONG CREEK,VIC,3217,-38.23904,144.340256,4,2,2,House,House,False,512,m2,False
2018232836,listing,/20-whalley-road-armstrong-creek-vic-3217-2018232836,685000,is-sold,Sold by private treaty 14 Dec 2022,20221214,20 Whalley Road,ARMSTRONG CREEK,VIC,3217,-38.23756,144.372787,3,2,2,House,House,False,528,m2,False
2018236164,listing,/16-dogwood-street-mount-duneed-vic-3217-2018236164,890000,is-sold,Sold by private treaty 13 Dec 2022,20221213,16 Dogwood Street,MOUNT DUNEED,VIC,3217,-38.2210464,144.317276,4,2,2,House,House,False,553,m2,False
2018237614,listing,/16-esperance-avenue-armstrong-creek-vic-3217-2018237614,670000,is-sold,Sold by private treaty 15 Dec 2022,20221215,16 Esperance Avenue,ARMSTRONG CREEK,VIC,3217,-38.2407951,144.3541,3,2,2,House,House,False,375,m2,False
2018245725,listing,/9-winterfell-road-charlemont-vic-3217-2018245725,595000,is-sold,Sold by private treaty 15 Dec 2022,20221215,9 Winterfell Road,CHARLEMONT,VIC,3217,-38.2129555,144.362137,3,2,2,House,House,False,331,m2,False
2017929450,listing,/39-connect-way-mount-duneed-vic-3217-2017929450,622000,is-sold,Sold by private treaty 01 Dec 2022,20221201,39 Connect Way,MOUNT DUNEED,VIC,3217,-38.2172279,144.331177,4,2,2,House,House,False,0,m2,False
2017947728,listing,/7-connect-way-mount-duneed-vic-3217-2017947728,540000,is-sold,Sold by private treaty 09 Dec 2022,20221209,7 Connect Way,MOUNT DUNEED,VIC,3217,-38.21673,144.327011,2,2,1,House,House,False,0,m2,False
2017984429,listing,/7-winterfell-road-charlemont-vic-3217-2017984429,595000,is-sold,Sold by private treaty 08 Dec 2022,20221208,7 Winterfell Road,CHARLEMONT,VIC,3217,-38.21297,144.36203,3,2,2,House,House,False,263,m2,False
2018046874,listing,/7-derby-way-armstrong-creek-vic-3217-2018046874,365000,is-sold,Sold by private treaty 07 Dec 2022,20221207,7 Derby Way,ARMSTRONG CREEK,VIC,3217,-38.2399139,144.352859,,,,VacantLand,Vacant land,False,350,m2,False
2018050112,listing,/47-lillrose-drive-charlemont-vic-3217-2018050112,735000,is-sold,Sold by private treaty 02 Dec 2022,20221202,47 Lillrose Drive,CHARLEMONT,VIC,3217,-38.216362,144.3616,4,2,2,House,House,False,0,m2,False
2018096803,listing,/718-720-barwon-heads-road-armstrong-creek-vic-3217-2018096803,,is-sold,Sold by private treaty 08 Dec 2022,20221208,718-720 Barwon heads Road,ARMSTRONG CREEK,VIC,3217,-38.2267456,144.370544,3,1,,House,House,False,4886,m2,False
2018110821,listing,/34-swanburra-road-charlemont-vic-3217-2018110821,650000,is-sold,Sold by private treaty 05 Dec 2022,20221205,34 Swanburra Road,CHARLEMONT,VIC,3217,-38.21171,144.361938,3,2,2,House,House,False,421,m2,False
2018142024,listing,/2-whitecliff-way-armstrong-creek-vic-3217-2018142024,860000,is-sold,Sold by private treaty 04 Dec 2022,20221204,2 Whitecliff Way,ARMSTRONG CREEK,VIC,3217,-38.2347145,144.372391,5,3,2,House,House,False,535,m2,False
2018144650,listing,/24-cootamundra-drive-armstrong-creek-vic-3217-2018144650,625000,is-sold,Sold by private treaty 08 Dec 2022,20221208,24 Cootamundra Drive,ARMSTRONG CREEK,VIC,3217,-38.2236938,144.353455,3,2,2,House,House,False,336,m2,False
2018147618,listing,/4-bondi-st-armstrong-creek-vic-3217-2018147618,630000,is-sold,Sold by private treaty 08 Dec 2022,20221208,4 Bondi St,ARMSTRONG CREEK,VIC,3217,-38.2411079,144.342255,4,2,2,House,House,False,400,m2,False
2018148543,listing,/21-vaughan-drive-armstrong-creek-vic-3217-2018148543,567000,is-sold,Sold by private treaty 04 Dec 2022,20221204,21 Vaughan Drive,ARMSTRONG CREEK,VIC,3217,-38.2308121,144.363388,3,2,1,House,House,False,262,m2,False
2018167107,listing,/31-rutherford-grove-armstrong-creek-vic-3217-2018167107,650000,is-sold,Sold by private treaty 06 Dec 2022,20221206,31 Rutherford Grove,ARMSTRONG CREEK,VIC,3217,-38.24199,144.359161,4,2,2,House,House,False,448,m2,False
2018177758,listing,/20-albanel-street-armstrong-creek-vic-3217-2018177758,665000,is-sold,Sold by private treaty 06 Dec 2022,20221206,20 Albanel Street,ARMSTRONG CREEK,VIC,3217,-38.24567,144.3455,4,2,2,House,House,False,512,m2,False
2018194598,listing,/15-daintree-street-armstrong-creek-vic-3217-2018194598,310000,is-sold,Sold by private treaty 30 Nov 2022,20221130,15 Daintree Street,ARMSTRONG CREEK,VIC,3217,-38.2399139,144.352859,,,,VacantLand,Vacant land,False,0,m2,False
2018194638,listing,/26-28-wanderlust-drive-mount-duneed-vic-3217-2018194638,382000,is-sold,Sold by private treaty 07 Dec 2022,20221207,26 - 28 Wanderlust Drive,MOUNT DUNEED,VIC,3217,-38.21823,144.32605,,,,VacantLand,Vacant land,False,373,m2,False
2018219665,listing,/15-esperance-avenue-armstrong-creek-vic-3217-2018219665,760000,is-sold,Sold by private treaty 07 Dec 2022,20221207,15 Esperance Avenue,ARMSTRONG CREEK,VIC,3217,-38.2415543,144.354187,4,2,2,House,House,False,448,m2,False
2018219725,listing,/88-creekward-drive-armstrong-creek-vic-3217-2018219725,940000,is-sold,Sold by private treaty 07 Dec 2022,20221207,88 Creekward Drive,ARMSTRONG CREEK,VIC,3217,-38.2356033,144.366333,4,2,2,House,House,False,968,m2,False
2018227152,listing,/12-citrinus-street-mount-duneed-vic-3217-2018227152,355000,is-sold,Sold by private treaty 08 Dec 2022,20221208,12 Citrinus Street,MOUNT DUNEED,VIC,3217,-38.2175941,144.3342,,,,VacantLand,Vacant land,False,350,m2,False
2018235965,listing,/10-grevillea-drive-mount-duneed-vic-3217-2018235965,675000,is-sold,Sold by private treaty 05 Dec 2022,20221205,10 Grevillea Drive,MOUNT DUNEED,VIC,3217,-38.2183342,144.333969,3,2,2,House,House,False,309,m2,False
2018257309,listing,/8-connect-way-mount-duneed-vic-3217-2018257309,635000,is-sold,Sold by private treaty 07 Dec 2022,20221207,8 CONNECT WAY,MOUNT DUNEED,VIC,3217,-38.21673,144.327011,3,2,2,House,House,False,331,m2,False
2017662227,listing,/lot-196-affogato-crescent-mount-duneed-vic-3217-2017662227,,is-sold,Sold by private treaty 22 Nov 2022,20221122,Lot 196 Affogato Crescent,MOUNT DUNEED,VIC,3217,-38.21823,144.32605,3,2,1,House,House,False,240,m2,False
2017924458,listing,/18-vienet-avenue-armstrong-creek-vic-3217-2017924458,612500,is-sold,Sold by private treaty 20 Nov 2022,20221120,18 Vienet Avenue,ARMSTRONG CREEK,VIC,3217,-38.2312279,144.36055,3,2,2,House,House,False,262,m2,False
2017954847,listing,/3-silver-wattle-road-mount-duneed-vic-3217-2017954847,310000,is-sold,Sold by private treaty 29 Nov 2022,20221129,3 Silver Wattle Road,MOUNT DUNEED,VIC,3217,-38.2190628,144.331451,,,,VacantLand,Vacant land,False,263,m2,False
2017978532,listing,/24-hadley-street-charlemont-vic-3217-2017978532,680000,is-sold,Sold by private treaty 22 Nov 2022,20221122,24 Hadley Street,CHARLEMONT,VIC,3217,-38.21136,144.366714,4,2,2,House,House,False,480,m2,False
2017988210,listing,/54-owarra-boulevard-mount-duneed-vic-3217-2017988210,725000,is-sold,Sold by private treaty 29 Nov 2022,20221129,54 Owarra Boulevard,MOUNT DUNEED,VIC,3217,-38.22236,144.32283,4,2,2,House,House,False,400,m2,False
2018038399,listing,/80-coastside-drive-armstrong-creek-vic-3217-2018038399,645000,is-sold,Sold by private treaty 22 Nov 2022,20221122,80 Coastside Drive,ARMSTRONG CREEK,VIC,3217,-38.24231,144.341721,3,2,2,House,House,False,400,m2,False
2018100580,listing,/16-nacelle-street-mount-duneed-vic-3217-2018100580,730000,is-sold,Sold by private treaty 24 Nov 2022,20221124,16 Nacelle Street,MOUNT DUNEED,VIC,3217,-38.21634,144.323227,4,2,2,House,House,False,392,m2,False
2018110949,listing,/17-samwell-street-charlemont-vic-3217-2018110949,605000,is-sold,Sold by private treaty 18 Nov 2022,20221118,17 Samwell Street,CHARLEMONT,VIC,3217,-38.2166023,144.3598,3,2,2,House,House,False,262,m2,False
2018134584,listing,/25-manna-gum-drive-mount-duneed-vic-3217-2018134584,1117500,is-sold,Sold by private treaty 18 Nov 2022,20221118,25 Manna Gum Drive,MOUNT DUNEED,VIC,3217,-38.22604,144.3313,4,2,2,House,House,False,576,m2,False
2018138848,listing,/107-ambrosia-drive-armstrong-creek-vic-3217-2018138848,395000,is-sold,Sold by private treaty 28 Nov 2022,20221128,107 Ambrosia Drive,ARMSTRONG CREEK,VIC,3217,-38.2384377,144.357025,,,,VacantLand,Vacant land,False,408,m2,False
2018151516,listing,/30-rocky-point-road-armstrong-creek-vic-3217-2018151516,690000,is-sold,Sold by private treaty 24 Nov 2022,20221124,30 Rocky Point Road,ARMSTRONG CREEK,VIC,3217,-38.238205,144.338257,4,2,2,House,House,False,421,m2,False
2018153017,listing,/9-sampford-street-armstrong-creek-vic-3217-2018153017,395000,is-sold,Sold by private treaty 21 Nov 2022,20221121,9 Sampford Street,ARMSTRONG CREEK,VIC,3217,-37.9498138,145.048462,,,,VacantLand,Vacant land,False,399,m2,False
2018156597,listing,/8-southwinds-road-armstrong-creek-vic-3217-2018156597,770000,is-sold,Sold by private treaty 21 Nov 2022,20221121,8 Southwinds Road,ARMSTRONG CREEK,VIC,3217,-38.2370377,144.368027,4,2,2,House,House,False,460,m2,False
2018172887,listing,/39-bramley-avenue-charlemont-vic-3217-2018172887,730000,is-sold,Sold by private treaty 25 Nov 2022,20221125,39 Bramley Avenue,CHARLEMONT,VIC,3217,-38.21067,144.365265,4,2,2,House,House,False,507,m2,False
2018183589,listing,/22-remarkable-drive-mount-duneed-vic-3217-2018183589,730000,is-sold,Sold by private treaty 23 Nov 2022,20221123,22 Remarkable Drive,MOUNT DUNEED,VIC,3217,-38.22681,144.332214,3,2,2,House,House,False,448,m2,False
2018184465,listing,/3-winterfell-road-charlemont-vic-3217-2018184465,610000,is-sold,Sold by private treaty 18 Nov 2022,20221118,3 Winterfell Road,CHARLEMONT,VIC,3217,-38.21294,144.361725,3,2,2,House,House,False,262,m2,False
2018187772,listing,/16-shoalhaven-boulevard-mount-duneed-vic-3217-2018187772,875000,is-sold,Sold by private treaty 24 Nov 2022,20221124,16 Shoalhaven Boulevard,MOUNT DUNEED,VIC,3217,-38.2334023,144.324371,4,2,2,House,House,False,0,m2,False
2018188664,listing,/33-vaughan-drive-armstrong-creek-vic-3217-2018188664,640000,is-sold,Sold by private treaty 18 Nov 2022,20221118,33 Vaughan Drive,ARMSTRONG CREEK,VIC,3217,-38.23041,144.360046,3,2,2,House,House,False,333,m2,False
2018198239,listing,/6-trent-crescent-charlemont-vic-3217-2018198239,550000,is-sold,Sold by private treaty 22 Nov 2022,20221122,6 Trent Crescent,CHARLEMONT,VIC,3217,-38.2125626,144.3646,3,2,2,House,House,False,238,m2,False
2018205458,listing,/30-canary-drive-armstrong-creek-vic-3217-2018205458,675000,is-sold,Sold by private treaty 26 Nov 2022,20221126,30 Canary Drive,ARMSTRONG CREEK,VIC,3217,-38.2291,144.366531,4,2,2,House,House,False,350,m2,False
2017662253,listing,/lot-197-affogato-crescent-mount-duneed-vic-3217-2017662253,,is-sold,Sold by private treaty 08 Nov 2022,20221108,Lot 197 Affogato Crescent,MOUNT DUNEED,VIC,3217,-38.21823,144.32605,3,2,1,House,House,False,240,m2,False
2017682308,listing,/28-restful-way-armstrong-creek-vic-3217-2017682308,670000,is-sold,Sold by private treaty 07 Nov 2022,20221107,28 Restful Way,ARMSTRONG CREEK,VIC,3217,-38.2352676,144.3476,4,2,2,House,House,False,448,m2,False
2017861839,listing,/3-restful-way-armstrong-creek-vic-3217-2017861839,770000,is-sold,Sold by private treaty 11 Nov 2022,20221111,3 Restful Way,ARMSTRONG CREEK,VIC,3217,-38.2339973,144.348373,4,2,2,House,House,False,478,m2,False
2017868727,listing,/14-cootamundra-drive-armstrong-creek-vic-3217-2017868727,820000,is-sold,Sold by private treaty 08 Nov 2022,20221108,14 Cootamundra Drive,ARMSTRONG CREEK,VIC,3217,-38.2235565,144.352264,4,2,2,House,House,False,512,m2,False
2017869751,listing,/21-23-pascal-crescent-mount-duneed-vic-3217-2017869751,1330000,is-sold,Sold by private treaty 07 Nov 2022,20221107,21-23 Pascal Crescent,MOUNT DUNEED,VIC,3217,-38.22141,144.319122,5,2,2,House,House,False,1267,m2,False
2017888404,listing,/22-shearwater-drive-armstrong-creek-vic-3217-2017888404,625000,is-sold,Sold by private treaty 17 Nov 2022,20221117,22 Shearwater Drive,ARMSTRONG CREEK,VIC,3217,-38.2405777,144.374146,4,2,2,House,House,False,400,m2,False
2017920194,listing,/55-noosa-circuit-armstrong-creek-vic-3217-2017920194,657500,is-sold,Sold by private treaty 09 Nov 2022,20221109,55 Noosa Circuit,ARMSTRONG CREEK,VIC,3217,-38.2382355,144.336411,4,2,2,House,House,False,400,m2,False
2017966085,listing,/65-grevillea-drive-mount-duneed-vic-3217-2017966085,670000,is-sold,Sold by private treaty 17 Nov 2022,20221117,65 Grevillea Drive,MOUNT DUNEED,VIC,3217,-38.2180862,144.332169,4,2,2,House,House,False,400,m2,False
2017968992,listing,/16-bentons-way-armstrong-creek-vic-3217-2017968992,615000,is-sold,Sold by private treaty 12 Nov 2022,20221112,16 Bentons Way,ARMSTRONG CREEK,VIC,3217,-38.2399139,144.352859,3,2,2,House,House,False,274,m2,False
2018050585,listing,/3-majella-street-mount-duneed-vic-3217-2018050585,670000,is-sold,Sold by private treaty 18 Nov 2022,20221118,3 Majella Street,MOUNT DUNEED,VIC,3217,-38.23446,144.326736,4,2,2,House,House,False,464,m2,False
2018052921,listing,/4-trundle-drive-armstrong-creek-vic-3217-2018052921,650000,is-sold,Sold by private treaty 09 Nov 2022,20221109,4 Trundle Drive,ARMSTRONG CREEK,VIC,3217,-38.2232666,144.351166,4,2,2,House,House,False,359,m2,False
2018054774,listing,/18-cloudbreak-street-armstrong-creek-vic-3217-2018054774,665000,is-sold,Sold by private treaty 14 Nov 2022,20221114,18 Cloudbreak Street,ARMSTRONG CREEK,VIC,3217,-38.2406273,144.3414,3,2,2,House,House,False,336,m2,False
2018096599,listing,/9-coquille-way-armstrong-creek-vic-3217-2018096599,635000,is-sold,Sold by private treaty 08 Nov 2022,20221108,9 Coquille Way,ARMSTRONG CREEK,VIC,3217,-38.2399139,144.352859,3,2,2,House,House,False,287,m2,False
2018127277,listing,/20-sandor-terrace-charlemont-vic-3217-2018127277,850000,is-sold,Sold by private treaty 15 Nov 2022,20221115,20 Sandor Terrace,CHARLEMONT,VIC,3217,-38.2128067,144.362061,4,2,2,House,House,False,640,m2,False
2018157011,listing,/23-celadon-parade-mount-duneed-vic-3217-2018157011,995000,is-sold,Sold by private treaty 15 Nov 2022,20221115,23 Celadon Parade,MOUNT DUNEED,VIC,3217,-38.2198372,144.321182,4,2,2,House,House,False,544,m2,False
2018165760,listing,/8-10-settler-place-armstrong-creek-vic-3217-2018165760,656500,is-sold,Sold by private treaty 07 Nov 2022,20221107,8-10 Settler Place,ARMSTRONG CREEK,VIC,3217,-38.2349548,144.368332,4,2,2,House,House,False,461,m2,False
2018168971,listing,/18-cabane-circuit-mount-duneed-vic-3217-2018168971,770000,is-sold,Sold by private treaty 12 Nov 2022,20221112,18 Cabane Circuit,MOUNT DUNEED,VIC,3217,-38.2220573,144.3212,4,2,2,House,House,False,459,m2,False
2018172902,listing,/37-hedge-street-armstrong-creek-vic-3217-2018172902,685000,is-sold,Sold by private treaty 14 Nov 2022,20221114,37 Hedge Street,ARMSTRONG CREEK,VIC,3217,-38.2359161,144.350677,4,2,2,House,House,False,0,m2,False
2018177061,listing,/10-tywin-street-charlemont-vic-3217-2018177061,636000,is-sold,Sold by private treaty 09 Nov 2022,20221109,10 Tywin Street,CHARLEMONT,VIC,3217,-38.2118378,144.3577,3,2,2,House,House,False,376,m2,False
2018194647,listing,/39-vasse-circuit-mount-duneed-vic-3217-2018194647,406000,is-sold,Sold by private treaty 15 Nov 2022,20221115,39 Vasse Circuit,MOUNT DUNEED,VIC,3217,-38.21823,144.32605,,,,VacantLand,Vacant land,False,0,m2,False
2017809099,listing,/2193-warralily-boulevard-armstrong-creek-vic-3217-2017809099,734000,is-sold,Sold by private treaty 28 Oct 2022,20221028,2193 Warralily Boulevard,ARMSTRONG CREEK,VIC,3217,-38.2390556,144.342163,4,2,2,House,House,False,503,m2,False
2017835213,listing,/322-boundary-road-mount-duneed-vic-3217-2017835213,730000,is-sold,Sold by private treaty 07 Nov 2022,20221107,322 Boundary Road,MOUNT DUNEED,VIC,3217,-38.21956,144.337585,4,2,2,House,House,False,396,m2,False
2017868221,listing,/9-cardamon-street-armstrong-creek-vic-3217-2017868221,690000,is-sold,Sold by private treaty 28 Oct 2022,20221028,9 Cardamon Street,ARMSTRONG CREEK,VIC,3217,-38.2271271,144.369141,4,2,2,House,House,False,392,m2,False
2017890132,listing,/11-serenity-street-armstrong-creek-vic-3217-2017890132,340000,is-sold,Sold by private treaty 27 Oct 2022,20221027,11 Serenity Street,ARMSTRONG CREEK,VIC,3217,-38.2399139,144.352859,,,,VacantLand,Vacant land,False,294,m2,False
2017917399,listing,/17-ambient-street-mount-duneed-vic-3217-2017917399,420000,is-sold,Sold by private treaty 04 Nov 2022,20221104,17 Ambient Street,MOUNT DUNEED,VIC,3217,-38.21823,144.32605,,,,VacantLand,Vacant land,False,400,m2,False
2017987550,listing,/95-robinson-street-armstrong-creek-vic-3217-2017987550,750000,is-sold,Sold by private treaty 31 Oct 2022,20221031,95 Robinson Street,ARMSTRONG CREEK,VIC,3217,-38.2399139,144.352859,4,2,2,House,House,False,0,m2,False
2018007670,listing,/74-sovereign-drive-mount-duneed-vic-3217-2018007670,640000,is-sold,Sold by private treaty 21 Oct 2022,20221021,74 Sovereign Drive,MOUNT DUNEED,VIC,3217,-38.2200966,144.326065,3,2,2,House,House,False,0,m2,False
2018020971,listing,/48-sanctuary-boulevard-armstrong-creek-vic-3217-2018020971,665000,is-sold,Sold by private treaty 04 Nov 2022,20221104,48 Sanctuary Boulevard,ARMSTRONG CREEK,VIC,3217,-38.2349243,144.348969,4,2,2,House,House,False,504,m2,False
2018041824,listing,/10-everlasting-terrace-mount-duneed-vic-3217-2018041824,700000,is-sold,Sold by private treaty 22 Oct 2022,20221022,10 Everlasting Terrace,MOUNT DUNEED,VIC,3217,-38.2274475,144.330933,4,2,2,House,House,False,400,m2,False
2018049205,listing,/28-precinct-road-charlemont-vic-3217-2018049205,600000,is-sold,Sold by private treaty 31 Oct 2022,20221031,28 Precinct Road,CHARLEMONT,VIC,3217,-38.214016,144.365952,3,2,2,House,House,False,306,m2,False
2018067737,listing,/20-simpson-circuit-armstrong-creek-vic-3217-2018067737,860000,is-sold,Sold by private treaty 27 Oct 2022,20221027,20 Simpson Circuit,ARMSTRONG CREEK,VIC,3217,-38.24189,144.354828,4,2,2,House,House,False,448,m2,False
2018092775,listing,/70-precinct-road-charlemont-vic-3217-2018092775,615000,is-sold,Sold by private treaty 28 Oct 2022,20221028,70 Precinct Road,CHARLEMONT,VIC,3217,-38.21358,144.36232,3,2,2,House,House,False,294,m2,False
2018116548,listing,/13-everton-crescent-charlemont-vic-3217-2018116548,640000,is-sold,Sold by private treaty 25 Oct 2022,20221025,13 Everton Crescent,CHARLEMONT,VIC,3217,-38.20882,144.36441,3,2,2,House,House,False,335,m2,False
2018118201,listing,/28-holbrook-drive-armstrong-creek-vic-3217-2018118201,808000,is-sold,Sold by private treaty 26 Oct 2022,20221026,28 Holbrook Drive,ARMSTRONG CREEK,VIC,3217,-38.22569,144.351913,4,2,2,House,House,False,0,m2,False
2018119607,listing,/7-barbra-drive-charlemont-vic-3217-2018119607,865000,is-sold,Sold by private treaty 26 Oct 2022,20221026,7 Barbra Drive,CHARLEMONT,VIC,3217,-38.2139,144.354355,4,2,2,House,House,False,0,m2,False
2018126328,listing,/15-atherton-street-armstrong-creek-vic-3217-2018126328,690000,is-sold,Sold by private treaty 04 Nov 2022,20221104,15 Atherton Street,ARMSTRONG CREEK,VIC,3217,-38.242157,144.379913,4,2,2,House,House,False,448,m2,False
2018136508,listing,/5-metar-place-mount-duneed-vic-3217-2018136508,735000,is-sold,Sold by private treaty 25 Oct 2022,20221025,5 Metar Place,MOUNT DUNEED,VIC,3217,-38.2209854,144.3235,4,2,2,House,House,False,392,m2,False
2018142204,listing,/20-everlasting-terrace-mount-duneed-vic-3217-2018142204,678000,is-sold,Sold by private treaty 03 Nov 2022,20221103,20 Everlasting Terrace,MOUNT DUNEED,VIC,3217,-38.2269135,144.33107,3,2,2,House,House,False,0,m2,False
2018142949,listing,/30-naturaliste-way-armstrong-creek-vic-3217-2018142949,919000,is-sold,Sold by private treaty 27 Oct 2022,20221027,30 Naturaliste Way,ARMSTRONG CREEK,VIC,3217,-38.2409325,144.377335,4,2,2,House,House,False,512,m2,False
2018146460,listing,/58-owarra-boulevard-mount-duneed-vic-3217-2018146460,1150000,is-sold,Sold by private treaty 02 Nov 2022,20221102,58 Owarra Boulevard,MOUNT DUNEED,VIC,3217,-38.22236,144.32283,5,3,2,House,House,False,448,m2,False
2017817972,listing,/17-havant-circuit-charlemont-vic-3217-2017817972,710000,is-sold,Sold by private treaty 14 Oct 2022,20221014,17 Havant Circuit,CHARLEMONT,VIC,3217,-38.2130966,144.365692,4,2,2,House,House,False,0,m2,False
2017838168,listing,/1438-holley-crescent-armstrong-creek-vic-3217-2017838168,,is-sold,Sold by private treaty 14 Oct 2022,20221014,1438 Holley Crescent,ARMSTRONG CREEK,VIC,3217,-38.2399139,144.352859,,,,VacantLand,Vacant land,False,263,m2,False
2017897436,listing,/14-stein-avenue-armstrong-creek-vic-3217-2017897436,640000,is-sold,Sold by private treaty 10 Oct 2022,20221010,14 Stein Avenue,ARMSTRONG CREEK,VIC,3217,-38.2410545,144.339523,3,2,1,House,House,False,310,m2,False
2017947729,listing,/15-flourish-drive-mount-duneed-vic-3217-2017947729,750000,is-sold,Sold by private treaty 09 Oct 2022,20221009,15 Flourish Drive,MOUNT DUNEED,VIC,3217,-38.2208328,144.3219,4,2,2,House,House,False,448,m2,False
2017955399,listing,/14-thrive-avenue-mount-duneed-vic-3217-2017955399,820000,is-sold,Sold by private treaty 09 Oct 2022,20221009,14 Thrive Avenue,MOUNT DUNEED,VIC,3217,-38.2191734,144.3205,4,2,2,House,House,False,462,m2,False
2017986998,listing,/7-naughtin-circuit-charlemont-vic-3217-2017986998,588000,is-sold,Sold by private treaty 18 Oct 2022,20221018,7 Naughtin Circuit,CHARLEMONT,VIC,3217,-38.21164,144.365891,3,2,1,House,House,False,238,m2,False
2018029786,listing,/22-rockingham-street-armstrong-creek-vic-3217-2018029786,800000,is-sold,Sold by private treaty 07 Oct 2022,20221007,22 Rockingham Street,ARMSTRONG CREEK,VIC,3217,-38.2418861,144.3626,4,2,2,House,House,False,447,m2,False
2018039521,listing,/33-aviation-drive-mount-duneed-vic-3217-2018039521,820000,is-sold,Sold by private treaty 15 Oct 2022,20221015,33 Aviation Drive,MOUNT DUNEED,VIC,3217,-38.2222939,144.33313,3,2,2,House,House,False,511,m2,False
2018040565,listing,/30-barleycorn-bend-armstrong-creek-vic-3217-2018040565,677500,is-sold,Sold by private treaty 11 Oct 2022,20221011,30 Barleycorn Bend,ARMSTRONG CREEK,VIC,3217,-38.2351,144.37323,4,2,2,House,House,False,402,m2,False
2018044275,listing,/46-vaughan-drive-armstrong-creek-vic-3217-2018044275,710000,is-sold,Sold by private treaty 09 Oct 2022,20221009,46 Vaughan Drive,ARMSTRONG CREEK,VIC,3217,-38.23041,144.360046,3,2,2,House,House,False,448,m2,False
2018067528,listing,/11-bridgewater-circuit-armstrong-creek-vic-3217-2018067528,810000,is-sold,Sold by private treaty 18 Oct 2022,20221018,11 Bridgewater Circuit,ARMSTRONG CREEK,VIC,3217,-38.2372437,144.37146,4,2,2,House,House,False,589,m2,False
2018070240,listing,/49-fawkner-crescent-armstrong-creek-vic-3217-2018070240,719000,is-sold,Sold by private treaty 13 Oct 2022,20221013,49 Fawkner Crescent,ARMSTRONG CREEK,VIC,3217,-38.243145,144.382111,4,2,2,House,House,False,400,m2,False
2018076021,listing,/62-unity-drive-mount-duneed-vic-3217-2018076021,740000,is-sold,Sold by private treaty 11 Oct 2022,20221011,62 Unity Drive,MOUNT DUNEED,VIC,3217,-38.2249832,144.329269,4,2,2,House,House,False,431,m2,False
2018078947,listing,/68-abode-street-armstrong-creek-vic-3217-2018078947,656000,is-sold,Sold by private treaty 18 Oct 2022,20221018,68 Abode Street,ARMSTRONG CREEK,VIC,3217,-38.23484,144.346848,4,2,2,House,House,False,366,m2,False
2018091492,listing,/6-cabane-circuit-mount-duneed-vic-3217-2018091492,1000000,is-sold,Sold by private treaty 17 Oct 2022,20221017,6 Cabane Circuit,MOUNT DUNEED,VIC,3217,-38.2220573,144.3212,4,2,2,House,House,False,587,m2,False
2018096582,listing,/332-charlemont-road-armstrong-creek-vic-3217-2018096582,655000,is-sold,Sold by private treaty 15 Oct 2022,20221015,332 Charlemont Road,ARMSTRONG CREEK,VIC,3217,-38.2419968,144.371,3,2,2,House,House,False,400,m2,False
2018096610,listing,/155-warralily-boulevard-armstrong-creek-vic-3217-2018096610,840000,is-sold,Sold by private treaty 18 Oct 2022,20221018,155 Warralily Boulevard,ARMSTRONG CREEK,VIC,3217,-38.2413063,144.365982,4,2,2,House,House,False,569,m2,False
2018098355,listing,/13-altitude-street-mount-duneed-vic-3217-2018098355,715000,is-sold,Sold by private treaty 08 Oct 2022,20221008,13 Altitude Street,MOUNT DUNEED,VIC,3217,-38.2162323,144.328033,3,2,2,House,House,False,448,m2,False
2018115317,listing,/178-unity-drive-mount-duneed-vic-3217-2018115317,,is-sold,Sold by private treaty 21 Oct 2022,20221021,178 Unity Drive,MOUNT DUNEED,VIC,3217,-38.2258949,144.322952,5,2,2,House,House,False,400,m2,False
2018212040,listing,/charlemont-vic-3217-2018212040,,is-sold,Sold by private treaty 10 Oct 2022,20221010,,CHARLEMONT,VIC,3217,-38.2207832,144.368622,,,,VacantLand,Vacant land,False,0,m2,False
2017667535,listing,/76-sovereign-drive-mount-duneed-vic-3217-2017667535,730000,is-sold,Sold by private treaty 29 Sep 2022,20220929,76 Sovereign Drive,MOUNT DUNEED,VIC,3217,-38.2200966,144.326065,3,2,1,House,House,False,0,m2,False
2017801606,listing,/15-everton-crescent-charlemont-vic-3217-2017801606,675000,is-sold,Sold by private treaty 27 Sep 2022,20220927,15 Everton Crescent,CHARLEMONT,VIC,3217,-38.2087746,144.364288,3,2,2,House,House,False,400,m2,False
2017821185,listing,/29-owarra-boulevard-mount-duneed-vic-3217-2017821185,935000,is-sold,Sold by private treaty 29 Sep 2022,20220929,29 Owarra Boulevard,MOUNT DUNEED,VIC,3217,-38.2208,144.32251,4,2,2,House,House,False,505,m2,False
2017835215,listing,/324-boundary-road-mount-duneed-vic-3217-2017835215,740000,is-sold,Sold by private treaty 30 Sep 2022,20220930,324 Boundary Road,MOUNT DUNEED,VIC,3217,-38.21956,144.337585,4,2,2,House,House,False,396,m2,False
2017891718,listing,/5-mcarthur-crescent-armstrong-creek-vic-3217-2017891718,655000,is-sold,Sold by private treaty 30 Sep 2022,20220930,5 McArthur Crescent,ARMSTRONG CREEK,VIC,3217,-38.24102,144.378983,4,2,2,House,House,False,0,m2,False
2017896884,listing,/6-vienet-avenue-armstrong-creek-vic-3217-2017896884,650000,is-sold,Sold by private treaty 20 Sep 2022,20220920,6 Vienet Avenue,ARMSTRONG CREEK,VIC,3217,-38.2305832,144.360016,3,2,2,House,House,False,0,m2,False
2017931516,listing,/29-shipstern-street-armstrong-creek-vic-3217-2017931516,408000,is-sold,Sold by private treaty 03 Oct 2022,20221003,29 Shipstern Street,ARMSTRONG CREEK,VIC,3217,-38.2399139,144.352859,,,,VacantLand,Vacant land,False,400,m2,False
2017963600,listing,/49-raleigh-circuit-armstrong-creek-vic-3217-2017963600,815000,is-sold,Sold by private treaty 21 Sep 2022,20220921,49 Raleigh Circuit,ARMSTRONG CREEK,VIC,3217,-38.2245369,144.348434,4,2,2,House,House,False,448,m2,False
2017976210,listing,/19-ambient-street-mount-duneed-vic-3217-2017976210,427000,is-sold,Sold by private treaty 26 Sep 2022,20220926,19 Ambient Street,MOUNT DUNEED,VIC,3217,-38.21823,144.32605,,,,VacantLand,Vacant land,False,400,m2,False
2017989800,listing,/35-everton-crescent-charlemont-vic-3217-2017989800,617000,is-sold,Sold by private treaty 20 Sep 2022,20220920,35 Everton Crescent,CHARLEMONT,VIC,3217,-38.2097168,144.36377,4,2,1,House,House,False,300,m2,False
2017992732,listing,/48-cabane-circuit-mount-duneed-vic-3217-2017992732,715000,is-sold,Sold by private treaty 21 Sep 2022,20220921,48 Cabane Circuit,MOUNT DUNEED,VIC,3217,-38.2220573,144.3212,4,2,2,House,House,False,400,m2,False
2018004258,listing,/7-crystall-place-armstrong-creek-vic-3217-2018004258,650000,is-sold,Sold by private treaty 28 Sep 2022,20220928,7 Crystall Place,ARMSTRONG CREEK,VIC,3217,-38.24037,144.370911,4,2,1,House,House,False,319,m2,False
2018036855,listing,/59-element-circuit-armstrong-creek-vic-3217-2018036855,690000,is-sold,Sold by private treaty 04 Oct 2022,20221004,59 Element Circuit,ARMSTRONG CREEK,VIC,3217,-38.2327423,144.347641,4,2,2,House,House,False,400,m2,False
2018051579,listing,/115-coastside-drive-armstrong-creek-vic-3217-2018051579,742500,is-sold,Sold by private treaty 04 Oct 2022,20221004,115 Coastside Drive,ARMSTRONG CREEK,VIC,3217,-38.24204,144.345032,4,2,2,House,House,False,400,m2,False
2018060509,listing,/19-rocky-point-road-armstrong-creek-vic-3217-2018060509,710000,is-sold,Sold by private treaty 21 Sep 2022,20220921,19 Rocky Point Road,ARMSTRONG CREEK,VIC,3217,-38.23843,144.337677,4,2,2,House,House,False,400,m2,False
2018062463,listing,/12-oakdale-street-charlemont-vic-3217-2018062463,575500,is-sold,Sold at auction 05 Oct 2022,20221005,12 oakdale street,CHARLEMONT,VIC,3217,-38.2147942,144.3659,4,2,2,House,House,False,350,m2,False
2018067541,listing,/28-baelish-drive-charlemont-vic-3217-2018067541,625000,is-sold,Sold by private treaty 20 Sep 2022,20220920,28 Baelish Drive,CHARLEMONT,VIC,3217,-38.21142,144.355637,3,2,1,House,House,False,238,m2,False
2018067668,listing,/29-orland-circuit-charlemont-vic-3217-2018067668,615000,is-sold,Sold by private treaty 01 Oct 2022,20221001,29 Orland Circuit,CHARLEMONT,VIC,3217,-38.2135429,144.369461,3,2,2,House,House,False,275,m2,False
2018098863,listing,/5-neon-avenue-mount-duneed-vic-3217-2018098863,710000,is-sold,Sold by private treaty 05 Oct 2022,20221005,5 Neon Avenue,MOUNT DUNEED,VIC,3217,-38.22437,144.322021,3,2,2,House,House,False,350,m2,False
2018198304,listing,/3-rainford-place-armstrong-creek-vic-3217-2018198304,680000,is-sold,Sold by private treaty 27 Sep 2022,20220927,3 Rainford Place,ARMSTRONG CREEK,VIC,3217,-38.2421875,144.335938,,,,House,House,False,0,m2,False
2017749723,listing,/50-cardamon-street-armstrong-creek-vic-3217-2017749723,415000,is-sold,Sold by private treaty 13 Sep 2022,20220913,50 Cardamon Street,ARMSTRONG CREEK,VIC,3217,-38.2271957,144.368149,,,,VacantLand,Vacant land,False,474,m2,False
2017838821,listing,/28-corella-road-armstrong-creek-vic-3217-2017838821,655000,is-sold,Sold by private treaty 16 Sep 2022,20220916,28 Corella Road,ARMSTRONG CREEK,VIC,3217,-38.24228,144.371857,4,2,2,House,House,False,0,m2,False
2017845614,listing,/8-swaine-street-armstrong-creek-vic-3217-2017845614,740000,is-sold,Sold by private treaty 19 Sep 2022,20220919,8 Swaine Street,ARMSTRONG CREEK,VIC,3217,-38.2313042,144.3623,4,2,2,House,House,False,475,m2,False
2017919287,listing,/53-ambrosia-drive-armstrong-creek-vic-3217-2017919287,825000,is-sold,Sold by private treaty 14 Sep 2022,20220914,53 Ambrosia Drive,ARMSTRONG CREEK,VIC,3217,-38.2383766,144.364151,4,2,2,House,House,False,0,m2,False
2017930040,listing,/11-hutton-close-armstrong-creek-vic-3217-2017930040,707500,is-sold,Sold by private treaty 13 Sep 2022,20220913,11 Hutton Close,ARMSTRONG CREEK,VIC,3217,-38.24018,144.363312,3,2,2,House,House,False,0,m2,False
2017934559,listing,/16-limestone-street-charlemont-vic-3217-2017934559,600000,is-sold,Sold by private treaty 18 Sep 2022,20220918,16 Limestone Street,CHARLEMONT,VIC,3217,-38.2118034,144.369812,3,2,2,House,House,False,275,m2,False
2017946314,listing,/165-boundary-road-mount-duneed-vic-3217-2017946314,710000,is-sold,Sold by private treaty 20 Sep 2022,20220920,165 Boundary Road,MOUNT DUNEED,VIC,3217,-38.2173157,144.320419,4,2,2,House,House,False,374,m2,False
2017947983,listing,/22-rainford-place-armstrong-creek-vic-3217-2017947983,768000,is-sold,Sold by private treaty 13 Sep 2022,20220913,22 Rainford Place,ARMSTRONG CREEK,VIC,3217,-38.24269,144.337173,4,2,2,House,House,False,425,m2,False
2017953180,listing,/24-aspect-road-mount-duneed-vic-3217-2017953180,690000,is-sold,Sold by private treaty 12 Sep 2022,20220912,24 Aspect Road,MOUNT DUNEED,VIC,3217,-38.2243271,144.323761,3,2,2,House,House,False,382,m2,False
2017966981,listing,/23-beard-street-armstrong-creek-vic-3217-2017966981,410000,is-sold,Sold by private treaty 14 Sep 2022,20220914,23 Beard Street,ARMSTRONG CREEK,VIC,3217,-38.24264,144.364517,,,,VacantLand,Vacant land,False,433,m2,False
2017974524,listing,/12-glider-street-mount-duneed-vic-3217-2017974524,710000,is-sold,Sold by private treaty 09 Sep 2022,20220909,12 Glider Street,MOUNT DUNEED,VIC,3217,-38.2202,144.333755,4,2,2,House,House,False,448,m2,False
2017987982,listing,/9-lampard-street-armstrong-creek-vic-3217-2017987982,680000,is-sold,Sold by private treaty 12 Sep 2022,20220912,9 Lampard Street,ARMSTRONG CREEK,VIC,3217,-38.24055,144.335236,3,2,2,House,House,False,504,m2,False
2018011275,listing,/91-robinson-street-armstrong-creek-vic-3217-2018011275,755000,is-sold,Sold by private treaty 11 Sep 2022,20220911,91 Robinson Street,ARMSTRONG CREEK,VIC,3217,-38.2399139,144.352859,4,2,2,House,House,False,350,m2,False
2018015615,listing,/10-concorde-street-mount-duneed-vic-3217-2018015615,670000,is-sold,Sold by private treaty 15 Sep 2022,20220915,10 Concorde Street,MOUNT DUNEED,VIC,3217,-38.22318,144.334976,4,2,2,House,House,False,349,m2,False
2018034333,listing,/33-stephenson-drive-armstrong-creek-vic-3217-2018034333,865000,is-sold,Sold by private treaty 17 Sep 2022,20220917,33 Stephenson Drive,ARMSTRONG CREEK,VIC,3217,-38.23214,144.360184,4,2,2,House,House,False,0,m2,False
2018038811,listing,/7-forresters-way-armstrong-creek-vic-3217-2018038811,845000,is-sold,Sold by private treaty 09 Sep 2022,20220909,7 Forresters Way,ARMSTRONG CREEK,VIC,3217,-38.2432976,144.366028,4,2,3,House,House,False,512,m2,False
2018040546,listing,/15-elouera-street-armstrong-creek-vic-3217-2018040546,820000,is-sold,Sold by private treaty 15 Sep 2022,20220915,15 Elouera Street,ARMSTRONG CREEK,VIC,3217,-38.23495,144.335922,4,2,2,House,House,False,450,m2,False
2018048713,listing,/12-efficient-avenue-mount-duneed-vic-3217-2018048713,750000,is-sold,Sold by private treaty 19 Sep 2022,20220919,12 Efficient Avenue,MOUNT DUNEED,VIC,3217,-38.2160759,144.32901,4,2,3,House,House,False,504,m2,False
2018053115,listing,/10-stein-avenue-armstrong-creek-vic-3217-2018053115,635000,is-sold,Sold by private treaty 17 Sep 2022,20220917,10 Stein Avenue,ARMSTRONG CREEK,VIC,3217,-38.24124,144.339386,3,2,1,House,House,False,310,m2,False
2018070965,listing,/32-vasse-circuit-mount-duneed-vic-3217-2018070965,352500,is-sold,Sold by private treaty 15 Sep 2022,20220915,32 Vasse Circuit,MOUNT DUNEED,VIC,3217,-38.21823,144.32605,,,,VacantLand,Vacant land,False,0,m2,False
2017730298,listing,/20-rochford-drive-armstrong-creek-vic-3217-2017730298,670000,is-sold,Sold by private treaty 27 Aug 2022,20220827,20 Rochford Drive,ARMSTRONG CREEK,VIC,3217,-38.239193,144.367111,4,2,2,House,House,False,400,m2,False
2017833877,listing,/45-grevillea-drive-mount-duneed-vic-3217-2017833877,650000,is-sold,Sold by private treaty 02 Sep 2022,20220902,45 Grevillea Drive,MOUNT DUNEED,VIC,3217,-38.2182,144.333008,4,2,2,House,House,False,375,m2,False
2017871082,listing,/49-sanctuary-boulevard-armstrong-creek-vic-3217-2017871082,825000,is-sold,Sold by private treaty 05 Sep 2022,20220905,49 Sanctuary Boulevard,ARMSTRONG CREEK,VIC,3217,-38.2349243,144.348969,4,2,2,House,House,False,501,m2,False
2017900077,listing,/24-beekeeper-road-armstrong-creek-vic-3217-2017900077,616500,is-sold,Sold by private treaty 02 Sep 2022,20220902,24 Beekeeper Road,ARMSTRONG CREEK,VIC,3217,-38.2343178,144.373642,3,2,1,House,House,False,341,m2,False
2017914901,listing,/167-coastside-drive-armstrong-creek-vic-3217-2017914901,657500,is-sold,Sold by private treaty 08 Sep 2022,20220908,167 Coastside Drive,ARMSTRONG CREEK,VIC,3217,-38.24177,144.3485,3,2,4,House,House,False,312,m2,False
2017925760,listing,/18-daybreak-avenue-armstrong-creek-vic-3217-2017925760,700000,is-sold,Sold by private treaty 28 Aug 2022,20220828,18 Daybreak Avenue,ARMSTRONG CREEK,VIC,3217,-38.2359467,144.366089,4,2,2,House,House,False,471,m2,False
2017935397,listing,/35-cabane-circuit-mount-duneed-vic-3217-2017935397,1165000,is-sold,Sold by private treaty 30 Aug 2022,20220830,35 Cabane Circuit,MOUNT DUNEED,VIC,3217,-38.222065,144.321213,4,2,2,House,House,False,551,m2,False
2017942249,listing,/31-albany-way-charlemont-vic-3217-2017942249,547000,is-sold,Sold by private treaty 08 Sep 2022,20220908,31 Albany Way,CHARLEMONT,VIC,3217,-38.21131,144.3637,3,2,2,House,House,False,225,m2,False
2017947997,listing,/44-flagstaff-street-armstrong-creek-vic-3217-2017947997,703000,is-sold,Sold by private treaty 26 Aug 2022,20220826,44 Flagstaff Street,ARMSTRONG CREEK,VIC,3217,-38.22391,144.347733,4,2,2,House,House,False,400,m2,False
2017961641,listing,/5-velocity-way-mount-duneed-vic-3217-2017961641,580000,is-sold,Sold by private treaty 03 Sep 2022,20220903,5 Velocity Way,MOUNT DUNEED,VIC,3217,-38.21756,144.327911,3,2,1,House,House,False,220,m2,False
2017975696,listing,/152-warralily-boulevard-armstrong-creek-vic-3217-2017975696,690000,is-sold,Sold by private treaty 01 Sep 2022,20220901,152 Warralily Boulevard,ARMSTRONG CREEK,VIC,3217,-38.2408752,144.364517,4,2,2,House,House,False,450,m2,False
2017978391,listing,/46-havant-circuit-charlemont-vic-3217-2017978391,600000,is-sold,Sold by private treaty 31 Aug 2022,20220831,46 Havant Circuit,CHARLEMONT,VIC,3217,-38.21351,144.36647,3,2,2,House,House,False,226,m2,False
2018003077,listing,/8-bridgewater-circuit-armstrong-creek-vic-3217-2018003077,885000,is-sold,Sold by private treaty 22 Aug 2022,20220822,8 Bridgewater Circuit,ARMSTRONG CREEK,VIC,3217,-38.2368965,144.370926,4,2,2,House,House,False,511,m2,False
2018009393,listing,/20-langdon-street-armstrong-creek-vic-3217-2018009393,615000,is-sold,Sold by private treaty 31 Aug 2022,20220831,20 Langdon Street,ARMSTRONG CREEK,VIC,3217,-38.2414246,144.378662,3,2,2,House,House,False,221,m2,False
2018013137,listing,/5-edwin-street-charlemont-vic-3217-2018013137,760000,is-sold,Sold by private treaty 29 Aug 2022,20220829,5 Edwin Street,CHARLEMONT,VIC,3217,-38.211174,144.355942,4,2,2,House,House,False,383,m2,False
2018018914,listing,/armstrong-creek-vic-3217-2018018914,305000,is-sold,Sold by private treaty 28 Aug 2022,20220828,,ARMSTRONG CREEK,VIC,3217,-38.2399139,144.352859,,,,VacantLand,Vacant land,False,324,m2,False
2018025230,listing,/26-abode-street-armstrong-creek-vic-3217-2018025230,660000,is-sold,Sold by private treaty 08 Sep 2022,20220908,26 Abode Street,ARMSTRONG CREEK,VIC,3217,-38.2332878,144.347519,3,2,2,House,House,False,0,m2,False
2018035225,listing,/30-flourish-drive-mount-duneed-vic-3217-2018035225,1120000,is-sold,Sold by private treaty 07 Sep 2022,20220907,30 Flourish Drive,MOUNT DUNEED,VIC,3217,-38.22032,144.32103,4,2,2,House,House,False,0,m2,False
2018036077,listing,/2-rowands-street-mount-duneed-vic-3217-2018036077,1090000,is-sold,Sold by private treaty 07 Sep 2022,20220907,2 Rowands Street,MOUNT DUNEED,VIC,3217,-38.2326736,144.331635,4,2,2,House,House,False,536,m2,False
2018049755,listing,/28-franklin-road-mount-duneed-vic-3217-2018049755,740000,is-sold,Sold by private treaty 26 Aug 2022,20220826,28 Franklin Road,MOUNT DUNEED,VIC,3217,-38.2230263,144.3241,4,2,2,House,House,False,400,m2,False
2017596137,listing,/2-hammond-street-armstrong-creek-vic-3217-2017596137,605000,is-sold,Sold by private treaty 12 Aug 2022,20220812,2 Hammond Street,ARMSTRONG CREEK,VIC,3217,-38.2408943,144.3553,3,2,2,House,House,False,0,m2,False
2017743784,listing,/7-vaughan-drive-armstrong-creek-vic-3217-2017743784,720000,is-sold,Sold by private treaty 18 Aug 2022,20220818,7 Vaughan Drive,ARMSTRONG CREEK,VIC,3217,-38.2308121,144.363388,4,2,2,House,House,False,504,m2,False
2017764612,listing,/20-edenhope-circuit-armstrong-creek-vic-3217-2017764612,801000,is-sold,Sold by private treaty 15 Aug 2022,20220815,20 Edenhope Circuit,ARMSTRONG CREEK,VIC,3217,-38.2223244,144.348816,4,2,2,House,House,False,448,m2,False
2017807655,listing,/13-golden-wattle-drive-mount-duneed-vic-3217-2017807655,745000,is-sold,Sold by private treaty 17 Aug 2022,20220817,13 Golden Wattle Drive,MOUNT DUNEED,VIC,3217,-38.22561,144.3299,4,2,2,House,House,False,0,m2,False
2017808819,listing,/18-tutor-street-mount-duneed-vic-3217-2017808819,770000,is-sold,Sold by private treaty 15 Aug 2022,20220815,18 Tutor Street,MOUNT DUNEED,VIC,3217,-38.22093,144.324234,4,2,3,House,House,False,512,m2,False
2017829601,listing,/23-ross-street-armstrong-creek-vic-3217-2017829601,1050000,is-sold,Sold by private treaty 13 Aug 2022,20220813,23 Ross Street,ARMSTRONG CREEK,VIC,3217,-38.243824,144.346542,4,2,2,House,House,False,511,m2,False
2017869416,listing,/13-solstice-street-mount-duneed-vic-3217-2017869416,790000,is-sold,Sold by private treaty 16 Aug 2022,20220816,13 Solstice Street,MOUNT DUNEED,VIC,3217,-38.2234268,144.319992,4,2,2,House,House,False,0,m2,False
2017877379,listing,/11-native-avenue-mount-duneed-vic-3217-2017877379,1040000,is-sold,Sold by private treaty 19 Aug 2022,20220819,11 Native Avenue,MOUNT DUNEED,VIC,3217,-38.228035,144.333237,4,2,2,House,House,False,462,m2,False
2017884390,listing,/9-lyanna-way-charlemont-vic-3217-2017884390,612000,is-sold,Sold by private treaty 12 Aug 2022,20220812,9 Lyanna Way,CHARLEMONT,VIC,3217,-38.2133751,144.36409,3,2,2,House,House,False,0,m2,False
2017884779,listing,/12-languid-street-armstrong-creek-vic-3217-2017884779,755000,is-sold,Sold by private treaty 18 Aug 2022,20220818,12 Languid Street,ARMSTRONG CREEK,VIC,3217,-38.23664,144.3469,4,2,2,House,House,False,448,m2,False
2017896526,listing,/167-unity-drive-mount-duneed-vic-3217-2017896526,906000,is-sold,Sold by private treaty 17 Aug 2022,20220817,167 Unity Drive,MOUNT DUNEED,VIC,3217,-38.2258949,144.322952,5,3,2,House,House,False,507,m2,False
2017908062,listing,/7-daybreak-avenue-armstrong-creek-vic-3217-2017908062,680000,is-sold,Sold by private treaty 15 Aug 2022,20220815,7 Daybreak Avenue,ARMSTRONG CREEK,VIC,3217,-38.2363319,144.366837,4,2,3,House,House,False,520,m2,False
2017918172,listing,/22-baelish-drive-charlemont-vic-3217-2017918172,680000,is-sold,Sold by private treaty 17 Aug 2022,20220817,22 Baelish Drive,CHARLEMONT,VIC,3217,-38.2116623,144.356308,3,2,2,House,House,False,505,m2,False
2017941597,listing,/18-summerbreeze-way-armstrong-creek-vic-3217-2017941597,825000,is-sold,Sold by private treaty 18 Aug 2022,20220818,18 Summerbreeze Way,ARMSTRONG CREEK,VIC,3217,-38.2429237,144.3353,4,2,2,House,House,False,576,m2,False
2017945850,listing,/23-gulfstream-avenue-mount-duneed-vic-3217-2017945850,742000,is-sold,Sold by private treaty 16 Aug 2022,20220816,23 Gulfstream Avenue,MOUNT DUNEED,VIC,3217,-38.22427,144.33345,4,2,2,House,House,False,448,m2,False
2017947740,listing,/12-spirit-crescent-armstrong-creek-vic-3217-2017947740,615000,is-sold,Sold by private treaty 18 Aug 2022,20220818,12 Spirit Crescent,ARMSTRONG CREEK,VIC,3217,-38.2360535,144.3478,3,2,2,House,House,False,288,m2,False
2017959437,listing,/90-whites-road-mount-duneed-vic-3217-2017959437,432000,is-sold,Sold by private treaty 16 Aug 2022,20220816,90 Whites Road,MOUNT DUNEED,VIC,3217,-38.2325745,144.326065,,,,VacantLand,Vacant land,False,447,m2,False
2017961143,listing,/38-abode-street-armstrong-creek-vic-3217-2017961143,685000,is-sold,Sold by private treaty 15 Aug 2022,20220815,38 Abode Street,ARMSTRONG CREEK,VIC,3217,-38.23415,144.347,4,2,2,House,House,False,392,m2,False
2017967482,listing,/14-anvil-street-charlemont-vic-3217-2017967482,625000,is-sold,Sold by private treaty 19 Aug 2022,20220819,14 Anvil Street,CHARLEMONT,VIC,3217,-38.2123642,144.355042,4,2,2,House,House,False,336,m2,False
2018008083,listing,/7-lower-duneed-road-mount-duneed-vic-3217-2018008083,,is-sold,Sold by private treaty 17 Aug 2022,20220817,7 Lower Duneed Road,MOUNT DUNEED,VIC,3217,-38.248024,144.334656,3,2,4,House,House,False,0,m2,False
2017692193,listing,/38-manna-gum-drive-mount-duneed-vic-3217-2017692193,740000,is-sold,Sold by private treaty 12 Aug 2022,20220812,38 Manna Gum Drive,MOUNT DUNEED,VIC,3217,-38.2266769,144.333084,4,2,2,House,House,False,512,m2,False
2017737787,listing,/32-holst-street-armstrong-creek-vic-3217-2017737787,505000,is-sold,Sold by private treaty 05 Aug 2022,20220805,32 Holst Street,ARMSTRONG CREEK,VIC,3217,-38.2469864,144.382843,,,,VacantLand,Vacant land,False,512,m2,False
2017769052,listing,/72-eaglebay-road-armstrong-creek-vic-3217-2017769052,391000,is-sold,Sold by private treaty 08 Aug 2022,20220808,72 Eaglebay Road,ARMSTRONG CREEK,VIC,3217,-38.22999,144.366226,,,,VacantLand,Vacant land,False,361,m2,False
2017852200,listing,/77-unity-drive-mount-duneed-vic-3217-2017852200,1225000,is-sold,Sold by private treaty 29 Jul 2022,20220729,77 Unity Drive,MOUNT DUNEED,VIC,3217,-38.2248726,144.3301,5,3,2,House,House,False,448,m2,False
2017860292,listing,/5-ficus-place-mount-duneed-vic-3217-2017860292,640000,is-sold,Sold by private treaty 08 Aug 2022,20220808,5 Ficus Place,MOUNT DUNEED,VIC,3217,-38.2182922,144.332077,3,2,1,House,House,False,305,m2,False
2017875756,listing,/82-barbra-drive-charlemont-vic-3217-2017875756,383000,is-sold,Sold by private treaty 03 Aug 2022,20220803,82 Barbra Drive,CHARLEMONT,VIC,3217,-38.2148476,144.356323,,,,VacantLand,Vacant land,False,350,m2,False
2017883317,listing,/1-hutton-close-armstrong-creek-vic-3217-2017883317,764000,is-sold,Sold by private treaty 28 Jul 2022,20220728,1 Hutton Close,ARMSTRONG CREEK,VIC,3217,-38.2399,144.363953,3,2,3,House,House,False,547,m2,False
2017889181,listing,/8-aaron-street-armstrong-creek-vic-3217-2017889181,715000,is-sold,Sold by private treaty 26 Jul 2022,20220726,8 Aaron Street,ARMSTRONG CREEK,VIC,3217,-38.2223053,144.3535,4,2,2,House,House,False,393,m2,False
2017895301,listing,/41-mallacoota-crescent-armstrong-creek-vic-3217-2017895301,815000,is-sold,Sold by private treaty 01 Aug 2022,20220801,41 Mallacoota Crescent,ARMSTRONG CREEK,VIC,3217,-38.2396278,144.3433,4,2,2,House,House,False,448,m2,False
2017907016,listing,/37-iris-loop-armstrong-creek-vic-3217-2017907016,735000,is-sold,Sold by private treaty 04 Aug 2022,20220804,37 Iris Loop,ARMSTRONG CREEK,VIC,3217,-38.2439651,144.343536,4,2,2,House,House,False,0,m2,False
2017907473,listing,/13-glide-way-armstrong-creek-vic-3217-2017907473,650000,is-sold,Sold by private treaty 29 Jul 2022,20220729,13 Glide Way,ARMSTRONG CREEK,VIC,3217,-38.2409134,144.337769,4,2,2,House,House,False,376,m2,False
2017910954,listing,/17-ashcroft-drive-charlemont-vic-3217-2017910954,725000,is-sold,Sold by private treaty 29 Jul 2022,20220729,17 Ashcroft Drive,CHARLEMONT,VIC,3217,-38.2093468,144.364014,4,2,2,House,House,False,448,m2,False
2017921750,listing,/49-compass-way-mount-duneed-vic-3217-2017921750,900000,is-sold,Sold by private treaty 01 Aug 2022,20220801,49 Compass Way,MOUNT DUNEED,VIC,3217,-38.2241325,144.335342,4,2,2,House,House,False,512,m2,False
2017926200,listing,/1-rowands-street-mount-duneed-vic-3217-2017926200,840000,is-sold,Sold by private treaty 29 Jul 2022,20220729,1 Rowands Street,MOUNT DUNEED,VIC,3217,-38.23308,144.3349,4,2,2,House,House,False,448,m2,False
2017931604,listing,/27-maidstone-way-charlemont-vic-3217-2017931604,630000,is-sold,Sold by private treaty 26 Jul 2022,20220726,27 Maidstone Way,CHARLEMONT,VIC,3217,-38.2137146,144.367462,3,2,1,House,House,False,138,m2,False
2017938023,listing,/42-daybreak-avenue-armstrong-creek-vic-3217-2017938023,752500,is-sold,Sold by private treaty 02 Aug 2022,20220802,42 Daybreak Avenue,ARMSTRONG CREEK,VIC,3217,-38.2357864,144.363861,4,2,2,House,House,False,549,m2,False
2017939962,listing,/29-saltbreeze-boulevard-armstrong-creek-vic-3217-2017939962,950000,is-sold,Sold by private treaty 10 Aug 2022,20220810,29 Saltbreeze Boulevard,ARMSTRONG CREEK,VIC,3217,-38.2364,144.3731,4,2,3,House,House,False,0,m2,False
2017947490,listing,/8-edenhope-circuit-armstrong-creek-vic-3217-2017947490,673000,is-sold,Sold by private treaty 11 Aug 2022,20220811,8 Edenhope Circuit,ARMSTRONG CREEK,VIC,3217,-38.2224159,144.349564,3,2,2,House,House,False,336,m2,False
2017978761,listing,/25-maidstone-way-charlemont-vic-3217-2017978761,630000,is-sold,Sold by private treaty 05 Aug 2022,20220805,25 Maidstone Way,CHARLEMONT,VIC,3217,-38.213707,144.3674,3,2,1,House,House,False,137,m2,False
2018102605,listing,/14-reeve-avenue-armstrong-creek-vic-3217-2018102605,1020000,is-sold,Sold by private treaty 11 Aug 2022,20220811,14 Reeve Avenue,ARMSTRONG CREEK,VIC,3217,-38.23929,144.355545,4,2,2,House,House,False,460,m2,False
2017642335,listing,/31-scullin-road-charlemont-vic-3217-2017642335,620000,is-sold,Sold by private treaty 18 Jul 2022,20220718,31 Scullin Road,CHARLEMONT,VIC,3217,-38.2114868,144.356888,4,2,2,House,House,False,335,m2,False
2017691315,listing,/14-jacana-way-armstrong-creek-vic-3217-2017691315,670000,is-sold,Sold by private treaty 12 Jul 2022,20220712,14 Jacana Way,ARMSTRONG CREEK,VIC,3217,-38.2412148,144.371979,4,2,2,House,House,False,604,m2,False
2017698603,listing,/9-baratheon-road-charlemont-vic-3217-2017698603,715000,is-sold,Sold by private treaty 17 Jul 2022,20220717,9 Baratheon Road,CHARLEMONT,VIC,3217,-38.21255,144.357086,4,2,2,House,House,False,400,m2,False
2017741962,listing,/80-barbra-drive-charlemont-vic-3217-2017741962,650000,is-sold,Sold by private treaty 11 Jul 2022,20220711,80 Barbra Drive,CHARLEMONT,VIC,3217,-38.2148476,144.356323,3,2,2,House,House,False,350,m2,False
2017781861,listing,/35-portrush-loop-armstrong-creek-vic-3217-2017781861,650000,is-sold,Sold by private treaty 13 Jul 2022,20220713,35 Portrush Loop,ARMSTRONG CREEK,VIC,3217,-38.24295,144.341019,4,2,2,House,House,False,0,m2,False
2017818506,listing,/9-tenneyson-close-armstrong-creek-vic-3217-2017818506,700000,is-sold,Sold by private treaty 18 Jul 2022,20220718,9 Tenneyson Close,ARMSTRONG CREEK,VIC,3217,-38.2416954,144.370132,4,2,2,House,House,False,504,m2,False
2017824651,listing,/45-greyjoy-road-charlemont-vic-3217-2017824651,830000,is-sold,Sold by private treaty 22 Jul 2022,20220722,45 Greyjoy Road,CHARLEMONT,VIC,3217,-38.2149734,144.361343,4,2,2,House,House,False,448,m2,False
2017837382,listing,/65-aviation-drive-mount-duneed-vic-3217-2017837382,691000,is-sold,Sold by private treaty 13 Jul 2022,20220713,65 Aviation Drive,MOUNT DUNEED,VIC,3217,-38.2198563,144.3336,4,2,2,House,House,False,425,m2,False
2017842039,listing,/32-garfield-drive-armstrong-creek-vic-3217-2017842039,773000,is-sold,Sold by private treaty 14 Jul 2022,20220714,32 Garfield Drive,ARMSTRONG CREEK,VIC,3217,-38.2228928,144.3476,4,2,2,House,House,False,400,m2,False
2017851434,listing,/9-cleary-st-armstrong-creek-vic-3217-2017851434,1250000,is-sold,Sold by private treaty 13 Jul 2022,20220713,9 Cleary St,ARMSTRONG CREEK,VIC,3217,-38.2389,144.3561,4,3,2,House,House,False,0,m2,False
2017860168,listing,/34-shearwater-drive-armstrong-creek-vic-3217-2017860168,642000,is-sold,Sold by private treaty 23 Jul 2022,20220723,34 Shearwater Drive,ARMSTRONG CREEK,VIC,3217,-38.2405777,144.374146,4,2,2,House,House,False,448,m2,False
2017860232,listing,/8-princeton-street-mount-duneed-vic-3217-2017860232,1300000,is-sold,Sold by private treaty 22 Jul 2022,20220722,8 Princeton Street,MOUNT DUNEED,VIC,3217,-38.21872,144.324326,4,2,2,House,House,False,648,m2,False
2017866387,listing,/20-southwinds-road-armstrong-creek-vic-3217-2017866387,735000,is-sold,Sold by private treaty 18 Jul 2022,20220718,20 Southwinds Road,ARMSTRONG CREEK,VIC,3217,-38.2360878,144.3682,4,2,2,House,House,False,453,m2,False
2017879928,listing,/17-glider-street-mount-duneed-vic-3217-2017879928,719000,is-sold,Sold by private treaty 18 Jul 2022,20220718,17 Glider Street,MOUNT DUNEED,VIC,3217,-38.2207336,144.335052,3,2,2,House,House,False,399,m2,False
2017900371,listing,/48-holst-street-armstrong-creek-vic-3217-2017900371,490000,is-sold,Sold by private treaty 13 Jul 2022,20220713,48 Holst Street,ARMSTRONG CREEK,VIC,3217,-38.2346039,144.369171,,,,VacantLand,Vacant land,False,526,m2,False
2017904012,listing,/4-plenty-walk-mount-duneed-vic-3217-2017904012,615000,is-sold,Sold by private treaty 14 Jul 2022,20220714,4 Plenty Walk,MOUNT DUNEED,VIC,3217,-38.21823,144.32605,3,2,2,House,House,False,0,m2,False
2017905385,listing,/27-forresters-way-armstrong-creek-vic-3217-2017905385,725000,is-sold,Sold by private treaty 16 Jul 2022,20220716,27 Forresters Way,ARMSTRONG CREEK,VIC,3217,-38.2432976,144.366028,4,2,2,House,House,False,512,m2,False
2017917360,listing,/8-saltbreeze-boulevard-armstrong-creek-vic-3217-2017917360,820000,is-sold,Sold by private treaty 15 Jul 2022,20220715,8 Saltbreeze Boulevard,ARMSTRONG CREEK,VIC,3217,-38.2352943,144.375458,4,2,2,House,House,False,501,m2,False
2017925595,listing,/14-cornflower-way-mount-duneed-vic-3217-2017925595,990000,is-sold,Sold by private treaty 26 Jul 2022,20220726,14 Cornflower Way,MOUNT DUNEED,VIC,3217,-38.2193146,144.315628,3,2,2,House,House,False,0,m2,False
2017976550,listing,/7-eagle-road-armstrong-creek-vic-3217-2017976550,310000,is-sold,Sold by private treaty 11 Jul 2022,20220711,7 Eagle Road,ARMSTRONG CREEK,VIC,3217,-38.2402039,144.372528,,,,VacantLand,Vacant land,False,300,m2,False
2017546343,listing,/96-holst-street-armstrong-creek-vic-3217-2017546343,360000,is-sold,Sold by private treaty 04 Jul 2022,20220704,96 Holst Street,ARMSTRONG CREEK,VIC,3217,-38.2399139,144.352859,,,,VacantLand,Vacant land,False,349,m2,False
2017589004,listing,/792-barwon-heads-road-service-rd-armstrong-creek-vic-3217-2017589004,672500,is-sold,Sold by private treaty 07 Jul 2022,20220707,792 Barwon Heads Road (service Rd),ARMSTRONG CREEK,VIC,3217,-38.23311,144.3744,4,2,2,House,House,False,400,m2,False
2017668129,listing,/22-hudson-street-armstrong-creek-vic-3217-2017668129,707500,is-sold,Sold by private treaty 30 Jun 2022,20220630,22 Hudson Street,ARMSTRONG CREEK,VIC,3217,-38.2416229,144.366333,4,2,2,House,House,False,452,m2,False
2017672861,listing,/96-beaumont-avenue-charlemont-vic-3217-2017672861,465000,is-sold,Sold by private treaty 24 Jun 2022,20220624,96 Beaumont Avenue,CHARLEMONT,VIC,3217,-38.2108154,144.368637,,,,VacantLand,Vacant land,False,519,m2,False
2017690968,listing,/20-booker-place-armstrong-creek-vic-3217-2017690968,715000,is-sold,Sold by private treaty 22 Jun 2022,20220622,20 Booker Place,ARMSTRONG CREEK,VIC,3217,-38.24329,144.364777,4,2,2,House,House,False,435,m2,False
2017722181,listing,/1060-anglesea-road-freshwater-creek-vic-3217-2017722181,2050000,is-sold,Sold by private treaty 23 Jun 2022,20220623,1060 Anglesea Road,FRESHWATER CREEK,VIC,3217,-38.2889,144.268372,3,1,4,House,House,True,2.83,ha,False
2017748667,listing,/66-beaumont-avenue-charlemont-vic-3217-2017748667,743000,is-sold,Sold by private treaty 30 Jun 2022,20220630,66 Beaumont Avenue,CHARLEMONT,VIC,3217,-38.2108154,144.368637,4,2,2,House,House,False,526,m2,False
2017752909,listing,/45-atherton-street-armstrong-creek-vic-3217-2017752909,680000,is-sold,Sold by private treaty 21 Jun 2022,20220621,45 Atherton Street,ARMSTRONG CREEK,VIC,3217,-38.24218,144.379974,3,2,2,House,House,False,350,m2,False
2017803184,listing,/73-grevillea-drive-mount-duneed-vic-3217-2017803184,717500,is-sold,Sold by private treaty 05 Jul 2022,20220705,73 Grevillea Drive,MOUNT DUNEED,VIC,3217,-38.2181168,144.3324,4,2,2,House,House,False,444,m2,False
2017822660,listing,/27-naughtin-circuit-charlemont-vic-3217-2017822660,655000,is-sold,Sold by private treaty 06 Jul 2022,20220706,27 Naughtin Circuit,CHARLEMONT,VIC,3217,-38.21192,144.367035,4,2,2,House,House,False,350,m2,False
2017826348,listing,/10-holbrook-drive-armstrong-creek-vic-3217-2017826348,730000,is-sold,Sold by private treaty 26 Jun 2022,20220626,10 Holbrook Drive,ARMSTRONG CREEK,VIC,3217,-38.2251663,144.352249,4,2,2,House,House,False,0,m2,False
2017831720,listing,/9-aaron-street-armstrong-creek-vic-3217-2017831720,685000,is-sold,Sold by private treaty 28 Jun 2022,20220628,9 Aaron Street,ARMSTRONG CREEK,VIC,3217,-38.2222252,144.352936,4,2,1,House,House,False,310,m2,False
2017834559,listing,/7-sandvue-street-armstrong-creek-vic-3217-2017834559,840000,is-sold,Sold by private treaty 23 Jun 2022,20220623,7 Sandvue Street,ARMSTRONG CREEK,VIC,3217,-38.23857,144.34053,4,2,2,House,House,False,452,m2,False
2017838026,listing,/10-cassava-street-armstrong-creek-vic-3217-2017838026,930000,is-sold,Sold by private treaty 30 Jun 2022,20220630,10 Cassava Street,ARMSTRONG CREEK,VIC,3217,-38.2431259,144.346817,4,2,2,House,House,False,536,m2,False
2017845970,listing,/6-stein-avenue-armstrong-creek-vic-3217-2017845970,742500,is-sold,Sold by private treaty 01 Jul 2022,20220701,6 Stein Avenue,ARMSTRONG CREEK,VIC,3217,-38.24144,144.339355,4,2,2,House,House,False,369,m2,False
2017852241,listing,/6-rottness-drive-armstrong-creek-vic-3217-2017852241,868000,is-sold,Sold by private treaty 01 Jul 2022,20220701,6 Rottness Drive,ARMSTRONG CREEK,VIC,3217,-38.242527,144.361557,4,2,2,House,House,False,512,m2,False
2017879051,listing,/33-trinity-way-armstrong-creek-vic-3217-2017879051,850000,is-sold,Sold by private treaty 09 Jul 2022,20220709,33 Trinity Way,ARMSTRONG CREEK,VIC,3217,-38.2341843,144.3705,4,2,2,House,House,False,415,m2,False
2017881596,listing,/5-barbra-drive-charlemont-vic-3217-2017881596,680000,is-sold,Sold by private treaty 07 Jul 2022,20220707,5 Barbra Drive,CHARLEMONT,VIC,3217,-38.21389,144.354233,3,2,2,House,House,False,373,m2,False
2017902883,listing,/22-romley-avenue-armstrong-creek-vic-3217-2017902883,1120000,is-sold,Sold by private treaty 06 Jul 2022,20220706,22 Romley Avenue,ARMSTRONG CREEK,VIC,3217,-38.2368622,144.337524,3,2,2,House,House,False,601,m2,False
2017909024,listing,/11-limestone-street-charlemont-vic-3217-2017909024,899000,is-sold,Sold by private treaty 09 Jul 2022,20220709,11 Limestone Street,CHARLEMONT,VIC,3217,-38.21183,144.370056,4,2,4,House,House,False,448,m2,False
2017582942,listing,/lot-204-montenegro-crescent-mount-duneed-vic-3217-2017582942,691690,is-sold,Sold by private treaty 03 Jun 2022,20220603,Lot 204 Montenegro Crescent,MOUNT DUNEED,VIC,3217,-38.21823,144.32605,4,2,2,NewHouseLand,New House & Land,False,400,m2,False
2017649335,listing,/1-rockingham-street-armstrong-creek-vic-3217-2017649335,707500,is-sold,Sold by private treaty 17 Jun 2022,20220617,1 Rockingham Street,ARMSTRONG CREEK,VIC,3217,-38.2412834,144.363266,4,2,2,House,House,False,500,m2,False
2017666297,listing,/66-madeira-street-armstrong-creek-vic-3217-2017666297,720000,is-sold,Sold by private treaty 17 Jun 2022,20220617,66 Madeira Street,ARMSTRONG CREEK,VIC,3217,-38.2457428,144.344284,4,2,2,House,House,False,400,m2,False
2017672551,listing,/153-warralily-boulevard-armstrong-creek-vic-3217-2017672551,725000,is-sold,Sold by private treaty 31 May 2022,20220531,153 Warralily Boulevard,ARMSTRONG CREEK,VIC,3217,-38.2412834,144.366165,3,2,2,House,House,False,519,m2,False
2017725103,listing,/16-20-motion-drive-mount-duneed-vic-3217-2017725103,920000,is-sold,Sold by private treaty 20 Jun 2022,20220620,16-20 Motion Drive,MOUNT DUNEED,VIC,3217,-38.2165527,144.327011,4,2,2,House,House,False,528,m2,False
2017725887,listing,/13-15-coastal-drive-armstrong-creek-vic-3217-2017725887,750000,is-sold,Sold by private treaty 17 Jun 2022,20220617,13 - 15 Coastal Drive,ARMSTRONG CREEK,VIC,3217,-38.2372742,144.366653,4,2,2,House,House,False,524,m2,False
2017739195,listing,/45-velocity-way-mount-duneed-vic-3217-2017739195,725000,is-sold,Sold by private treaty 16 Jun 2022,20220616,45 Velocity Way,MOUNT DUNEED,VIC,3217,-38.21756,144.327911,4,2,2,House,House,False,512,m2,False
2017742314,listing,/57-ashbury-boulevard-armstrong-creek-vic-3217-2017742314,845000,is-sold,Sold by private treaty 10 Jun 2022,20220610,57 Ashbury Boulevard,ARMSTRONG CREEK,VIC,3217,-38.22516,144.351456,4,2,2,House,House,False,560,m2,False
2017749832,listing,/17-falcon-street-armstrong-creek-vic-3217-2017749832,600000,is-sold,Sold by private treaty 04 Jun 2022,20220604,17 Falcon Street,ARMSTRONG CREEK,VIC,3217,-38.2430878,144.3729,3,2,1,House,House,False,251,m2,False
2017781196,listing,/20-beaumont-avenue-charlemont-vic-3217-2017781196,795000,is-sold,Sold by private treaty 09 Jun 2022,20220609,20 Beaumont Avenue,CHARLEMONT,VIC,3217,-38.20956,144.367111,4,2,2,House,House,False,524,m2,False
2017794639,listing,/11-nairn-drive-armstrong-creek-vic-3217-2017794639,775000,is-sold,Sold by private treaty 01 Jun 2022,20220601,11 Nairn Drive,ARMSTRONG CREEK,VIC,3217,-38.2215462,144.352783,4,2,2,House,House,False,400,m2,False
2017797301,listing,/4-amiable-parade-armstrong-creek-vic-3217-2017797301,750000,is-sold,Sold by private treaty 05 Jun 2022,20220605,4 Amiable Parade,ARMSTRONG CREEK,VIC,3217,-38.2362022,144.348984,4,2,2,House,House,False,448,m2,False
2017801865,listing,/18-bridgewater-circuit-armstrong-creek-vic-3217-2017801865,765000,is-sold,Sold by private treaty 20 Jun 2022,20220620,18 Bridgewater Circuit,ARMSTRONG CREEK,VIC,3217,-38.2377853,144.370911,4,2,2,House,House,False,0,m2,False
2017816239,listing,/25-lampard-street-armstrong-creek-vic-3217-2017816239,725000,is-sold,Sold by private treaty 31 May 2022,20220531,25 Lampard Street,ARMSTRONG CREEK,VIC,3217,-38.240757,144.336853,4,2,2,House,House,False,457,m2,False
2017817033,listing,/6-alpina-avenue-mount-duneed-vic-3217-2017817033,880000,is-sold,Sold by private treaty 01 Jun 2022,20220601,6 Alpina Avenue,MOUNT DUNEED,VIC,3217,-38.2176857,144.333115,4,2,2,House,House,False,500,m2,False
2017817229,listing,/26-bolton-street-armstrong-creek-vic-3217-2017817229,1000000,is-sold,Sold by private treaty 10 Jun 2022,20220610,26 Bolton Street,ARMSTRONG CREEK,VIC,3217,-38.242363,144.360672,4,3,2,House,House,False,480,m2,False
2017819698,listing,/60-sanctuary-boulevard-armstrong-creek-vic-3217-2017819698,750000,is-sold,Sold by private treaty 08 Jun 2022,20220608,60 Sanctuary Boulevard,ARMSTRONG CREEK,VIC,3217,-38.2349243,144.348969,4,2,2,House,House,False,392,m2,False
2017824985,listing,/3-tutor-street-mount-duneed-vic-3217-2017824985,1125000,is-sold,Sold by private treaty 02 Jun 2022,20220602,3 Tutor Street,MOUNT DUNEED,VIC,3217,-38.22124,144.325211,3,2,4,House,House,False,612,m2,False
2017853190,listing,/20-beard-street-armstrong-creek-vic-3217-2017853190,670000,is-sold,Sold by private treaty 17 Jun 2022,20220617,20 Beard Street,ARMSTRONG CREEK,VIC,3217,-38.24212,144.3639,3,2,2,House,House,False,0,m2,False
2017854545,listing,/510-ghazeepore-road-freshwater-creek-vic-3217-2017854545,4350000,is-sold,Sold by private treaty 13 Jun 2022,20220613,510 Ghazeepore Road,FRESHWATER CREEK,VIC,3217,-38.2442627,144.2938,9,4,6,House,House,True,29.92,ha,False
2017455591,listing,/8-rodgers-court-charlemont-vic-3217-2017455591,710000,is-sold,Sold by private treaty 28 May 2022,20220528,8 Rodgers Court,CHARLEMONT,VIC,3217,-38.2150459,144.367447,3,2,2,House,House,False,433,m2,False
2017613432,listing,/35-barbra-drive-charlemont-vic-3217-2017613432,832500,is-sold,Sold by private treaty 13 May 2022,20220513,35 Barbra Drive,CHARLEMONT,VIC,3217,-38.2141457,144.35701,4,2,2,House,House,False,0,m2,False
2017643124,listing,/21-ricky-parade-armstrong-creek-vic-3217-2017643124,720000,is-sold,Sold by private treaty 25 May 2022,20220525,21 Ricky Parade,ARMSTRONG CREEK,VIC,3217,-38.22797,144.3685,4,2,2,House,House,False,400,m2,False
2017664011,listing,/19-coastal-drive-armstrong-creek-vic-3217-2017664011,785000,is-sold,Sold by private treaty 13 May 2022,20220513,19 Coastal Drive,ARMSTRONG CREEK,VIC,3217,-38.23733,144.367126,4,2,2,House,House,False,443,m2,False
2017688127,listing,/32-whitfords-drive-armstrong-creek-vic-3217-2017688127,685000,is-sold,Sold by private treaty 29 May 2022,20220529,32 Whitfords Drive,ARMSTRONG CREEK,VIC,3217,-38.239563,144.362915,4,2,2,House,House,False,400,m2,False
2017712145,listing,/40-franklin-road-mount-duneed-vic-3217-2017712145,970000,is-sold,Sold by private treaty 16 May 2022,20220516,40 Franklin Road,MOUNT DUNEED,VIC,3217,-38.2228355,144.321152,4,2,2,House,House,False,545,m2,False
2017720120,listing,/25-middleton-road-armstrong-creek-vic-3217-2017720120,730000,is-sold,Sold by private treaty 25 May 2022,20220525,25 Middleton Road,ARMSTRONG CREEK,VIC,3217,-38.2406,144.345627,4,2,2,House,House,False,374,m2,False
2017723888,listing,/202-boundary-road-mount-duneed-vic-3217-2017723888,730000,is-sold,Sold by private treaty 30 May 2022,20220530,202 Boundary Road,MOUNT DUNEED,VIC,3217,-38.2180176,144.325928,4,2,2,House,House,False,355,m2,False
2017724034,listing,/55-whitfords-drive-armstrong-creek-vic-3217-2017724034,422500,is-sold,Sold by private treaty 13 May 2022,20220513,55 Whitfords Drive,ARMSTRONG CREEK,VIC,3217,-38.2398262,144.362366,,,,VacantLand,Vacant land,False,405,m2,False
2017731288,listing,/16-hedge-street-armstrong-creek-vic-3217-2017731288,705000,is-sold,Sold by private treaty 26 May 2022,20220526,16 Hedge Street,ARMSTRONG CREEK,VIC,3217,-38.2355881,144.349915,3,2,2,House,House,False,400,m2,False
2017746988,listing,/22-orland-circuit-charlemont-vic-3217-2017746988,630000,is-sold,Sold by private treaty 13 May 2022,20220513,22 Orland Circuit,CHARLEMONT,VIC,3217,-38.2138329,144.368484,3,2,1,House,House,False,231,m2,False
2017752505,listing,/12-baelish-drive-charlemont-vic-3217-2017752505,720000,is-sold,Sold by private treaty 13 May 2022,20220513,12 Baelish Drive,CHARLEMONT,VIC,3217,-38.2125168,144.356339,4,2,2,House,House,False,395,m2,False
2017756511,listing,/16-grammar-street-mount-duneed-vic-3217-2017756511,753000,is-sold,Sold by private treaty 17 May 2022,20220517,16 Grammar Street,MOUNT DUNEED,VIC,3217,-38.22292,144.324753,4,2,2,House,House,False,392,m2,False
2017786397,listing,/22-freshwater-drive-armstrong-creek-vic-3217-2017786397,840000,is-sold,Sold by private treaty 19 May 2022,20220519,22 Freshwater Drive,ARMSTRONG CREEK,VIC,3217,-38.237442,144.36882,3,2,2,House,House,False,602,m2,False
2017790004,listing,/20-gallery-walk-mount-duneed-vic-3217-2017790004,655000,is-sold,Sold by private treaty 17 May 2022,20220517,20 Gallery Walk,MOUNT DUNEED,VIC,3217,-38.21823,144.32605,4,2,2,Townhouse,Townhouse,False,168,m2,False
2017802732,listing,/45-aspect-road-mount-duneed-vic-3217-2017802732,830000,is-sold,Sold by private treaty 25 May 2022,20220525,45 Aspect Road,MOUNT DUNEED,VIC,3217,-38.2243271,144.323761,4,2,2,House,House,False,448,m2,False
2017808575,listing,/35-avonbury-drive-armstrong-creek-vic-3217-2017808575,360000,is-sold,Sold by private treaty 31 May 2022,20220531,35 Avonbury Drive,ARMSTRONG CREEK,VIC,3217,-38.2441177,144.38121,,,,VacantLand,Vacant land,False,274,m2,False
2017810345,listing,/43-ambrosia-drive-armstrong-creek-vic-3217-2017810345,1255000,is-sold,Sold by private treaty 31 May 2022,20220531,43 Ambrosia Drive,ARMSTRONG CREEK,VIC,3217,-38.23836,144.36615,4,2,2,House,House,False,533,m2,False
2017814554,listing,/4-conti-drive-mount-duneed-vic-3217-2017814554,1000000,is-sold,Sold by private treaty 23 May 2022,20220523,4 Conti Drive,MOUNT DUNEED,VIC,3217,-38.2350769,144.324326,4,2,2,House,House,False,513,m2,False
2017856769,listing,/20-ross-street-armstrong-creek-vic-3217-2017856769,737000,is-sold,Sold by private treaty 13 May 2022,20220513,20 Ross Street,ARMSTRONG CREEK,VIC,3217,-38.243824,144.346542,4,2,2,House,House,False,400,m2,False
2017582054,listing,/15-concorde-street-mount-duneed-vic-3217-2017582054,865000,is-sold,Sold by private treaty 05 May 2022,20220505,15 Concorde Street,MOUNT DUNEED,VIC,3217,-38.2226334,144.333572,4,2,2,House,House,False,512,m2,False
2017622194,listing,/76-armstrong-boulevard-mount-duneed-vic-3217-2017622194,1420000,is-sold,Sold by private treaty 24 Apr 2022,20220424,76 Armstrong Boulevard,MOUNT DUNEED,VIC,3217,-38.22715,144.328842,4,3,2,House,House,False,611,m2,False
2017631137,listing,/5-beeston-avenue-charlemont-vic-3217-2017631137,810000,is-sold,Sold by private treaty 25 Apr 2022,20220425,5 Beeston Avenue,CHARLEMONT,VIC,3217,-38.2148438,144.366776,4,2,2,House,House,False,512,m2,False
2017670640,listing,/25-sophie-way-armstrong-creek-vic-3217-2017670640,700000,is-sold,Sold by private treaty 03 May 2022,20220503,25 Sophie Way,ARMSTRONG CREEK,VIC,3217,-38.23874,144.3386,4,2,2,House,House,False,350,m2,False
2017671502,listing,/3-crystall-place-armstrong-creek-vic-3217-2017671502,670000,is-sold,Sold by private treaty 26 Apr 2022,20220426,3 Crystall Place,ARMSTRONG CREEK,VIC,3217,-38.2401657,144.37085,4,2,2,House,House,False,400,m2,False
2017674816,listing,/104-barbra-drive-charlemont-vic-3217-2017674816,675000,is-sold,Sold by private treaty 06 May 2022,20220506,104 Barbra Drive,CHARLEMONT,VIC,3217,-38.2148552,144.3564,4,2,2,House,House,False,349,m2,False
2017678176,listing,/26-solstice-street-mount-duneed-vic-3217-2017678176,998000,is-sold,Sold by private treaty 29 Apr 2022,20220429,26 Solstice Street,MOUNT DUNEED,VIC,3217,-38.22326,144.319229,4,2,2,House,House,False,607,m2,False
2017680613,listing,/20-flagstaff-street-armstrong-creek-vic-3217-2017680613,710000,is-sold,Sold by private treaty 25 Apr 2022,20220425,20 Flagstaff Street,ARMSTRONG CREEK,VIC,3217,-38.22391,144.347733,4,2,2,House,House,False,448,m2,False
2017691086,listing,/25-barbra-drive-charlemont-vic-3217-2017691086,390000,is-sold,Sold by private treaty 27 Apr 2022,20220427,25 Barbra Drive,CHARLEMONT,VIC,3217,-38.2140045,144.355225,,,,VacantLand,Vacant land,False,344,m2,False
2017698638,listing,/10-mallacoota-crescent-armstrong-creek-vic-3217-2017698638,820000,is-sold,Sold by private treaty 12 May 2022,20220512,10 Mallacoota Crescent,ARMSTRONG CREEK,VIC,3217,-38.2393951,144.341568,4,2,2,House,House,False,448,m2,False
2017720298,listing,/8-whitfords-drive-armstrong-creek-vic-3217-2017720298,755000,is-sold,Sold by private treaty 01 May 2022,20220501,8 Whitfords Drive,ARMSTRONG CREEK,VIC,3217,-38.239502,144.365265,4,2,2,House,House,False,491,m2,False
2017722372,listing,/13-aaron-street-armstrong-creek-vic-3217-2017722372,680000,is-sold,Sold by private treaty 12 May 2022,20220512,13 Aaron Street,ARMSTRONG CREEK,VIC,3217,-38.2219048,144.354172,3,2,2,House,House,False,368,m2,False
2017724355,listing,/11-citrinus-street-mount-duneed-vic-3217-2017724355,375000,is-sold,Sold by private treaty 11 May 2022,20220511,11 Citrinus Street,MOUNT DUNEED,VIC,3217,-38.21823,144.32605,,,,VacantLand,Vacant land,False,0,m2,False
2017725589,listing,/69-precinct-road-charlemont-vic-3217-2017725589,695000,is-sold,Sold by private treaty 11 May 2022,20220511,69 Precinct Road,CHARLEMONT,VIC,3217,-38.214016,144.361984,3,2,2,House,House,False,358,m2,False
2017732417,listing,/33-ashbury-boulevard-armstrong-creek-vic-3217-2017732417,880000,is-sold,Sold by private treaty 09 May 2022,20220509,33 Ashbury Boulevard,ARMSTRONG CREEK,VIC,3217,-38.2229576,144.351517,4,2,2,House,House,False,513,m2,False
2017756811,listing,/16-manna-gum-drive-mount-duneed-vic-3217-2017756811,845000,is-sold,Sold by private treaty 03 May 2022,20220503,16 Manna Gum Drive,MOUNT DUNEED,VIC,3217,-38.2265358,144.330444,3,2,2,House,House,False,448,m2,False
2017760930,listing,/56-mcarthur-crescent-armstrong-creek-vic-3217-2017760930,690000,is-sold,Sold by private treaty 05 May 2022,20220505,56 McArthur Crescent,ARMSTRONG CREEK,VIC,3217,-38.2404251,144.379562,4,2,2,House,House,False,293,m2,False
2017764232,listing,/127-purity-way-armstrong-creek-vic-3217-2017764232,,is-sold,Sold by private treaty 11 May 2022,20220511,127 Purity Way,ARMSTRONG CREEK,VIC,3217,-38.2402725,144.353531,,,,VacantLand,Vacant land,False,221,m2,False
2017793240,listing,/lot-205-montenegro-crescent-mount-duneed-vic-3217-2017793240,689980,is-sold,Sold by private treaty 10 May 2022,20220510,Lot 205 Montenegro Crescent,MOUNT DUNEED,VIC,3217,-38.21823,144.32605,4,2,2,NewHouseLand,New House & Land,False,400,m2,False
2017793279,listing,/lot-206-montenegro-crescent-mount-duneed-vic-3217-2017793279,699848,is-sold,Sold by private treaty 10 May 2022,20220510,Lot 206 Montenegro Crescent,MOUNT DUNEED,VIC,3217,-38.21823,144.32605,4,2,2,NewHouseLand,New House & Land,False,400,m2,False
2017565918,listing,/45-carter-road-armstrong-creek-vic-3217-2017565918,694000,is-sold,Sold by private treaty 16 Apr 2022,20220416,45 Carter Road,ARMSTRONG CREEK,VIC,3217,-38.23387,144.372589,4,2,2,House,House,False,484,m2,False
2017585092,listing,/22-eaton-road-mount-duneed-vic-3217-2017585092,690000,is-sold,Sold by private treaty 24 Apr 2022,20220424,22 Eaton Road,MOUNT DUNEED,VIC,3217,-38.22016,144.322845,4,2,2,House,House,False,350,m2,False
2017609324,listing,/5-naismith-street-armstrong-creek-vic-3217-2017609324,728000,is-sold,Sold by private treaty 19 Apr 2022,20220419,5 Naismith Street,ARMSTRONG CREEK,VIC,3217,-38.2403831,144.3349,4,2,2,House,House,False,512,m2,False
2017648739,listing,/9-whalley-road-armstrong-creek-vic-3217-2017648739,783000,is-sold,Sold by private treaty 11 Apr 2022,20220411,9 Whalley Road,ARMSTRONG CREEK,VIC,3217,-38.23686,144.373474,4,2,2,House,House,False,0,m2,False
2017664007,listing,/2245-warralily-boulevard-armstrong-creek-vic-3217-2017664007,915000,is-sold,Sold by private treaty 14 Apr 2022,20220414,2245 Warralily Boulevard,ARMSTRONG CREEK,VIC,3217,-38.2366829,144.338333,4,2,2,House,House,False,445,m2,False
2017665106,listing,/52-motion-drive-mount-duneed-vic-3217-2017665106,465000,is-sold,Sold by private treaty 12 Apr 2022,20220412,52 Motion Drive,MOUNT DUNEED,VIC,3217,-38.2165527,144.327011,,,,VacantLand,Vacant land,False,0,m2,False
2017670969,listing,/59-noosa-circuit-armstrong-creek-vic-3217-2017670969,750000,is-sold,Sold by private treaty 22 Apr 2022,20220422,59 Noosa Circuit,ARMSTRONG CREEK,VIC,3217,-38.2384758,144.336334,4,2,2,House,House,False,400,m2,False
2017670987,listing,/18-macedon-street-armstrong-creek-vic-3217-2017670987,740000,is-sold,Sold by private treaty 13 Apr 2022,20220413,18 Macedon Street,ARMSTRONG CREEK,VIC,3217,-38.2251625,144.353531,4,2,2,House,House,False,370,m2,False
2017700873,listing,/128-sovereign-drive-mount-duneed-vic-3217-2017700873,605000,is-sold,Sold by private treaty 13 Apr 2022,20220413,128 Sovereign Drive,MOUNT DUNEED,VIC,3217,-38.2244453,144.3263,3,2,1,House,House,False,220,m2,False
2017703959,listing,/11-monterey-street-armstrong-creek-vic-3217-2017703959,605000,is-sold,Sold by private treaty 12 Apr 2022,20220412,11 Monterey Street,ARMSTRONG CREEK,VIC,3217,-38.2333221,144.372238,2,2,1,House,House,False,113,m2,False
2017704820,listing,/13-torse-avenue-armstrong-creek-vic-3217-2017704820,875000,is-sold,Sold by private treaty 20 Apr 2022,20220420,13 Torse Avenue,ARMSTRONG CREEK,VIC,3217,-38.24091,144.339966,4,2,2,House,House,False,504,m2,False
2017708311,listing,/13-albany-way-charlemont-vic-3217-2017708311,595000,is-sold,Sold by private treaty 12 Apr 2022,20220412,13 Albany Way,CHARLEMONT,VIC,3217,-38.2107468,144.364288,3,2,1,House,House,False,220,m2,False
2017710268,listing,/58-holst-street-armstrong-creek-vic-3217-2017710268,455000,is-sold,Sold by private treaty 14 Apr 2022,20220414,58 Holst Street,ARMSTRONG CREEK,VIC,3217,-38.24558,144.384247,,,,VacantLand,Vacant land,False,400,m2,False
2017712188,listing,/24-solstice-street-mount-duneed-vic-3217-2017712188,1087500,is-sold,Sold by private treaty 22 Apr 2022,20220422,24 Solstice Street,MOUNT DUNEED,VIC,3217,-38.2238579,144.319244,4,2,2,House,House,False,574,m2,False
2017712728,listing,/109-sanctuary-boulevard-armstrong-creek-vic-3217-2017712728,750000,is-sold,Sold by private treaty 19 Apr 2022,20220419,109 Sanctuary Boulevard,ARMSTRONG CREEK,VIC,3217,-38.23748,144.346512,3,2,4,House,House,False,430,m2,False
2017721103,listing,/16-whalley-road-armstrong-creek-vic-3217-2017721103,810000,is-sold,Sold by private treaty 14 Apr 2022,20220414,16 Whalley Road,ARMSTRONG CREEK,VIC,3217,-38.237278,144.372955,4,2,2,House,House,False,448,m2,False
2017721767,listing,/16-eminence-street-mount-duneed-vic-3217-2017721767,655000,is-sold,Sold by private treaty 21 Apr 2022,20220421,16 Eminence Street,MOUNT DUNEED,VIC,3217,-38.2170944,144.323822,3,2,2,House,House,False,287,m2,False
2017723057,listing,/19-meereen-street-charlemont-vic-3217-2017723057,640000,is-sold,Sold by private treaty 12 Apr 2022,20220412,19 Meereen Street,CHARLEMONT,VIC,3217,-38.21549,144.359619,3,2,2,House,House,False,262,m2,False
2017723303,listing,/131-coastside-drive-armstrong-creek-vic-3217-2017723303,855000,is-sold,Sold by private treaty 20 Apr 2022,20220420,131 Coastside Drive,ARMSTRONG CREEK,VIC,3217,-38.24228,144.3463,4,2,2,House,House,False,448,m2,False
2017821797,listing,/15-owarra-boulevard-mount-duneed-vic-3217-2017821797,915000,is-sold,Sold by private treaty 20 Apr 2022,20220420,15 Owarra Boulevard,MOUNT DUNEED,VIC,3217,-38.2222023,144.322861,4,2,2,House,House,False,445,m2,False
2017587651,listing,/20-latitude-street-mount-duneed-vic-3217-2017587651,715000,is-sold,Sold by private treaty 05 Apr 2022,20220405,20 Latitude Street,MOUNT DUNEED,VIC,3217,-38.216114,144.325134,4,2,2,House,House,False,392,m2,False
2017606388,listing,/54-coastside-drive-armstrong-creek-vic-3217-2017606388,900000,is-sold,Sold by private treaty 09 Apr 2022,20220409,54 Coastside Drive,ARMSTRONG CREEK,VIC,3217,-38.2421,144.33931,4,2,2,House,House,False,534,m2,False
2017611443,listing,/10-accord-street-mount-duneed-vic-3217-2017611443,780000,is-sold,Sold by private treaty 04 Apr 2022,20220404,10 Accord Street,MOUNT DUNEED,VIC,3217,-38.2248764,144.325638,3,2,2,House,House,False,0,m2,False
2017615447,listing,/47-connect-way-mount-duneed-vic-3217-2017615447,650000,is-sold,Sold by private treaty 05 Apr 2022,20220405,47 Connect Way,MOUNT DUNEED,VIC,3217,-38.2172127,144.33107,3,2,2,House,House,False,262,m2,False
2017646608,listing,/79-aviation-drive-mount-duneed-vic-3217-2017646608,750000,is-sold,Sold by private treaty 06 Apr 2022,20220406,79 Aviation Drive,MOUNT DUNEED,VIC,3217,-38.2198563,144.3336,3,2,2,House,House,False,475,m2,False
2017646665,listing,/6-runway-street-mount-duneed-vic-3217-2017646665,650000,is-sold,Sold by private treaty 04 Apr 2022,20220404,6 Runway Street,MOUNT DUNEED,VIC,3217,-38.2220955,144.334579,4,2,2,House,House,False,290,m2,False
2017649184,listing,/19-whitfords-drive-armstrong-creek-vic-3217-2017649184,741000,is-sold,Sold by private treaty 06 Apr 2022,20220406,19 Whitfords Drive,ARMSTRONG CREEK,VIC,3217,-38.23988,144.36441,4,2,3,House,House,False,439,m2,False
2017649657,listing,/13-longreach-road-armstrong-creek-vic-3217-2017649657,645000,is-sold,Sold by private treaty 08 Apr 2022,20220408,13 Longreach Road,ARMSTRONG CREEK,VIC,3217,-38.23234,144.3735,4,3,2,Townhouse,Townhouse,False,0,m2,False
2017654844,listing,/52-lance-drive-armstrong-creek-vic-3217-2017654844,715000,is-sold,Sold by private treaty 31 Mar 2022,20220331,52 Lance Drive,ARMSTRONG CREEK,VIC,3217,-38.24115,144.347733,4,2,2,House,House,False,375,m2,False
