id,listingType,url,price,tagClassName,tagText,date,street,suburb,state,postcode,lat,lng,beds,baths,parking,propertyType,propertyTypeFormatted,isRural,landSize,landUnit,isRetirement
2018309897,listing,/43-aviation-drive-mount-duneed-vic-3217-2018309897,660000,is-sold,Sold by private treaty 27 Feb 2023,20230227,43 Aviation Drive,MOUNT DUNEED,VIC,3217,-38.2222939,144.33313,3,3,3,House,House,False,366,m2,False
2018253437,listing,/22-secluded-drive-armstrong-creek-vic-3217-2018253437,732500,is-sold,Sold by private treaty 03 Mar 2023,20230303,22 Secluded Drive,ARMSTRONG CREEK,VIC,3217,-38.2337646,144.3511,3,3,3,House,House,False,539,m2,False
2018285069,listing,/23-fletcher-drive-armstrong-creek-vic-3217-2018285069,,is-sold,Sold by private treaty 02 Mar 2023,20230302,23 Fletcher Drive,ARMSTRONG CREEK,VIC,3217,-38.23824,144.358017,4,4,4,House,House,False,400,m2,False
2018119011,listing,/26-honeyeater-way-mount-duneed-vic-3217-2018119011,399000,is-sold,Sold by private treaty 06 Mar 2023,20230306,26 Honeyeater Way,MOUNT DUNEED,VIC,3217,-38.21716,144.330612,,,,VacantLand,Vacant land,False,416,m2,False
2018262415,listing,/2173-warralily-boulevard-armstrong-creek-vic-3217-2018262415,,is-sold,Sold by private treaty 04 Mar 2023,20230304,2173 Warralily Boulevard,ARMSTRONG CREEK,VIC,3217,-38.2399445,144.356,4,2,2,House,House,False,556,m2,False
