id,listingType,url,price,tagClassName,tagText,date,street,suburb,state,postcode,lat,lng,beds,baths,parking,propertyType,propertyTypeFormatted,isRural,landSize,landUnit,isRetirement
2017917104,listing,/12-miller-street-casterton-vic-3311-2017917104,370000,is-sold,Sold by private treaty 27 Feb 2023,20230227,12 Miller Street,CASTERTON,VIC,3311,-37.5877762,141.397278,3,3,3,House,House,False,1004.0,m2,False
2017646669,listing,/23-mt-gambier-road-casterton-vic-3311-2017646669,420000,is-sold,Sold by private treaty 26 Apr 2022,20220426,23 Mt Gambier Road,CASTERTON,VIC,3311,-37.5889053,141.388763,4,4,4,House,House,False,969.0,m2,False
2017686631,listing,/63-murray-street-casterton-vic-3311-2017686631,347000,is-sold,Sold by private treaty 16 Jun 2022,20220616,63 Murray Street,CASTERTON,VIC,3311,-37.5872154,141.397842,3,3,3,House,House,False,1041.0,m2,False
2017787716,listing,/16-mcevoy-street-casterton-vic-3311-2017787716,380000,is-sold,Sold by private treaty 20 May 2022,20220520,16 McEvoy Street,CASTERTON,VIC,3311,-37.5858078,141.392273,3,3,3,House,House,False,1106.0,m2,False
2017795877,listing,/23-mt-gambier-road-casterton-vic-3311-2017795877,420000,is-sold,Sold by private treaty 26 Apr 2022,20220426,23 Mt Gambier Road,CASTERTON,VIC,3311,-37.5889053,141.388763,4,4,4,House,House,False,969.0,m2,False
2017818630,listing,/35-mount-gambier-road-casterton-vic-3311-2017818630,300000,is-sold,Sold by private treaty 05 Sep 2022,20220905,35 Mount Gambier Road,CASTERTON,VIC,3311,-37.5890236,141.385956,4,4,4,House,House,False,1050.0,m2,False
2017819415,listing,/32-34-roberts-street-casterton-vic-3311-2017819415,139500,is-sold,Sold by private treaty 11 Jun 2022,20220611,32-34 Roberts Street,CASTERTON,VIC,3311,-37.5942,141.38942,,,,VacantLand,Vacant land,False,3034.0,m2,False
2017908789,listing,/9-queen-street-casterton-vic-3311-2017908789,550000,is-sold,Sold by private treaty 12 Oct 2022,20221012,9 Queen Street,CASTERTON,VIC,3311,-37.5919762,141.394531,4,4,4,House,House,False,1266.0,m2,False
2017938176,listing,/199-henty-street-casterton-vic-3311-2017938176,360000,is-sold,Sold by private treaty 12 Aug 2022,20220812,199 Henty Street,CASTERTON,VIC,3311,-37.58857,141.398056,3,3,3,House,House,False,902.0,m2,False
2017971407,listing,/38-mcpherson-street-casterton-vic-3311-2017971407,265000,is-sold,Sold by private treaty 07 Sep 2022,20220907,38 McPherson Street,CASTERTON,VIC,3311,-37.58446,141.403427,2,2,2,House,House,False,684.0,m2,False
2017978843,listing,/19-peachey-street-casterton-vic-3311-2017978843,205000,is-sold,Sold by private treaty 28 Sep 2022,20220928,19 Peachey Street,CASTERTON,VIC,3311,-37.5934448,141.392075,3,3,3,House,House,False,1043.0,m2,False
2017994865,listing,/8-george-street-casterton-vic-3311-2017994865,170000,is-sold,Sold by private treaty 25 Nov 2022,20221125,8 George Street,CASTERTON,VIC,3311,-37.59216,141.389938,3,3,3,House,House,False,617.0,m2,False
2018045513,listing,/24-mt-gambier-road-casterton-vic-3311-2018045513,600000,is-sold,Sold by private treaty 23 Oct 2022,20221023,24 Mt Gambier Road,CASTERTON,VIC,3311,-37.5880775,141.389038,7,7,7,House,House,False,1059.0,m2,False
2018068443,listing,/69-mt-gambier-road-casterton-vic-3311-2018068443,525000,is-sold,Sold by private treaty 08 Dec 2022,20221208,69 Mt Gambier Road,CASTERTON,VIC,3311,-37.58958,141.381546,4,4,4,AcreageSemiRural,Acreage / Semi-Rural,True,1.8,ha,False
2018143607,listing,/27-peachey-street-casterton-vic-3311-2018143607,215000,is-sold,Sold by private treaty 16 Jan 2023,20230116,27 Peachey Street,CASTERTON,VIC,3311,-37.5933037,141.3913,3,3,3,House,House,False,0.0,m2,False
2018156804,listing,/102-jackson-street-casterton-vic-3311-2018156804,,is-sold,Sold by private treaty 08 Feb 2023,20230208,102 Jackson Street,CASTERTON,VIC,3311,-37.5909462,141.394165,3,3,3,House,House,False,0.0,m2,False
2018215691,listing,/45-mcpherson-casterton-vic-3311-2018215691,350000,is-sold,Sold by private treaty 06 Jan 2023,20230106,45 McPherson,CASTERTON,VIC,3311,-37.58404,141.402527,4,4,4,House,House,False,2950.0,m2,False
2018223941,listing,/24-mt-gambier-road-casterton-vic-3311-2018223941,600000,is-sold,Sold by private treaty 23 Oct 2022,20221023,24 Mt Gambier Road,CASTERTON,VIC,3311,-37.5880775,141.389038,7,7,7,House,House,False,1059.0,m2,False
2018224834,listing,/205-henty-street-casterton-vic-3311-2018224834,,is-sold,Sold by private treaty 02 Feb 2023,20230202,205 Henty Street,CASTERTON,VIC,3311,-37.5890465,141.397064,3,3,3,House,House,False,0.0,m2,False
2018305500,listing,/232-old-mount-gambier-road-casterton-vic-3311-2018305500,420000,is-sold,Sold by private treaty 16 Jan 2023,20230116,232 Old Mount Gambier Road,CASTERTON,VIC,3311,-37.5974159,141.394669,4,4,4,AcreageSemiRural,Acreage / Semi-Rural,True,1.83,ha,False
2014952042,listing,/168-henty-street-casterton-vic-3311-2014952042,400000,is-sold,Sold by private treaty 27 Jul 2021,20210727,168 Henty Street,CASTERTON,VIC,3311,-37.586586,141.400833,6,6,6,House,House,False,1468.0,m2,False
2016188108,listing,/53-mcpherson-street-casterton-vic-3311-2016188108,200000,is-sold,Sold by private treaty 30 Sep 2021,20210930,53 McPherson Street,CASTERTON,VIC,3311,-37.5831146,141.401779,3,3,3,House,House,False,746.0,m2,False
2016286088,listing,/50-jackson-street-casterton-vic-3311-2016286088,240000,is-sold,Sold by private treaty 31 Aug 2021,20210831,50 Jackson Street,CASTERTON,VIC,3311,-37.5883331,141.4001,3,3,3,House,House,False,562.0,m2,False
2016941604,listing,/19-jackson-street-casterton-vic-3311-2016941604,185000,is-sold,Sold by private treaty 30 Jun 2021,20210630,19 Jackson Street,CASTERTON,VIC,3311,-37.5864868,141.404526,3,3,3,House,House,False,467.0,m2,False
2016952890,listing,/3-leake-street-casterton-vic-3311-2016952890,320000,is-sold,Sold by private treaty 28 Sep 2021,20210928,3 Leake Street,CASTERTON,VIC,3311,-37.5858841,141.394577,4,4,4,House,House,False,2251.0,m2,False
2017128859,listing,/2-cowland-street-casterton-vic-3311-2017128859,35000,is-sold,Sold by private treaty 25 Aug 2021,20210825,2 Cowland Street,CASTERTON,VIC,3311,-37.5961342,141.395782,,,,House,House,False,827.0,m2,False
2017137777,listing,/12-white-street-casterton-vic-3311-2017137777,180000,is-sold,Sold by private treaty 14 Sep 2021,20210914,12 White Street,CASTERTON,VIC,3311,-37.58963,141.389648,2,2,2,House,House,False,797.0,m2,False
2017164112,listing,/15-carmichael-street-casterton-vic-3311-2017164112,340000,is-sold,Sold by private treaty 03 Dec 2021,20211203,15 Carmichael Street,CASTERTON,VIC,3311,-37.5918541,141.390717,4,4,4,House,House,False,2210.0,m2,False
2017190324,listing,/6-ross-street-casterton-vic-3311-2017190324,110000,is-sold,Sold by private treaty 06 Sep 2021,20210906,6 Ross Street,CASTERTON,VIC,3311,-37.587635,141.413956,3,3,3,House,House,False,1455.0,m2,False
2017219114,listing,/1-hutton-street-casterton-vic-3311-2017219114,160000,is-sold,Sold by private treaty 22 Sep 2021,20210922,1 Hutton Street,CASTERTON,VIC,3311,-37.5882568,141.400024,2,2,2,House,House,False,669.0,m2,False
2017261991,listing,/28-shiels-terrace-casterton-vic-3311-2017261991,395000,is-sold,Sold by private treaty 27 Oct 2021,20211027,28 Shiels Terrace,CASTERTON,VIC,3311,-37.5866966,141.414429,5,5,5,House,House,False,1435.0,m2,False
2017295477,listing,/545-casterton-penola-road-casterton-vic-3311-2017295477,1200000,is-sold,Sold by private treaty 17 Jan 2022,20220117,545 Casterton-Penola Road,CASTERTON,VIC,3311,-37.5861549,141.3088,3,3,3,Farm,Farm,True,40.0,ha,False
2017348406,listing,/22-jackson-st-casterton-vic-3311-2017348406,290000,is-sold,Sold by private treaty 11 Feb 2022,20220211,22 Jackson St,CASTERTON,VIC,3311,-37.58634,141.40387,5,5,5,House,House,False,0.0,m2,False
2017363851,listing,/16-robertson-street-casterton-vic-3311-2017363851,375000,is-sold,Sold by private treaty 17 Feb 2022,20220217,16 Robertson Street,CASTERTON,VIC,3311,-37.5839539,141.41304,3,3,3,House,House,False,4037.0,m2,False
2017427556,listing,/32-peachey-casterton-vic-3311-2017427556,360000,is-sold,Sold by private treaty 30 Nov 2021,20211130,32 Peachey,CASTERTON,VIC,3311,-37.5930977,141.39006,4,4,4,House,House,False,0.0,m2,False
2017446681,listing,/28-russell-street-casterton-vic-3311-2017446681,,is-sold,Sold by private treaty 07 Mar 2022,20220307,28 Russell Street,CASTERTON,VIC,3311,-37.5943565,141.393051,3,3,3,House,House,False,1803.0,m2,False
2017497239,listing,/51-kirby-street-casterton-vic-3311-2017497239,320000,is-sold,Sold by private treaty 07 Apr 2022,20220407,51 Kirby Street,CASTERTON,VIC,3311,-37.5854568,141.396332,2,2,2,House,House,False,1000.0,m2,False
2017524574,listing,/7-addison-street-casterton-vic-3311-2017524574,195000,is-sold,Sold by private treaty 02 Mar 2022,20220302,7 Addison Street,CASTERTON,VIC,3311,-37.58392,141.401886,3,3,3,House,House,False,2038.0,m2,False
2017555230,listing,/5-9-stark-street-casterton-vic-3311-2017555230,330000,is-sold,Sold by private treaty 07 Feb 2022,20220207,5-9 Stark Street,CASTERTON,VIC,3311,-37.5962029,141.394836,4,4,4,House,House,False,6100.0,m2,False
2017618726,listing,/12-hansen-road-casterton-vic-3311-2017618726,420000,is-sold,Sold by private treaty 12 Apr 2022,20220412,12 Hansen Road,CASTERTON,VIC,3311,-37.58743,141.387115,4,4,4,House,House,False,4074.0,m2,False
2013245876,listing,/28-30-mcevoy-street-casterton-vic-3311-2013245876,35000,is-sold,Sold by private treaty 30 Nov 2020,20201130,28-30 McEvoy Street,CASTERTON,VIC,3311,-37.5867,141.392075,,,,VacantLand,Vacant land,False,1700.0,m2,False
2013245883,listing,/14-15-oak-avenue-casterton-vic-3311-2013245883,,is-sold,Sold by private treaty 07 Dec 2020,20201207,14 & 15 Oak Avenue,CASTERTON,VIC,3311,-37.5887451,141.393646,,,,VacantLand,Vacant land,False,1864.0,m2,False
2016248634,listing,/54-russell-street-casterton-vic-3311-2016248634,140000,is-sold,Sold by private treaty 07 Dec 2020,20201207,54 Russell Street,CASTERTON,VIC,3311,-37.59203,141.393387,3,3,3,House,House,False,1380.0,m2,False
2016350491,listing,/36-murray-street-casterton-vic-3311-2016350491,115000,is-sold,Sold by private treaty 30 Nov 2020,20201130,36 Murray Street,CASTERTON,VIC,3311,-37.58514,141.401047,3,3,3,House,House,False,638.0,m2,False
2016382134,listing,/58-kirby-street-casterton-vic-3311-2016382134,192500,is-sold,Sold by private treaty 13 Nov 2020,20201113,58 Kirby Street,CASTERTON,VIC,3311,-37.5853539,141.395508,3,3,3,House,House,False,729.0,m2,False
2016386333,listing,/21-carmichael-street-casterton-vic-3311-2016386333,290000,is-sold,Sold by private treaty 30 Oct 2020,20201030,21 Carmichael Street,CASTERTON,VIC,3311,-37.5912437,141.390884,3,3,3,House,House,False,1520.0,m2,False
2016449337,listing,/62-robertson-street-casterton-vic-3311-2016449337,230000,is-sold,Sold by private treaty 11 Nov 2020,20201111,62 Robertson Street,CASTERTON,VIC,3311,-37.5887222,141.412582,3,3,3,House,House,False,892.0,m2,False
2016536421,listing,/106-jackson-street-casterton-vic-3311-2016536421,255000,is-sold,Sold by private treaty 02 Nov 2020,20201102,106 Jackson Street,CASTERTON,VIC,3311,-37.5910873,141.393784,2,2,2,House,House,False,748.0,m2,False
2016562171,listing,/173-henty-street-casterton-vic-3311-2016562171,170000,is-sold,Sold by private treaty 23 Jan 2021,20210123,173 Henty Street,CASTERTON,VIC,3311,-37.5872536,141.4005,3,3,3,House,House,False,609.0,m2,False
2016601302,listing,/9-marshalls-road-casterton-vic-3311-2016601302,235000,is-sold,Sold by private treaty 18 Feb 2021,20210218,9 Marshalls Road,CASTERTON,VIC,3311,-37.587925,141.382187,3,3,3,AcreageSemiRural,Acreage / Semi-Rural,True,1.72,ha,False
2016607214,listing,/10-mitchell-street-casterton-vic-3311-2016607214,160000,is-sold,Sold by private treaty 16 Apr 2021,20210416,10 Mitchell Street,CASTERTON,VIC,3311,-37.5845947,141.390884,3,3,3,House,House,False,1298.0,m2,False
2016667969,listing,/46-retreat-homestead-road-casterton-vic-3311-2016667969,574000,is-sold,Sold at auction 22 Jan 2021,20210122,46 Retreat Homestead Road,CASTERTON,VIC,3311,-37.5056725,141.389465,,3.0,,Farm,Farm,True,24.68,ha,False
2016702856,listing,/6-russell-street-casterton-vic-3311-2016702856,125000,is-sold,Sold by private treaty 18 Feb 2021,20210218,6 Russell Street,CASTERTON,VIC,3311,-37.5963135,141.392715,2,2,2,House,House,False,877.0,m2,False
2016704454,listing,/8-jackson-street-casterton-vic-3311-2016704454,220000,is-sold,Sold by private treaty 16 Apr 2021,20210416,8 Jackson Street,CASTERTON,VIC,3311,-37.58552,141.40535,3,3,3,House,House,False,815.0,m2,False
2016731645,listing,/182-henty-street-casterton-vic-3311-2016731645,225000,is-sold,Sold by private treaty 25 Feb 2021,20210225,182 Henty Street,CASTERTON,VIC,3311,-37.58716,141.3996,3,3,3,House,House,False,0.0,m2,False
2016816175,listing,/lots-45-46-old-mt-gambier-road-casterton-vic-3311-2016816175,,is-sold,Sold by private treaty 22 Mar 2021,20210322,Lots 45 & 46 Old Mt Gambier Road,CASTERTON,VIC,3311,-37.5946846,141.3751,,,,VacantLand,Vacant land,False,4117.0,m2,False
2016857389,listing,/324-bagallah-road-casterton-vic-3311-2016857389,,is-sold,Sold by private treaty 03 May 2021,20210503,324 Bagallah road,CASTERTON,VIC,3311,-37.6134453,141.388519,2,2,2,House,House,False,4046.0,m2,False
2016880221,listing,/7-silvester-street-casterton-vic-3311-2016880221,160000,is-sold,Sold by private treaty 19 May 2021,20210519,7 Silvester Street,CASTERTON,VIC,3311,-37.5876465,141.39473,3,3,3,House,House,False,810.0,m2,False
2016978878,listing,/14-roberts-street-casterton-vic-3311-2016978878,150000,is-sold,Sold by private treaty 27 May 2021,20210527,14 Roberts Street,CASTERTON,VIC,3311,-37.59417,141.390976,2,2,2,House,House,False,1032.0,m2,False
2016988673,listing,/23-mt-gambier-road-casterton-vic-3311-2016988673,350000,is-sold,Sold by private treaty 21 May 2021,20210521,23 Mt Gambier Road,CASTERTON,VIC,3311,-37.5889053,141.388763,4,4,4,House,House,False,969.0,m2,False
2013340214,listing,/5-oak-avenue-casterton-vic-3311-2013340214,18000,is-sold,Sold by private treaty 20 Jul 2020,20200720,5 Oak Avenue,CASTERTON,VIC,3311,-37.5879135,141.39357,,,,VacantLand,Vacant land,False,0.0,m2,False
2013841100,listing,/23-mcevoy-st-casterton-vic-3311-2013841100,215000,is-sold,Sold by private treaty 07 Dec 2018,20181207,23 McEvoy St,CASTERTON,VIC,3311,-37.58683,141.391647,4,4,4,House,House,False,4600.0,m2,False
2014423373,listing,/19-leake-street-casterton-vic-3311-2014423373,107000,is-sold,Sold by private treaty 23 Nov 2018,20181123,19 Leake Street,CASTERTON,VIC,3311,-37.5857,141.392731,1,1,1,House,House,False,819.0,m2,False
2014637566,listing,/5854-glenelg-highway-casterton-vic-3311-2014637566,590000,is-sold,Sold by private treaty 14 Jan 2019,20190114,5854 Glenelg Highway,CASTERTON,VIC,3311,-37.5751076,141.443085,4,4,4,Rural,Rural,True,24.28,ha,False
2014652156,listing,/5-mount-gambier-road-casterton-vic-3311-2014652156,259000,is-sold,Sold by private treaty 15 Nov 2018,20181115,5 Mount Gambier Road,CASTERTON,VIC,3311,-37.5890541,141.390762,4,4,4,House,House,False,0.0,m2,False
2014780277,listing,/-cnr-lamont-bahgallah-school-rds-casterton-vic-3311-2014780277,,is-sold,Sold by private treaty 11 Jan 2019,20190111,- Cnr Lamont & Bahgallah School Rds,CASTERTON,VIC,3311,-37.62146,141.378372,,,,Rural,Rural,True,57.66,ha,False
2014842861,listing,/25-hutton-street-casterton-vic-3311-2014842861,140000,is-sold,Sold by private treaty 07 Jan 2019,20190107,25 Hutton Street,CASTERTON,VIC,3311,-37.5858231,141.398041,2,2,2,House,House,False,643.0,m2,False
2014930448,listing,/7-tuckett-street-casterton-vic-3311-2014930448,185000,is-sold,Sold by private treaty 27 Nov 2018,20181127,7 Tuckett Street,CASTERTON,VIC,3311,-37.58848,141.403152,3,3,3,House,House,False,0.0,m2,False
2014952048,listing,/185-henty-street-casterton-vic-3311-2014952048,279000,is-sold,Sold by private treaty 24 Jan 2020,20200124,185 Henty Street,CASTERTON,VIC,3311,-37.5877724,141.399475,4,4,4,House,House,False,0.0,m2,False
2014952057,listing,/11-mount-gambier-road-casterton-vic-3311-2014952057,160000,is-sold,Sold by private treaty 13 Feb 2019,20190213,11 Mount Gambier Road,CASTERTON,VIC,3311,-37.5889854,141.389984,3,3,3,House,House,False,0.0,m2,False
2014952061,listing,/68-jackston-street-casterton-vic-3311-2014952061,300000,is-sold,Sold by private treaty 05 Apr 2019,20190405,68 Jackston Street,CASTERTON,VIC,3311,-37.5893631,141.397888,4,4,4,House,House,False,0.0,m2,False
2015424937,listing,/17-flynn-street-casterton-vic-3311-2015424937,12000,is-sold,Sold by private treaty 17 Jul 2020,20200717,17 Flynn Street,CASTERTON,VIC,3311,-37.58857,141.394424,,,,VacantLand,Vacant land,False,880.0,m2,False
2015478612,listing,/lot-19-mc-calmans-road-corndale-vic-3311-2015478612,320000,is-sold,Sold at auction 21 Oct 2019,20191021,Lot 19 Mc Calmans Road,CORNDALE,VIC,3311,-37.5127831,141.308151,,,,Farm,Farm,True,131.93,ha,False
2015481955,listing,/2-43-mount-gambier-road-casterton-vic-3311-2015481955,37000,is-sold,Sold by private treaty 24 Sep 2019,20190924,2/43 Mount Gambier Road,CASTERTON,VIC,3311,-37.5891266,141.384918,,1.0,,ApartmentUnitFlat,Apartment / Unit / Flat,False,0.0,m2,False
2015591997,listing,/20-russell-street-casterton-vic-3311-2015591997,174500,is-sold,Sold by private treaty 24 Sep 2019,20190924,20 Russell Street,CASTERTON,VIC,3311,-37.59512,141.392868,2,2,2,House,House,False,2000.0,m2,False
2015734819,listing,/199-casterton-dartmoor-road-casterton-vic-3311-2015734819,233967,is-sold,Sold by private treaty 12 Nov 2019,20191112,199 Casterton Dartmoor Road,CASTERTON,VIC,3311,-37.6339226,141.32962,3,3,3,Rural,Rural,True,381.82,ha,False
2015780786,listing,/39-russell-street-casterton-casterton-vic-3311-2015780786,125000,is-sold,Sold by private treaty 20 Nov 2019,20191120,39 Russell Street Casterton,CASTERTON,VIC,3311,-37.59308,141.392792,2,2,2,House,House,False,975.0,m2,False
2015863699,listing,/154-henty-street-casterton-vic-3311-2015863699,90000,is-sold,Sold by private treaty 20 Jul 2020,20200720,154 Henty Street,CASTERTON,VIC,3311,-37.58593,141.402115,2,2,2,House,House,False,1015.0,m2,False
2016164504,listing,/17-robertson-street-casterton-vic-3311-2016164504,187000,is-sold,Sold by private treaty 27 Mar 2020,20200327,17 Robertson Street,CASTERTON,VIC,3311,-37.584137,141.413834,3,3,3,House,House,False,1037.0,m2,False
2016426128,listing,/1-hargreaves-court-casterton-vic-3311-2016426128,327000,is-sold,Sold by private treaty 30 Sep 2020,20200930,1 Hargreaves Court,CASTERTON,VIC,3311,-37.5912323,141.396149,4,4,4,House,House,False,0.0,m2,False
2013769841,listing,/15-mcpherson-street-casterton-vic-3311-2013769841,285000,is-sold,Sold by private treaty 12 Apr 2018,20180412,15 McPherson Street,CASTERTON,VIC,3311,-37.5870819,141.405029,3,3,3,House,House,False,567.0,m2,False
2013800757,listing,/64-ford-luers-rd-casterton-vic-3311-2013800757,970000,is-sold,Sold by private treaty 06 Jun 2018,20180606,64 Ford-Luers Rd,CASTERTON,VIC,3311,-37.5668526,141.4925,4,4,4,Rural,Rural,False,0.0,m2,False
2013815116,listing,/99-jackson-street-casterton-vic-3311-2013815116,33000,is-sold,Sold by private treaty 04 Sep 2018,20180904,99 Jackson Street,CASTERTON,VIC,3311,-37.5911179,141.394943,,,,VacantLand,Vacant land,False,1185.0,m2,False
2013892060,listing,/51-kirby-street-casterton-vic-3311-2013892060,,is-sold,Sold by private treaty 10 Jan 2018,20180110,51 Kirby Street,CASTERTON,VIC,3311,-37.5854568,141.396332,2,2,2,House,House,False,0.0,m2,False
2014068892,listing,/164-henty-street-casterton-vic-3311-2014068892,,is-sold,Sold by private treaty 01 Feb 2018,20180201,164 Henty Street,CASTERTON,VIC,3311,-37.586483,141.401031,,1.0,1.0,House,House,False,523.0,m2,False
2014080454,listing,/6-ross-street-casterton-vic-3311-2014080454,80000,is-sold,Sold by private treaty 07 Feb 2018,20180207,6 Ross Street,CASTERTON,VIC,3311,-37.5875549,141.414,3,3,3,House,House,False,0.0,m2,False
2014117141,listing,/28-sheils-terrace-casterton-vic-3311-2014117141,287500,is-sold,Sold by private treaty 18 Apr 2018,20180418,28 Sheils Terrace,CASTERTON,VIC,3311,-37.5865974,141.414383,5,5,5,House,House,False,0.0,m2,False
2014141522,listing,/16-mount-gambier-road-casterton-vic-3311-2014141522,195000,is-sold,Sold by private treaty 20 Apr 2018,20180420,16 Mount Gambier Road,CASTERTON,VIC,3311,-37.5882645,141.389725,3,3,3,House,House,False,0.0,m2,False
2014215572,listing,/26-mcevoy-street-casterton-vic-3311-2014215572,170000,is-sold,Sold by private treaty 18 Apr 2018,20180418,26 McEvoy Street,CASTERTON,VIC,3311,-37.5864525,141.3921,2,2,2,House,House,False,1765.0,m2,False
2014224739,listing,/175-henty-street-casterton-vic-3311-2014224739,115000,is-sold,Sold by private treaty 09 Apr 2018,20180409,175 Henty Street,CASTERTON,VIC,3311,-37.587307,141.400391,3,3,3,House,House,False,572.0,m2,False
2014236522,listing,/202-henty-street-casterton-vic-3311-2014236522,132500,is-sold,Sold by private treaty 11 Sep 2018,20180911,202 Henty Street,CASTERTON,VIC,3311,-37.5882034,141.397568,3,3,3,House,House,False,1015.0,m2,False
2014264296,listing,/105-glendhu-road-casterton-vic-3311-2014264296,,is-sold,Sold by private treaty 18 Jun 2018,20180618,105 Glendhu Road,CASTERTON,VIC,3311,-37.562233,141.3404,,,,Rural,Rural,True,145.27,ha,False
2014378783,listing,/39-peachey-street-casterton-vic-3311-2014378783,,is-sold,Sold by private treaty 11 Oct 2018,20181011,39 Peachey Street,CASTERTON,VIC,3311,-37.5934143,141.389954,,,2.0,VacantLand,Vacant land,False,0.0,m2,False
2014420450,listing,/16-township-road-casterton-vic-3311-2014420450,,is-sold,Sold by private treaty 31 Jul 2018,20180731,16 Township Road,CASTERTON,VIC,3311,,,4,4,4,House,House,False,0.0,m2,False
2014425594,listing,/22-addison-street-casterton-vic-3311-2014425594,130000,is-sold,Sold by private treaty 26 Jun 2018,20180626,22 Addison Street,CASTERTON,VIC,3311,-37.58423,141.400391,3,3,3,House,House,False,0.0,m2,False
2014542888,listing,/4974-glenelg-highway-casterton-vic-3311-2014542888,210000,is-sold,Sold by private treaty 17 Aug 2018,20180817,4974 Glenelg Highway,CASTERTON,VIC,3311,-37.60297,141.356964,3,3,3,House,House,False,0.0,m2,False
2014548541,listing,/39-kellys-road-casterton-vic-3311-2014548541,,is-sold,Sold prior to auction 03 Sep 2018,20180903,39 Kellys Road,CASTERTON,VIC,3311,-37.61291,141.384567,,,,Rural,Rural,True,99.96,ha,False
2014573472,listing,/2-peachey-street-casterton-vic-3311-2014573472,125000,is-sold,Sold by private treaty 10 Sep 2018,20180910,2 Peachey Street,CASTERTON,VIC,3311,-37.5933571,141.395218,2,2,2,House,House,False,638.0,m2,False
2014601335,listing,/4-10-little-koch-street-casterton-vic-3311-2014601335,150000,is-sold,Sold by private treaty 01 Oct 2018,20181001,4-10 Little Koch Street,CASTERTON,VIC,3311,-37.58803,141.414154,3,3,3,House,House,False,0.0,m2,False
2014642099,listing,/59-addison-street-casterton-vic-3311-2014642099,140000,is-sold,Sold by private treaty 04 Oct 2018,20181004,59 Addison Street,CASTERTON,VIC,3311,-37.58672,141.396286,3,3,3,House,House,False,0.0,m2,False
2012497708,listing,/26-mount-gambier-road-casterton-vic-3311-2012497708,180000,is-sold,Sold by private treaty 05 Oct 2016,20161005,26 Mount Gambier Road,CASTERTON,VIC,3311,-37.588028,141.38884,4,4,4,House,House,True,10000.0,m2,False
2013173765,listing,/24-robertson-street-casterton-vic-3311-2013173765,,is-sold,Sold by private treaty 13 Dec 2016,20161213,24 Robertson Street,CASTERTON,VIC,3311,-37.5846,141.4128,3,3,3,House,House,False,0.0,m2,False
2013204535,listing,/6023-portland-casterton-road-casterton-vic-3311-2013204535,,is-sold,Sold by private treaty 23 Dec 2016,20161223,6023 Portland Casterton Road,CASTERTON,VIC,3311,-37.60756,141.443085,3,3,3,House,House,False,0.0,m2,False
2013217543,listing,/43-jackson-street-casterton-vic-3311-2013217543,,is-sold,Sold by private treaty 23 Aug 2017,20170823,43 Jackson Street,CASTERTON,VIC,3311,-37.5881462,141.401291,3,3,3,House,House,False,0.0,m2,False
2013217573,listing,/25-mcevoy-street-casterton-vic-3311-2013217573,,is-sold,Sold by private treaty 28 Oct 2016,20161028,25 McEvoy Street,CASTERTON,VIC,3311,-37.5872345,141.3916,4,4,4,House,House,False,0.0,m2,False
2013245862,listing,/128-bahgallah-road-casterton-vic-3311-2013245862,,is-sold,Sold by private treaty 06 Oct 2017,20171006,128 Bahgallah Road,CASTERTON,VIC,3311,-37.59685,141.396545,2,2,2,House,House,False,0.0,m2,False
2013245872,listing,/459-glenelg-highway-casterton-vic-3311-2013245872,,is-sold,Sold by private treaty 01 Aug 2017,20170801,459 Glenelg Highway,CASTERTON,VIC,3311,-37.5993042,141.361542,3,3,3,Rural,Rural,True,10.79,ha,False
2013245878,listing,/11-queen-street-casterton-vic-3311-2013245878,,is-sold,Sold by private treaty 16 Nov 2017,20171116,11 Queen Street,CASTERTON,VIC,3311,-37.5923,141.3948,3,3,3,House,House,False,0.0,m2,False
2013245879,listing,/162-old-mount-gambier-road-casterton-vic-3311-2013245879,,is-sold,Sold by private treaty 16 Dec 2016,20161216,162 Old Mount Gambier Road,CASTERTON,VIC,3311,-37.5965538,141.3863,3,3,3,House,House,False,0.0,m2,False
2013253854,listing,/182-henty-street-casterton-vic-3311-2013253854,,is-sold,Sold by private treaty 06 Oct 2017,20171006,182 Henty Street,CASTERTON,VIC,3311,-37.587204,141.399628,3,3,3,House,House,False,0.0,m2,False
2013348821,listing,/777-casterton-naracoorte-road-casterton-vic-3311-2013348821,,is-sold,Sold by private treaty 24 Aug 2017,20170824,777 Casterton Naracoorte Road,CASTERTON,VIC,3311,-37.5355377,141.383682,3,3,3,Rural,Rural,False,8094.0,m2,False
2013594015,listing,/101-jackson-street-casterton-vic-3311-2013594015,,is-sold,Sold by private treaty 31 May 2017,20170531,101 Jackson Street,CASTERTON,VIC,3311,-37.5912781,141.394531,2,2,2,House,House,False,1300.0,m2,False
2013599500,listing,/31-mckinlay-street-casterton-vic-3311-2013599500,,is-sold,Sold by private treaty 01 Aug 2017,20170801,31 McKinlay Street,CASTERTON,VIC,3311,-37.58429,141.39978,3,3,3,House,House,False,1395.0,m2,False
2013709230,listing,/415-ford-luers-road-casterton-vic-3311-2013709230,,is-sold,Sold by private treaty 03 Nov 2017,20171103,415 Ford-Luers Road,CASTERTON,VIC,3311,-37.5921478,141.497467,4,4,4,Rural,Rural,False,0.0,m2,False
2013745180,listing,/11-knights-lane-casterton-vic-3311-2013745180,,is-sold,Sold by private treaty 01 Aug 2017,20170801,11 Knights Lane,CASTERTON,VIC,3311,-37.5971832,141.397812,5,5,5,House,House,False,4074.0,m2,False
2013749338,listing,/200-henty-st-casterton-vic-3311-2013749338,,is-sold,Sold by private treaty 28 Aug 2017,20170828,200 Henty St,CASTERTON,VIC,3311,-37.5881,141.3977,4,4,4,Townhouse,Townhouse,False,0.0,m2,False
2013798474,listing,/-bahgallah-road-casterton-vic-3311-2013798474,,is-sold,Sold at auction 08 Sep 2017,20170908,- Bahgallah Road,CASTERTON,VIC,3311,-37.6177,141.388382,,,,Rural,Rural,True,44.5,ha,False
2013871813,listing,/233-henty-street-casterton-vic-3311-2013871813,,is-sold,Sold by private treaty 16 Oct 2017,20171016,233 Henty Street,CASTERTON,VIC,3311,-37.59026,141.394073,4,4,4,House,House,False,0.0,m2,False
2013977780,listing,/5-mitchell-street-casterton-vic-3311-2013977780,184000,is-sold,Sold by private treaty 19 Dec 2017,20171219,5 Mitchell Street,CASTERTON,VIC,3311,-37.585,141.390839,3,3,3,House,House,False,0.0,m2,False
2014066344,listing,/39-mt-gambier-road-casterton-vic-3311-2014066344,,is-sold,Sold by private treaty 09 Feb 2017,20170209,39 Mt Gambier Road,CASTERTON,VIC,3311,-37.5889931,141.385437,2,2,2,House,House,False,1073.0,m2,False
2010369468,listing,/9-queen-street-casterton-vic-3311-2010369468,365000,is-sold,Sold by private treaty 12 Oct 2015,20151012,9 Queen Street,CASTERTON,VIC,3311,-37.59231,141.394531,4,4,4,House,House,False,0.0,m2,False
2010887229,listing,/15-george-street-casterton-vic-3311-2010887229,147500,is-sold,Sold by private treaty 02 Jun 2015,20150602,15 George Street,CASTERTON,VIC,3311,-37.5926743,141.388763,5,5,5,House,House,False,0.0,m2,False
2010909055,listing,/425-patchings-road-casterton-vic-3311-2010909055,,is-sold,Sold by private treaty 16 Aug 2016,20160816,425 Patchings Road,CASTERTON,VIC,3311,-37.584568,141.405228,,,,Rural,Rural,True,48.07,ha,False
2010976645,listing,/31-sheils-tce-casterton-vic-3311-2010976645,100000,is-sold,Sold by private treaty 09 Jun 2015,20150609,31 Sheils Tce,CASTERTON,VIC,3311,-37.5851326,141.415176,3,3,3,House,House,False,0.0,m2,False
2011240991,listing,/92-jackson-street-casterton-vic-3311-2011240991,,is-sold,Sold by private treaty 18 Jun 2015,20150618,92 Jackson Street,CASTERTON,VIC,3311,-37.59052,141.395218,3,3,3,House,House,False,0.0,m2,False
2011311038,listing,/26-mcevoy-street-casterton-vic-3311-2011311038,120000,is-sold,Sold by private treaty 16 Aug 2015,20150816,26 McEvoy Street,CASTERTON,VIC,3311,-37.5865936,141.391891,3,3,3,House,House,False,0.0,m2,False
2011372711,listing,/6-mitchell-street-casterton-vic-3311-2011372711,171500,is-sold,Sold by private treaty 02 Feb 2016,20160202,6 Mitchell Street,CASTERTON,VIC,3311,-37.58448,141.391418,3,3,3,House,House,False,0.0,m2,False
2011393118,listing,/319-bella-vista-road-casterton-vic-3311-2011393118,190000,is-sold,Sold by private treaty 16 Jun 2015,20150616,319 Bella Vista Road,CASTERTON,VIC,3311,-37.52876,141.5366,4,4,4,Rural,Rural,False,0.0,m2,False
2011566827,listing,/-springbank-road-casterton-vic-3311-2011566827,,is-sold,Sold by private treaty 07 Apr 2015,20150407,- Springbank Road,CASTERTON,VIC,3311,-37.6011734,141.374069,,,,Rural,Rural,True,53.01,ha,False
2011678843,listing,/1240-satimer-road-wando-vale-casterton-vic-3311-2011678843,,is-sold,Sold by private treaty 01 May 2015,20150501,"1240 Satimer Road, Wando Vale",CASTERTON,VIC,3311,-37.51571,141.474274,4,4,4,Rural,Rural,False,0.0,m2,False
2011754977,listing,/162-old-mount-gambier-road-casterton-vic-3311-2011754977,80000,is-sold,Sold by private treaty 19 Oct 2015,20151019,162 Old Mount Gambier Road,CASTERTON,VIC,3311,-37.59703,141.386322,3,3,3,House,House,False,0.0,m2,False
2011959963,listing,/22-george-street-casterton-vic-3311-2011959963,85000,is-sold,Sold by private treaty 03 Aug 2015,20150803,22 George Street,CASTERTON,VIC,3311,-37.5918846,141.388809,3,3,3,House,House,False,1014.0,m2,False
2012112096,listing,/1-hutton-street-casterton-vic-3311-2012112096,,is-sold,Sold by private treaty 01 Sep 2015,20150901,1 Hutton Street,CASTERTON,VIC,3311,-37.5883369,141.399933,2,2,2,House,House,False,0.0,m2,False
2012319593,listing,/47-addison-street-casterton-vic-3311-2012319593,125000,is-sold,Sold by private treaty 23 Oct 2015,20151023,47 Addison Street,CASTERTON,VIC,3311,-37.58627,141.397552,3,3,3,House,House,False,0.0,m2,False
2012348006,listing,/28-russell-street-casterton-vic-3311-2012348006,165000,is-sold,Sold by private treaty 26 Apr 2016,20160426,28 Russell Street,CASTERTON,VIC,3311,-37.5944252,141.393417,3,3,3,House,House,False,0.0,m2,False
2012349036,listing,/30-mount-gambier-road-casterton-vic-3311-2012349036,360000,is-sold,Sold by private treaty 11 Dec 2015,20151211,30 Mount Gambier Road,CASTERTON,VIC,3311,-37.58744,141.388367,4,4,4,House,House,False,0.0,m2,False
2012469777,listing,/391-corndale-school-road-casterton-vic-3311-2012469777,120000,is-sold,Sold by private treaty 09 Feb 2016,20160209,391 Corndale School Road,CASTERTON,VIC,3311,-37.5592422,141.318817,2,2,2,Rural,Rural,True,4.05,ha,False
2012695856,listing,/131-mount-gambier-road-casterton-vic-3311-2012695856,250000,is-sold,Sold by private treaty 28 Apr 2016,20160428,131 Mount Gambier Road,CASTERTON,VIC,3311,-37.59062,141.3738,3,3,3,House,House,False,0.0,m2,False
2012816642,listing,/160-koch-road-nareen-via-casterton-vic-3311-2012816642,338000,is-sold,Sold by private treaty 29 Jul 2016,20160729,"160 Koch Road, Nareen via",CASTERTON,VIC,3311,-37.584568,141.405228,3,3,3,House,House,False,0.0,m2,False
2012909154,listing,/638-paschendale-road-paschendale-casterton-vic-3311-2012909154,,is-sold,Sold by private treaty 10 Aug 2016,20160810,"638 Paschendale Road, Paschendale",CASTERTON,VIC,3311,-37.5833321,141.4,4,4,4,Rural,Rural,True,47.3,ha,False
2009313441,listing,/875-casterton-naracoorte-road-casterton-vic-3311-2009313441,197500,is-sold,Sold by private treaty 18 Sep 2013,20130918,875 Casterton-Naracoorte Road,CASTERTON,VIC,3311,-37.5586166,141.378357,3,3,3,Rural,Rural,False,0.0,m2,False
2009339700,listing,/25-mckinlay-street-casterton-vic-3311-2009339700,76000,is-sold,Sold by private treaty 10 Jan 2014,20140110,25 McKinlay Street,CASTERTON,VIC,3311,-37.5848236,141.40004,3,3,3,House,House,False,0.0,m2,False
2009542962,listing,/16-shiels-tce-casterton-vic-3311-2009542962,,is-sold,Sold by private treaty 25 Mar 2014,20140325,16 Shiels Tce,CASTERTON,VIC,3311,-37.5871239,141.412231,,,,VacantLand,Vacant land,False,0.0,m2,False
2009904722,listing,/19-21-flynn-street-casterton-vic-3311-2009904722,,is-sold,Sold by private treaty 23 Jun 2014,20140623,19/21 Flynn Street,CASTERTON,VIC,3311,-37.58844,141.3942,,,,VacantLand,Vacant land,False,0.0,m2,False
2010306086,listing,/30-shiels-terrace-casterton-vic-3311-2010306086,56000,is-sold,Sold by private treaty 12 Jun 2013,20130612,30 Shiels Terrace,CASTERTON,VIC,3311,-37.58664,141.4147,2,2,2,House,House,False,0.0,m2,False
2010493336,listing,/220-henty-street-casterton-vic-3311-2010493336,78000,is-sold,Sold at auction 10 Jun 2013,20130610,220 Henty Street,CASTERTON,VIC,3311,-37.5891037,141.394623,3,3,3,House,House,False,0.0,m2,False
2010760727,listing,/66-robertson-street-casterton-vic-3311-2010760727,98000,is-sold,Sold by private treaty 07 Apr 2014,20140407,66 Robertson Street,CASTERTON,VIC,3311,-37.5900841,141.412155,3,3,3,House,House,False,0.0,m2,False
2010805918,listing,/5-silvester-street-casterton-vic-3311-2010805918,,is-sold,Sold by private treaty 01 Aug 2014,20140801,5 Silvester Street,CASTERTON,VIC,3311,-37.5877151,141.394913,5,5,5,House,House,False,0.0,m2,False
2010807195,listing,/199-casterton-dartmoor-road-casterton-vic-3311-2010807195,957386,is-sold,Sold by private treaty 05 Feb 2014,20140205,199 Casterton Dartmoor Road,CASTERTON,VIC,3311,-37.6324768,141.330963,3,3,3,Rural,Rural,False,0.0,m2,False
2010889195,listing,/391-corndale-school-road-casterton-vic-3311-2010889195,110000,is-sold,Sold by private treaty 24 Dec 2013,20131224,391 Corndale School Road,CASTERTON,VIC,3311,-37.5592422,141.318817,2,2,2,Rural,Rural,True,4.05,ha,False
2010899910,listing,/11-gazzard-street-casterton-vic-3311-2010899910,145000,is-sold,Sold by private treaty 09 Dec 2014,20141209,11 Gazzard Street,CASTERTON,VIC,3311,-37.5939827,141.394363,3,3,3,House,House,False,0.0,m2,False
2011020098,listing,/231-carapook-road-casterton-vic-3311-2011020098,103000,is-sold,Sold by private treaty 08 Dec 2014,20141208,231 Carapook Road,CASTERTON,VIC,3311,-37.550724,141.536652,3,3,3,Rural,Rural,False,0.0,m2,False
2011070248,listing,/1240-satimer-road-casterton-vic-3311-2011070248,325000,is-sold,Sold by private treaty 07 Jul 2014,20140707,1240 Satimer Road,CASTERTON,VIC,3311,-37.51571,141.474274,4,4,4,Rural,Rural,False,0.0,m2,False
2011095812,listing,/28-mount-gambier-road-casterton-vic-3311-2011095812,100000,is-sold,Sold by private treaty 16 Aug 2014,20140816,28 Mount Gambier Road,CASTERTON,VIC,3311,-37.5879478,141.38858,2,2,2,House,House,False,0.0,m2,False
2011202832,listing,/432-beddells-road-casterton-vic-3311-2011202832,1122478,is-sold,Sold by private treaty 11 Jul 2014,20140711,432 Beddells Road,CASTERTON,VIC,3311,-37.5229568,141.327942,4,4,4,Rural,Rural,True,275.19,ha,False
2011303876,listing,/15-addison-street-casterton-vic-3311-2011303876,75000,is-sold,Sold by private treaty 14 Nov 2014,20141114,15 Addison Street,CASTERTON,VIC,3311,-37.5843849,141.4012,3,3,3,House,House,False,0.0,m2,False
2011424662,listing,/15-silvester-street-casterton-vic-3311-2011424662,,is-sold,Sold by private treaty 05 Dec 2014,20141205,15 Silvester Street,CASTERTON,VIC,3311,-37.58734,141.394043,3,3,3,House,House,False,0.0,m2,False
2011489928,listing,/1-mount-gambier-road-casterton-vic-3311-2011489928,135000,is-sold,Sold by private treaty 25 Nov 2014,20141125,1 Mount Gambier Road,CASTERTON,VIC,3311,-37.5892143,141.391281,4,4,4,House,House,False,0.0,m2,False
2011504125,listing,/162-old-mount-gambier-road-casterton-vic-3311-2011504125,,is-sold,Sold by private treaty 22 Jan 2015,20150122,162 Old Mount Gambier Road,CASTERTON,VIC,3311,-37.59703,141.386322,3,3,3,House,House,False,0.0,m2,False
2011675175,listing,/505-ferry-hills-road-wando-vale-casterton-vic-3311-2011675175,,is-sold,Sold by private treaty 04 Mar 2015,20150304,"505 Ferry Hills Road, Wando Vale",CASTERTON,VIC,3311,-37.5342178,141.446518,3,3,3,Rural,Rural,True,5.26,ha,False
2007999450,listing,/84-jackson-street-casterton-vic-3311-2007999450,124900,is-sold,Sold by private treaty 10 May 2010,20100510,84 Jackson Street,CASTERTON,VIC,3311,-37.59023,141.3963,3,3,3,House,House,False,0.0,m2,False
2009032432,listing,/64-jackson-street-casterton-vic-3311-2009032432,125000,is-sold,Sold by private treaty 22 Nov 2011,20111122,64 Jackson Street,CASTERTON,VIC,3311,-37.58914,141.398529,3,3,3,House,House,False,0.0,m2,False
2009032446,listing,/42-jackson-street-casterton-vic-3311-2009032446,136000,is-sold,Sold by private treaty 17 Nov 2011,20111117,42 Jackson Street,CASTERTON,VIC,3311,-37.5876732,141.4011,2,2,2,House,House,False,0.0,m2,False
2009032450,listing,/11-widdicombe-street-casterton-vic-3311-2009032450,108000,is-sold,Sold by private treaty 29 Jun 2011,20110629,11 Widdicombe Street,CASTERTON,VIC,3311,-37.58465,141.415741,3,3,3,House,House,False,0.0,m2,False
2009032454,listing,/105-mt-gambier-road-casterton-vic-3311-2009032454,450000,is-sold,Sold by private treaty 02 Aug 2012,20120802,105 Mt Gambier Road,CASTERTON,VIC,3311,-37.5907021,141.376511,3,3,3,House,House,False,0.0,m2,False
2009032455,listing,/50-jackson-street-casterton-vic-3311-2009032455,,is-sold,Sold by private treaty 15 May 2012,20120515,50 Jackson Street,CASTERTON,VIC,3311,-37.5884438,141.400009,2,2,2,House,House,False,0.0,m2,False
2009074335,listing,/1-162-henty-street-casterton-vic-3311-2009074335,130000,is-sold,Sold by private treaty 07 Jun 2012,20120607,1/162 Henty Street,CASTERTON,VIC,3311,-37.5863037,141.401077,2,2,2,ApartmentUnitFlat,Apartment / Unit / Flat,False,0.0,m2,False
2009221129,listing,/6244-portland-casterton-road-casterton-vic-3311-2009221129,90000,is-sold,Sold by private treaty 21 May 2013,20130521,6244 Portland Casterton Road,CASTERTON,VIC,3311,-37.590847,141.432617,3,3,3,Rural,Rural,True,4.05,ha,False
2009255667,listing,/-coulsens-road-casterton-vic-3311-2009255667,,is-sold,Sold at auction 07 Nov 2011,20111107,- Coulsens Road,CASTERTON,VIC,3311,-37.5796356,141.398331,,,,Rural,Rural,True,14.57,ha,False
2009318537,listing,/178-henty-street-casterton-vic-3311-2009318537,105000,is-sold,Sold at auction 02 Dec 2011,20111202,178 Henty Street,CASTERTON,VIC,3311,-37.586937,141.3998,2,2,2,House,House,False,0.0,m2,False
2009595609,listing,/30-russell-street-casterton-vic-3311-2009595609,88000,is-sold,Sold at auction 16 May 2012,20120516,30 Russell Street,CASTERTON,VIC,3311,-37.59425,141.393448,3,3,3,House,House,False,0.0,m2,False
2009623236,listing,/3-robertson-street-casterton-vic-3311-2009623236,140000,is-sold,Sold by private treaty 24 Aug 2012,20120824,3 Robertson Street,CASTERTON,VIC,3311,-37.5829353,141.414169,3,3,3,House,House,False,0.0,m2,False
2009731708,listing,/59-addison-street-casterton-vic-3311-2009731708,85000,is-sold,Sold by private treaty 16 Oct 2012,20121016,59 ADDISON STREET,CASTERTON,VIC,3311,-37.5867577,141.396332,3,3,3,House,House,False,0.0,m2,False
2010134549,listing,/984-ridge-road-henty-vic-via-casterton-vic-3311-2010134549,,is-sold,Sold at auction 15 Dec 2012,20121215,"984 Ridge Road, Henty (Vic)via",CASTERTON,VIC,3311,-37.584568,141.405228,2,2,2,House,House,False,0.0,m2,False
2010207747,listing,/1-hutton-street-casterton-vic-3311-2010207747,52000,is-sold,Sold by private treaty 06 Feb 2013,20130206,1 Hutton Street,CASTERTON,VIC,3311,-37.5883369,141.399933,2,2,2,House,House,False,0.0,m2,False
