id,listingType,url,price,tagClassName,tagText,date,street,suburb,state,postcode,lat,lng,beds,baths,parking,propertyType,propertyTypeFormatted,isRural,landSize,landUnit,isRetirement
2018333371,listing,/72-wireless-drive-aintree-vic-3336-2018333371,632000,is-sold,Sold by private treaty 28 Feb 2023,20230228,72 Wireless Drive,AINTREE,VIC,3336,-37.72082,144.668228,3,3,3,Townhouse,Townhouse,False,269,m2,False
2018274430,listing,/65-curtin-drive-deanside-vic-3336-2018274430,790000,is-sold,Sold by private treaty 27 Feb 2023,20230227,65 Curtin Drive,DEANSIDE,VIC,3336,-37.726284,144.7061,4,4,4,House,House,False,0,m2,False
2018336953,listing,/37-verona-crescent-fraser-rise-vic-3336-2018336953,700000,is-sold,Sold at auction 27 Feb 2023,20230227,37 Verona Crescent,FRASER RISE,VIC,3336,-37.69218,144.715149,4,4,4,House,House,False,0,m2,False
2018349119,listing,/4-bramble-way-aintree-vic-3336-2018349119,585000,is-sold,Sold by private treaty 03 Mar 2023,20230303,4 Bramble Way,AINTREE,VIC,3336,-37.7171135,144.677231,3,3,3,House,House,False,0,m2,False
2018351056,listing,/19-moore-drive-fraser-rise-vic-3336-2018351056,735000,is-sold,Sold prior to auction 03 Mar 2023,20230303,19 Moore Drive,FRASER RISE,VIC,3336,-37.71936,144.728119,3,3,3,House,House,False,412,m2,False
2017828420,listing,/41-wright-circuit-fraser-rise-vic-3336-2017828420,560000,is-sold,Sold by private treaty 04 Mar 2023,20230304,41 Wright Circuit,FRASER RISE,VIC,3336,-37.70245,144.7251,3,3,3,House,House,False,0,m2,False
2018339013,listing,/6-bottlebrush-road-aintree-vic-3336-2018339013,650000,is-sold,Sold at auction 04 Mar 2023,20230304,6 Bottlebrush Road,AINTREE,VIC,3336,-37.72357,144.65979,4,2,2,House,House,False,349,m2,False
2018355707,listing,/41-foal-circuit-fraser-rise-vic-3336-2018355707,368000,is-sold,Sold by private treaty 07 Mar 2023,20230307,41 Foal Circuit,FRASER RISE,VIC,3336,-37.7040634,144.7168,,,,VacantLand,Vacant land,False,350,m2,False
2018322907,listing,/15-luxor-drive-fraser-rise-vic-3336-2018322907,765000,is-sold,Sold by private treaty 06 Mar 2023,20230306,15 Luxor Drive,FRASER RISE,VIC,3336,-37.71951,144.725266,4,2,2,House,House,False,425,m2,False
2018354989,listing,/4-broom-road-aintree-vic-3336-2018354989,741000,is-sold,Sold at auction 07 Mar 2023,20230307,4 Broom Road,AINTREE,VIC,3336,-37.7210846,144.6774,4,2,2,House,House,False,392,m2,False
2018197858,listing,/16-hutton-street-deanside-vic-3336-2018197858,655000,is-sold,Sold by private treaty 07 Mar 2023,20230307,16 Hutton Street,DEANSIDE,VIC,3336,-37.7400627,144.6923,4,2,2,House,House,False,0,m2,False
2017759778,listing,/deanside-vic-3336-2017759778,,is-sold,Sold by private treaty 08 Mar 2023,20230308,,DEANSIDE,VIC,3336,-37.74103,144.7012,,,,VacantLand,Vacant land,False,350,m2,False
2018231805,listing,/deanside-vic-3336-2018231805,,is-sold,Sold by private treaty 08 Mar 2023,20230308,,DEANSIDE,VIC,3336,-37.74103,144.7012,,,,VacantLand,Vacant land,False,375,m2,False
2018307776,listing,/18-miro-way-fraser-rise-vic-3336-2018307776,810000,is-sold,Sold by private treaty 08 Mar 2023,20230308,18 Miro Way,FRASER RISE,VIC,3336,-37.7198029,144.729858,3,2,2,House,House,False,491,m2,False
2018016209,listing,/38-arbourton-avenue-aintree-vic-3336-2018016209,952000,is-sold,Sold by private treaty 23 Feb 2023,20230223,38 Arbourton Avenue,AINTREE,VIC,3336,-37.7219925,144.65773,5,3,2,House,House,False,456,m2,False
2018096897,listing,/16-goulding-drive-fraser-rise-vic-3336-2018096897,1050000,is-sold,Sold by private treaty 01 Mar 2023,20230301,16 Goulding Drive,FRASER RISE,VIC,3336,-37.6994362,144.725357,4,2,6,House,House,False,742,m2,False
2018276377,listing,/103-walkside-boulevard-fraser-rise-vic-3336-2018276377,373000,is-sold,Sold by private treaty 24 Feb 2023,20230224,103 Walkside Boulevard,FRASER RISE,VIC,3336,-37.6993446,144.717178,,,,VacantLand,Vacant land,False,400,m2,False
2018281012,listing,/11-bray-street-deanside-vic-3336-2018281012,730000,is-sold,Sold by private treaty 24 Feb 2023,20230224,11 Bray Street,DEANSIDE,VIC,3336,-37.733387,144.697266,4,2,2,House,House,False,0,m2,False
2018287150,listing,/50-farrier-boulevard-fraser-rise-vic-3336-2018287150,435000,is-sold,Sold by private treaty 02 Mar 2023,20230302,50 Farrier Boulevard,FRASER RISE,VIC,3336,-37.7029953,144.71489,,,,VacantLand,Vacant land,False,448,m2,False
2018329820,listing,/756-neale-road-deanside-vic-3336-2018329820,512000,is-sold,Sold by private treaty 24 Feb 2023,20230224,756 Neale Road,DEANSIDE,VIC,3336,-37.7400627,144.6923,3,2,1,House,House,False,0,m2,False
2017840140,listing,/4-orbis-avenue-fraser-rise-vic-3336-2017840140,940000,is-sold,Sold by private treaty 15 Feb 2023,20230215,4 Orbis Avenue,FRASER RISE,VIC,3336,-37.721077,144.731659,4,2,2,House,House,False,544,m2,False
2018018165,listing,/119-paskas-drive-fraser-rise-vic-3336-2018018165,370000,is-sold,Sold by private treaty 17 Feb 2023,20230217,119 Paskas Drive,FRASER RISE,VIC,3336,-37.72152,144.662537,,,,VacantLand,Vacant land,False,350,m2,False
2018132241,listing,/42-wireless-drive-aintree-vic-3336-2018132241,556000,is-sold,Sold at auction 07 Feb 2023,20230207,42 Wireless Drive,AINTREE,VIC,3336,-37.7197952,144.666946,3,2,1,Townhouse,Townhouse,False,182,m2,False
2018191965,listing,/16-journey-drive-fraser-rise-vic-3336-2018191965,668000,is-sold,Sold by private treaty 06 Feb 2023,20230206,16 Journey Drive,FRASER RISE,VIC,3336,-37.7022552,144.716431,3,2,2,House,House,False,350,m2,False
2018212746,listing,/39-mayopark-street-deanside-vic-3336-2018212746,435000,is-sold,Sold by private treaty 06 Feb 2023,20230206,39 Mayopark Street,DEANSIDE,VIC,3336,-37.7347527,144.699127,,,,VacantLand,Vacant land,False,448,m2,False
2018230705,listing,/22-pioneer-drive-aintree-vic-3336-2018230705,755000,is-sold,Sold by private treaty 12 Feb 2023,20230212,22 Pioneer Drive,AINTREE,VIC,3336,-37.7236824,144.657547,4,2,2,House,House,False,511,m2,False
2018230743,listing,/3-webber-drive-deanside-vic-3336-2018230743,830000,is-sold,Sold by private treaty 17 Feb 2023,20230217,3 Webber Drive,DEANSIDE,VIC,3336,-37.7218437,144.722183,4,3,2,House,House,False,448,m2,False
2018240624,listing,/18-goulding-drive-fraser-rise-vic-3336-2018240624,1450000,is-sold,Sold by private treaty 18 Feb 2023,20230218,18 Goulding Drive,FRASER RISE,VIC,3336,-37.6995964,144.725388,4,2,2,House,House,False,828,m2,False
2018252027,listing,/11-hutton-street-deanside-vic-3336-2018252027,,is-sold,Sold by private treaty 20 Feb 2023,20230220,11 Hutton Street,DEANSIDE,VIC,3336,-37.7400627,144.6923,,,,VacantLand,Vacant land,False,375,m2,False
2018267031,listing,/25-adventure-ave-fraser-rise-vic-3336-2018267031,580000,is-sold,Sold by private treaty 15 Feb 2023,20230215,25 Adventure Ave,FRASER RISE,VIC,3336,-37.69353,144.720963,3,2,2,House,House,False,0,m2,False
2018273329,listing,/19-petunia-way-fraser-rise-vic-3336-2018273329,650000,is-sold,Sold by private treaty 23 Feb 2023,20230223,19 Petunia Way,FRASER RISE,VIC,3336,-37.7158775,144.701736,3,2,2,House,House,False,0,m2,False
2018276967,listing,/148-sinclairs-road-deanside-vic-3336-2018276967,380000,is-sold,Sold by private treaty 19 Feb 2023,20230219,148 Sinclairs Road,DEANSIDE,VIC,3336,-37.733326,144.707642,,,,VacantLand,Vacant land,False,416,m2,False
2018284278,listing,/28-dalwood-circuit-aintree-vic-3336-2018284278,,is-sold,Sold at auction 07 Feb 2023,20230207,28 Dalwood Circuit,AINTREE,VIC,3336,-37.71784,144.664474,4,2,2,House,House,False,574,m2,False
2018285437,listing,/19-elm-drive-fraser-rise-vic-3336-2018285437,570000,is-sold,Sold at auction 08 Feb 2023,20230208,19 Elm Drive,FRASER RISE,VIC,3336,-37.71617,144.7003,3,2,1,House,House,False,304,m2,False
2018289024,listing,/14-patera-grove-fraser-rise-vic-3336-2018289024,755000,is-sold,Sold by private treaty 23 Feb 2023,20230223,14 Patera Grove,FRASER RISE,VIC,3336,-37.70792,144.730621,4,2,2,House,House,False,0,m2,False
2018290823,listing,/31-taradale-crescent-fraser-rise-vic-3336-2018290823,1002000,is-sold,Sold at auction 13 Feb 2023,20230213,31 Taradale Crescent,FRASER RISE,VIC,3336,-37.69567,144.723434,,,,VacantLand,Vacant land,False,1215,m2,False
2018308579,listing,/18-orbis-avenue-fraser-rise-vic-3336-2018308579,840000,is-sold,Sold by private treaty 16 Feb 2023,20230216,18 Orbis Avenue,FRASER RISE,VIC,3336,-37.7200851,144.73175,4,2,2,House,House,False,476,m2,False
2018325201,listing,/3-oberon-court-fraser-rise-vic-3336-2018325201,601000,is-sold,Sold by private treaty 09 Feb 2023,20230209,3 Oberon Court,FRASER RISE,VIC,3336,-37.7125244,144.7303,3,2,1,House,House,False,0,m2,False
2018345054,listing,/4-redshift-avenue-fraser-rise-vic-3336-2018345054,771000,is-sold,Sold by private treaty 10 Feb 2023,20230210,4 Redshift Avenue,FRASER RISE,VIC,3336,-37.71024,144.7308,4,2,2,House,House,False,423,m2,False
2018345961,listing,/4-tulloona-street-fraser-rise-vic-3336-2018345961,820000,is-sold,Sold prior to auction 23 Feb 2023,20230223,4 Tulloona Street,FRASER RISE,VIC,3336,-37.69463,144.719727,3,2,2,House,House,False,0,m2,False
2017920654,listing,/4-shining-lane-aintree-vic-3336-2017920654,600000,is-sold,Sold by private treaty 30 Jan 2023,20230130,4 Shining Lane,AINTREE,VIC,3336,-37.7215424,144.662567,4,3,2,House,House,False,0,m2,False
2018111147,listing,/13-gibbs-street-deanside-vic-3336-2018111147,582100,is-sold,Sold by private treaty 01 Feb 2023,20230201,13 Gibbs Street,DEANSIDE,VIC,3336,-37.74103,144.7012,4,2,2,House,House,False,0,m2,False
2018138274,listing,/9-rumex-street-deanside-vic-3336-2018138274,,is-sold,Sold by private treaty 25 Jan 2023,20230125,9 Rumex Street,DEANSIDE,VIC,3336,-37.74103,144.7012,,,,VacantLand,Vacant land,False,394,m2,False
2018157427,listing,/8-franca-avenue-fraser-rise-vic-3336-2018157427,387500,is-sold,Sold by private treaty 17 Jan 2023,20230117,8 Franca Avenue,FRASER RISE,VIC,3336,-37.6980171,144.722473,,,,VacantLand,Vacant land,False,407,m2,False
2018165817,listing,/50-cherish-street-fraser-rise-vic-3336-2018165817,651000,is-sold,Sold by private treaty 14 Jan 2023,20230114,50 Cherish Street,FRASER RISE,VIC,3336,-37.7140045,144.701233,4,2,2,House,House,False,0,m2,False
2018191587,listing,/1-deanos-road-fraser-rise-vic-3336-2018191587,825000,is-sold,Sold by private treaty 24 Jan 2023,20230124,1 Deanos Road,FRASER RISE,VIC,3336,-37.72152,144.662537,4,3,2,House,House,False,0,m2,False
2018205354,listing,/12-evergild-street-aintree-vic-3336-2018205354,665000,is-sold,Sold by private treaty 28 Jan 2023,20230128,12 Evergild Street,AINTREE,VIC,3336,-37.72809,144.664963,4,2,2,House,House,False,0,m2,False
2018221693,listing,/12-newton-way-fraser-rise-vic-3336-2018221693,925000,is-sold,Sold by private treaty 27 Jan 2023,20230127,12 Newton Way,FRASER RISE,VIC,3336,-37.7057343,144.725525,4,2,2,House,House,False,648,m2,False
2018226539,listing,/17-gray-court-deanside-vic-3336-2018226539,780000,is-sold,Sold by private treaty 24 Jan 2023,20230124,17 Gray Court,DEANSIDE,VIC,3336,-37.7387657,144.694016,4,2,2,House,House,False,0,m2,False
2018229199,listing,/36-bullion-drive-aintree-vic-3336-2018229199,1060000,is-sold,Sold by private treaty 28 Jan 2023,20230128,36 Bullion Drive,AINTREE,VIC,3336,-37.7175446,144.659592,4,5,2,House,House,False,492,m2,False
2018246019,listing,/lot-639-merindah-blvd-deanside-vic-3336-2018246019,438500,is-sold,Sold by private treaty 16 Jan 2023,20230116,Lot 639 Merindah Blvd,DEANSIDE,VIC,3336,-37.7223244,144.714966,,,,VacantLand,Vacant land,False,441,m2,False
2018249501,listing,/16-mckell-street-deanside-vic-3336-2018249501,700000,is-sold,Sold by private treaty 02 Feb 2023,20230202,16 Mckell Street,DEANSIDE,VIC,3336,-37.74103,144.7012,4,2,2,House,House,False,350,m2,False
2018266501,listing,/59-joey-crescent-deanside-vic-3336-2018266501,705000,is-sold,Sold by private treaty 30 Jan 2023,20230130,59 Joey Crescent,DEANSIDE,VIC,3336,-37.74157,144.700928,4,2,2,House,House,False,350,m2,False
2018271296,listing,/20-lombardy-walk-deanside-vic-3336-2018271296,580000,is-sold,Sold at auction 30 Jan 2023,20230130,20 Lombardy Walk,DEANSIDE,VIC,3336,-37.74157,144.700928,3,2,2,House,House,False,221,m2,False
2018280066,listing,/18-valiant-street-deanside-vic-3336-2018280066,716000,is-sold,Sold by private treaty 17 Jan 2023,20230117,18 Valiant Street,DEANSIDE,VIC,3336,-37.7303123,144.707291,4,2,2,House,House,False,350,m2,False
2018313504,listing,/6-loretta-way-aintree-vic-3336-2018313504,599990,is-sold,Sold by private treaty 01 Feb 2023,20230201,6 Loretta Way,AINTREE,VIC,3336,-37.71751,144.673462,3,2,2,House,House,False,262,m2,False
2018315211,listing,/20-wilde-street-fraser-rise-vic-3336-2018315211,640000,is-sold,Sold by private treaty 02 Feb 2023,20230202,20 Wilde Street,FRASER RISE,VIC,3336,-37.70479,144.724747,3,2,2,House,House,False,263,m2,False
2018320794,listing,/lot-6008-wildwood-road-aintree-vic-3336-2018320794,431000,is-sold,Sold by private treaty 31 Jan 2023,20230131,Lot 6008 Wildwood Road,AINTREE,VIC,3336,-37.71439,144.672272,,,,VacantLand,Vacant land,False,448,m2,False
2018321615,listing,/lot-6008-wildwood-road-aintree-vic-3336-2018321615,431000,is-sold,Sold by private treaty 31 Jan 2023,20230131,Lot 6008 Wildwood Road,AINTREE,VIC,3336,-37.71439,144.672272,,,,VacantLand,Vacant land,False,448,m2,False
2018323872,listing,/16-griffith-road-deanside-vic-3336-2018323872,715000,is-sold,Sold by private treaty 30 Jan 2023,20230130,16 Griffith Road,DEANSIDE,VIC,3336,-37.7253151,144.705643,4,2,2,House,House,False,0,m2,False
2017828303,listing,/307-frontier-avenue-aintree-vic-3336-2017828303,415000,is-sold,Sold by private treaty 24 Dec 2022,20221224,307 frontier avenue,AINTREE,VIC,3336,-37.71827,144.674408,,,,VacantLand,Vacant land,False,0,m2,False
2018063851,listing,/101-beattys-road-fraser-rise-vic-3336-2018063851,900000,is-sold,Sold by private treaty 23 Dec 2022,20221223,101 Beattys Road,FRASER RISE,VIC,3336,-37.69573,144.721237,4,2,2,House,House,False,512,m2,False
2018118229,listing,/43-monticiano-road-fraser-rise-vic-3336-2018118229,722000,is-sold,Sold by private treaty 22 Dec 2022,20221222,43 Monticiano Road,FRASER RISE,VIC,3336,-37.7089462,144.71936,4,2,2,House,House,False,0,m2,False
2018125160,listing,/5-chalcot-circuit-fraser-rise-vic-3336-2018125160,745000,is-sold,Sold by private treaty 22 Dec 2022,20221222,5 Chalcot Circuit,FRASER RISE,VIC,3336,-37.6896133,144.709381,4,2,2,House,House,False,400,m2,False
2018165279,listing,/52-aniseed-avenue-aintree-vic-3336-2018165279,1150000,is-sold,Sold by private treaty 05 Jan 2023,20230105,52 Aniseed Avenue,AINTREE,VIC,3336,-37.717,144.676315,5,4,2,House,House,False,512,m2,False
2018168498,listing,/7-myrrnong-street-aintree-vic-3336-2018168498,970000,is-sold,Sold by private treaty 13 Jan 2023,20230113,7 Myrrnong Street,AINTREE,VIC,3336,-37.725914,144.6745,5,3,2,House,House,False,0,m2,False
2018170623,listing,/20-treviso-street-fraser-rise-vic-3336-2018170623,749000,is-sold,Sold by private treaty 25 Dec 2022,20221225,20 Treviso Street,FRASER RISE,VIC,3336,-37.7128677,144.7191,4,2,2,House,House,False,361,m2,False
2018173705,listing,/8-jubilee-lane-aintree-vic-3336-2018173705,820000,is-sold,Sold by private treaty 12 Jan 2023,20230112,8 Jubilee Lane,AINTREE,VIC,3336,-37.72914,144.669434,4,2,2,House,House,False,442,m2,False
2018189381,listing,/47-wright-circuit-fraser-rise-vic-3336-2018189381,667000,is-sold,Sold by private treaty 24 Dec 2022,20221224,47 Wright Circuit,FRASER RISE,VIC,3336,-37.7024956,144.725433,4,2,2,House,House,False,350,m2,False
2018191531,listing,/117-bonniebrook-road-aintree-vic-3336-2018191531,485000,is-sold,Sold by private treaty 05 Jan 2023,20230105,117 Bonniebrook Road,AINTREE,VIC,3336,-37.71286,144.677979,,,,VacantLand,Vacant land,False,686,m2,False
2018212435,listing,/22-normanby-boulevard-deanside-vic-3336-2018212435,665000,is-sold,Sold by private treaty 21 Dec 2022,20221221,22 Normanby Boulevard,DEANSIDE,VIC,3336,-37.7253151,144.705643,4,2,2,House,House,False,289,m2,False
2018219135,listing,/10-aspire-boulevard-fraser-rise-vic-3336-2018219135,1720000,is-sold,Sold by private treaty 28 Dec 2022,20221228,10 Aspire Boulevard,FRASER RISE,VIC,3336,-37.6945763,144.726227,5,3,4,House,House,False,863,m2,False
2018221237,listing,/27-franca-avenue-fraser-rise-vic-3336-2018221237,540000,is-sold,Sold at auction 21 Dec 2022,20221221,27 Franca Avenue,FRASER RISE,VIC,3336,-37.7097321,144.7268,,,,VacantLand,Vacant land,False,0,m2,False
2018228087,listing,/29-alderley-crescent-deanside-vic-3336-2018228087,590000,is-sold,Sold by private treaty 11 Jan 2023,20230111,29 Alderley Crescent,DEANSIDE,VIC,3336,-37.74157,144.700928,3,2,1,House,House,False,0,m2,False
2018229075,listing,/56-royale-drive-fraser-rise-vic-3336-2018229075,700000,is-sold,Sold at auction 21 Dec 2022,20221221,56 Royale Drive,FRASER RISE,VIC,3336,-37.715683,144.723312,4,2,1,House,House,False,320,m2,False
2018233312,listing,/21-nebula-court-fraser-rise-vic-3336-2018233312,870000,is-sold,Sold by private treaty 06 Jan 2023,20230106,21 Nebula Court,FRASER RISE,VIC,3336,-37.7114,144.727692,4,2,2,House,House,False,0,m2,False
2018242536,listing,/52-signal-circuit-aintree-vic-3336-2018242536,610000,is-sold,Sold by private treaty 12 Jan 2023,20230112,52 Signal Circuit,AINTREE,VIC,3336,-37.7191162,144.667053,3,2,2,Townhouse,Townhouse,False,208,m2,False
2018255522,listing,/46-joey-crescent-deanside-vic-3336-2018255522,593000,is-sold,Sold by private treaty 10 Jan 2023,20230110,46 Joey Crescent,DEANSIDE,VIC,3336,-37.74103,144.7012,4,2,1,House,House,False,0,m2,False
2018302752,listing,/11-isaacs-street-deanside-vic-3336-2018302752,675000,is-sold,Sold by private treaty 02 Jan 2023,20230102,11 Isaacs Street,DEANSIDE,VIC,3336,-37.85285,144.773163,4,2,2,House,House,False,313,m2,False
2018302764,listing,/17-isaacs-street-deanside-vic-3336-2018302764,670000,is-sold,Sold by private treaty 04 Jan 2023,20230104,17 Isaacs Street,DEANSIDE,VIC,3336,-37.74103,144.7012,4,2,2,House,House,False,350,m2,False
2017834410,listing,/15-duffy-road-deanside-vic-3336-2017834410,720000,is-sold,Sold by private treaty 19 Dec 2022,20221219,15 Duffy Road,DEANSIDE,VIC,3336,-37.7259369,144.707626,5,2,2,House,House,False,406,m2,False
2017922505,listing,/14-praise-street-fraser-rise-vic-3336-2017922505,665000,is-sold,Sold by private treaty 16 Dec 2022,20221216,14 Praise Street,FRASER RISE,VIC,3336,-37.72152,144.662537,4,2,2,House,House,False,0,m2,False
2017981708,listing,/22-cherish-street-fraser-rise-vic-3336-2017981708,585000,is-sold,Sold by private treaty 19 Dec 2022,20221219,22 Cherish Street,FRASER RISE,VIC,3336,-37.7142677,144.700058,3,2,1,House,House,False,0,m2,False
2018011924,listing,/25-dollarbird-drive-deanside-vic-3336-2018011924,415000,is-sold,Sold by private treaty 20 Dec 2022,20221220,25 Dollarbird Drive,DEANSIDE,VIC,3336,-37.74157,144.700928,,,,VacantLand,Vacant land,False,448,m2,False
2018074656,listing,/53-twain-way-fraser-rise-vic-3336-2018074656,475000,is-sold,Sold by private treaty 18 Dec 2022,20221218,53 Twain Way,FRASER RISE,VIC,3336,-37.7037849,144.728943,2,1,1,House,House,False,0,m2,False
2018090669,listing,/23-elm-drive-fraser-rise-vic-3336-2018090669,380000,is-sold,Sold by private treaty 16 Dec 2022,20221216,23 Elm Drive,FRASER RISE,VIC,3336,-37.7163658,144.700027,,,,VacantLand,Vacant land,False,403,m2,False
2018133554,listing,/13-caro-way-fraser-rise-vic-3336-2018133554,760000,is-sold,Sold by private treaty 15 Dec 2022,20221215,13 Caro Way,FRASER RISE,VIC,3336,-37.7186928,144.728577,4,2,2,House,House,False,448,m2,False
2018140972,listing,/600-hume-drive-fraser-rise-vic-3336-2018140972,715000,is-sold,Sold by private treaty 15 Dec 2022,20221215,600 Hume Drive,FRASER RISE,VIC,3336,-37.7110329,144.720337,4,2,2,House,House,False,350,m2,False
2018158772,listing,/18-driftwood-street-aintree-vic-3336-2018158772,650000,is-sold,Sold at auction 20 Dec 2022,20221220,18 Driftwood Street,AINTREE,VIC,3336,-37.7156754,144.670853,4,2,2,House,House,False,349,m2,False
2018182660,listing,/lot-6526-nokota-circuit-aintree-vic-3336-2018182660,400000,is-sold,Sold by private treaty 14 Dec 2022,20221214,Lot 6526 Nokota circuit,AINTREE,VIC,3336,-37.7215424,144.662567,,,,VacantLand,Vacant land,False,448,m2,False
2018199713,listing,/312-frontier-avenue-aintree-vic-3336-2018199713,763000,is-sold,Sold at auction 13 Dec 2022,20221213,312 Frontier Avenue,AINTREE,VIC,3336,-37.7177429,144.6742,4,2,2,House,House,False,0,m2,False
2018201756,listing,/123-city-vista-court-fraser-rise-vic-3336-2018201756,610000,is-sold,Sold by private treaty 17 Dec 2022,20221217,123 City Vista Court,FRASER RISE,VIC,3336,-37.7099838,144.726425,3,2,2,House,House,False,293,m2,False
2018204277,listing,/46-greenwood-drive-aintree-vic-3336-2018204277,712000,is-sold,Sold by private treaty 17 Dec 2022,20221217,46 Greenwood Drive,AINTREE,VIC,3336,-37.7138443,144.674927,4,2,2,House,House,False,448,m2,False
2018217057,listing,/15-brown-street-aintree-vic-3336-2018217057,730000,is-sold,Sold by private treaty 20 Dec 2022,20221220,15 Brown Street,AINTREE,VIC,3336,-37.7215424,144.662567,4,2,2,House,House,False,0,m2,False
2018222814,listing,/16-wilderness-road-fraser-rise-vic-3336-2018222814,280000,is-sold,Sold by private treaty 15 Dec 2022,20221215,16 Wilderness Road,FRASER RISE,VIC,3336,-37.72152,144.662537,,,,VacantLand,Vacant land,False,238,m2,False
2018244585,listing,/15-receiver-road-aintree-vic-3336-2018244585,745000,is-sold,Sold by private treaty 16 Dec 2022,20221216,15 Receiver Road,AINTREE,VIC,3336,-37.7206459,144.672882,4,2,2,House,House,False,449,m2,False
2018255813,listing,/lot-616-maradona-blvd-deanside-vic-3336-2018255813,387500,is-sold,Sold by private treaty 14 Dec 2022,20221214,Lot 616 Maradona Blvd,DEANSIDE,VIC,3336,-37.74157,144.700928,,,,VacantLand,Vacant land,False,375,m2,False
2018260824,listing,/lot-629-maradona-blvd-deanside-vic-3336-2018260824,300000,is-sold,Sold by private treaty 16 Dec 2022,20221216,Lot 629 Maradona Blvd,DEANSIDE,VIC,3336,-37.74157,144.700928,,,,VacantLand,Vacant land,False,294,m2,False
2018273045,listing,/27-stockade-way-aintree-vic-3336-2018273045,725000,is-sold,Sold by private treaty 17 Dec 2022,20221217,27 Stockade Way,AINTREE,VIC,3336,-37.7192955,144.67511,4,2,2,House,House,False,399,m2,False
2018321531,listing,/59-broom-road-aintree-vic-3336-2018321531,600000,is-sold,Sold by private treaty 20 Dec 2022,20221220,59 Broom Road,AINTREE,VIC,3336,-37.7206535,144.679337,4,3,2,Townhouse,Townhouse,False,0,m2,False
2017964728,listing,/5-mustang-circuit-aintree-vic-3336-2017964728,602000,is-sold,Sold by private treaty 24 Nov 2022,20221124,5 Mustang Circuit,AINTREE,VIC,3336,-37.7215424,144.662567,4,2,2,House,House,False,0,m2,False
2018006891,listing,/20-cassowary-street-aintree-vic-3336-2018006891,1020000,is-sold,Sold by private treaty 05 Dec 2022,20221205,20 Cassowary Street,AINTREE,VIC,3336,-37.724453,144.6767,5,3,2,House,House,False,544,m2,False
2018016542,listing,/12-escott-road-aintree-vic-3336-2018016542,695000,is-sold,Sold by private treaty 30 Nov 2022,20221130,12 Escott Road,AINTREE,VIC,3336,-37.7202225,144.6701,4,2,2,House,House,False,0,m2,False
2018040896,listing,/146-aspire-boulevard-fraser-rise-vic-3336-2018040896,850000,is-sold,Sold by private treaty 08 Dec 2022,20221208,146 Aspire Boulevard,FRASER RISE,VIC,3336,-37.7055244,144.726669,4,2,2,House,House,False,0,m2,False
2018051932,listing,/9-opulence-avenue-fraser-rise-vic-3336-2018051932,390000,is-sold,Sold by private treaty 13 Dec 2022,20221213,9 Opulence Avenue,FRASER RISE,VIC,3336,-37.7097321,144.7268,,,,VacantLand,Vacant land,False,362,m2,False
2018053059,listing,/6-rapid-st-aintree-vic-3336-2018053059,725000,is-sold,Sold by private treaty 05 Dec 2022,20221205,6 Rapid St,AINTREE,VIC,3336,-37.7220078,144.678711,4,2,2,House,House,False,365,m2,False
2018059932,listing,/18-kalinda-avenue-deanside-vic-3336-2018059932,685000,is-sold,Sold by private treaty 06 Dec 2022,20221206,18 Kalinda Avenue,DEANSIDE,VIC,3336,-37.7216835,144.717239,4,2,2,House,House,False,350,m2,False
2018071400,listing,/48-pienza-road-fraser-rise-vic-3336-2018071400,720000,is-sold,Sold prior to auction 25 Nov 2022,20221125,48 Pienza Road,FRASER RISE,VIC,3336,-37.71282,144.720047,4,2,2,House,House,False,0,m2,False
2018074917,listing,/85-mushu-street-deanside-vic-3336-2018074917,495000,is-sold,Sold by private treaty 09 Dec 2022,20221209,85 Mushu Street,DEANSIDE,VIC,3336,-37.7195549,144.707382,2,1,1,ApartmentUnitFlat,Apartment / Unit / Flat,False,0,m2,False
2018133711,listing,/26-joey-crescent-deanside-vic-3336-2018133711,510000,is-sold,Sold by private treaty 09 Dec 2022,20221209,26 Joey Crescent,DEANSIDE,VIC,3336,-37.74103,144.7012,3,2,1,House,House,False,224,m2,False
2018158660,listing,/3-broomie-street-aintree-vic-3336-2018158660,920000,is-sold,Sold at auction 29 Nov 2022,20221129,3 Broomie Street,AINTREE,VIC,3336,-37.7213135,144.660645,4,2,2,House,House,False,0,m2,False
2018167108,listing,/18-langer-road-deanside-vic-3336-2018167108,181000,is-sold,Sold at auction 30 Nov 2022,20221130,18 Langer Road,DEANSIDE,VIC,3336,-37.72145,144.716217,,,,VacantLand,Vacant land,False,184,m2,False
2018180598,listing,/155-city-vista-court-fraser-rise-vic-3336-2018180598,840000,is-sold,Sold by private treaty 25 Nov 2022,20221125,155 City Vista Court,FRASER RISE,VIC,3336,-37.7070732,144.726761,4,2,2,House,House,False,448,m2,False
2018188073,listing,/79-city-vista-court-fraser-rise-vic-3336-2018188073,650000,is-sold,Sold by private treaty 02 Dec 2022,20221202,79 City Vista Court,FRASER RISE,VIC,3336,-37.71482,144.726379,3,2,2,House,House,False,464,m2,False
2018196726,listing,/9-moore-drive-fraser-rise-vic-3336-2018196726,685000,is-sold,Sold by private treaty 01 Dec 2022,20221201,9 Moore Drive,FRASER RISE,VIC,3336,-37.7194,144.728561,3,2,2,House,House,False,412,m2,False
2018197060,listing,/5-wagner-way-aintree-vic-3336-2018197060,862250,is-sold,Sold prior to auction 25 Nov 2022,20221125,5 Wagner Way,AINTREE,VIC,3336,-37.72584,144.6648,4,2,2,House,House,False,609,m2,False
2018199711,listing,/1-crop-drive-fraser-rise-vic-3336-2018199711,630000,is-sold,Sold prior to auction 29 Nov 2022,20221129,1 Crop Drive,FRASER RISE,VIC,3336,-37.7016754,144.714966,3,2,2,House,House,False,280,m2,False
2018222864,listing,/32-farrier-boulevard-fraser-rise-vic-3336-2018222864,507100,is-sold,Sold by private treaty 08 Dec 2022,20221208,32 Farrier Boulevard,FRASER RISE,VIC,3336,-37.7029953,144.71489,,,,VacantLand,Vacant land,False,512,m2,False
2018236384,listing,/8-lombardy-walk-deanside-vic-3336-2018236384,550000,is-sold,Sold by private treaty 12 Dec 2022,20221212,8 Lombardy Walk,DEANSIDE,VIC,3336,-37.74103,144.7012,3,2,2,House,House,False,168,m2,False
2018268973,listing,/49-conservatory-drive-deanside-vic-3336-2018268973,665000,is-sold,Sold by private treaty 06 Dec 2022,20221206,49 Conservatory Drive,DEANSIDE,VIC,3336,-37.74157,144.700928,4,2,2,House,House,False,0,m2,False
2017931816,listing,/16-arbourton-avenue-aintree-vic-3336-2017931816,1100000,is-sold,Sold by private treaty 17 Nov 2022,20221117,16 Arbourton Avenue,AINTREE,VIC,3336,-37.72226,144.660355,4,2,2,House,House,False,499,m2,False
2017955579,listing,/31-mission-drive-aintree-vic-3336-2017955579,660000,is-sold,Sold by private treaty 15 Nov 2022,20221115,31 Mission Drive,AINTREE,VIC,3336,-37.7187576,144.6687,4,2,2,House,House,False,403,m2,False
2018002538,listing,/46-bonniebrook-road-aintree-vic-3336-2018002538,585000,is-sold,Sold by private treaty 19 Nov 2022,20221119,46 Bonniebrook Road,AINTREE,VIC,3336,-37.7132072,144.676361,3,2,1,Townhouse,Townhouse,False,0,m2,False
2018011375,listing,/24-italianate-avenue-deanside-vic-3336-2018011375,345000,is-sold,Sold by private treaty 14 Nov 2022,20221114,24 Italianate Avenue,DEANSIDE,VIC,3336,-37.74157,144.700928,,,,VacantLand,Vacant land,False,294,m2,False
2018068376,listing,/2-panning-circuit-aintree-vic-3336-2018068376,1070000,is-sold,Sold at auction 16 Nov 2022,20221116,2 Panning Circuit,AINTREE,VIC,3336,-37.71862,144.65683,4,2,2,House,House,False,516,m2,False
2018094330,listing,/54-normanby-boulevard-deanside-vic-3336-2018094330,785000,is-sold,Sold by private treaty 15 Nov 2022,20221115,54 Normanby Boulevard,DEANSIDE,VIC,3336,-37.723774,144.7055,4,2,2,House,House,False,420,m2,False
2018099850,listing,/1-wool-street-aintree-vic-3336-2018099850,1195000,is-sold,Sold by private treaty 19 Nov 2022,20221119,1 Wool Street,AINTREE,VIC,3336,-37.71988,144.659164,4,3,2,House,House,False,0,m2,False
2018104640,listing,/1-brown-street-aintree-vic-3336-2018104640,880000,is-sold,Sold by private treaty 21 Nov 2022,20221121,1 Brown Street,AINTREE,VIC,3336,-37.7215424,144.662567,4,2,2,House,House,False,471,m2,False
2018111203,listing,/27-crop-drive-fraser-rise-vic-3336-2018111203,780000,is-sold,Sold by private treaty 24 Nov 2022,20221124,27 Crop Drive,FRASER RISE,VIC,3336,-37.7016869,144.713943,4,3,2,House,House,False,0,m2,False
2018133553,listing,/33-aniseed-avenue-aintree-vic-3336-2018133553,1075000,is-sold,Sold by private treaty 18 Nov 2022,20221118,33 Aniseed Avenue,AINTREE,VIC,3336,-37.7167053,144.67749,5,3,2,House,House,False,512,m2,False
2018144004,listing,/7-bayley-chase-aintree-vic-3336-2018144004,695500,is-sold,Sold at auction 15 Nov 2022,20221115,7 Bayley Chase,AINTREE,VIC,3336,-37.7287636,144.66716,4,2,2,House,House,False,0,m2,False
2018159821,listing,/40-chateau-promenade-deanside-vic-3336-2018159821,560000,is-sold,Sold by private treaty 13 Nov 2022,20221113,40 Chateau Promenade,DEANSIDE,VIC,3336,-37.720726,144.71286,3,2,1,Townhouse,Townhouse,False,181,m2,False
2018173450,listing,/81-fields-street-aintree-vic-3336-2018173450,746000,is-sold,Sold by private treaty 14 Nov 2022,20221114,81 Fields Street,AINTREE,VIC,3336,-37.72003,144.670975,3,2,1,House,House,False,294,m2,False
2018176869,listing,/15-eaglecrest-avenue-fraser-rise-vic-3336-2018176869,720000,is-sold,Sold by private treaty 24 Nov 2022,20221124,15 Eaglecrest Avenue,FRASER RISE,VIC,3336,-37.71923,144.7218,4,2,2,House,House,False,468,m2,False
2018180973,listing,/39-greenwood-drive-aintree-vic-3336-2018180973,785000,is-sold,Sold by private treaty 24 Nov 2022,20221124,39 Greenwood Drive,AINTREE,VIC,3336,-37.7141762,144.674484,4,2,2,House,House,False,448,m2,False
2018195551,listing,/55-curtin-drive-deanside-vic-3336-2018195551,660000,is-sold,Sold by private treaty 14 Nov 2022,20221114,55 Curtin Drive,DEANSIDE,VIC,3336,-37.7253151,144.705643,4,2,2,House,House,False,294,m2,False
2018197900,listing,/44-aspire-boulevard-fraser-rise-vic-3336-2018197900,750000,is-sold,Sold by private treaty 21 Nov 2022,20221121,44 Aspire Boulevard,FRASER RISE,VIC,3336,-37.6973724,144.726257,4,2,2,House,House,False,412,m2,False
2018202152,listing,/lot-5514-lusitano-road-aintree-vic-3336-2018202152,271000,is-sold,Sold by private treaty 15 Nov 2022,20221115,Lot 5514 Lusitano Road,AINTREE,VIC,3336,-37.7215424,144.662567,,,,VacantLand,Vacant land,False,294,m2,False
2018202351,listing,/18-higgins-street-fraser-rise-vic-3336-2018202351,550000,is-sold,Sold by private treaty 15 Nov 2022,20221115,18 higgins street,FRASER RISE,VIC,3336,-37.705162,144.728729,3,2,2,House,House,False,238,m2,False
2018272372,listing,/28-chalcot-circuit-fraser-rise-vic-3336-2018272372,425000,is-sold,Sold by private treaty 16 Nov 2022,20221116,28 Chalcot Circuit,FRASER RISE,VIC,3336,-37.6898346,144.7117,,,,VacantLand,Vacant land,False,416,m2,False
2017927280,listing,/77-hawking-crescent-fraser-rise-vic-3336-2017927280,580000,is-sold,Sold by private treaty 02 Nov 2022,20221102,77 Hawking Crescent,FRASER RISE,VIC,3336,-37.7088928,144.723572,3,2,1,House,House,False,315,m2,False
2017932314,listing,/13-cassowary-street-aintree-vic-3336-2017932314,862000,is-sold,Sold by private treaty 04 Nov 2022,20221104,13 Cassowary Street,AINTREE,VIC,3336,-37.724453,144.6767,4,2,2,House,House,False,512,m2,False
2017939842,listing,/29-winton-drive-fraser-rise-vic-3336-2017939842,670000,is-sold,Sold by private treaty 11 Nov 2022,20221111,29 Winton Drive,FRASER RISE,VIC,3336,-37.71474,144.701111,4,2,2,House,House,False,0,m2,False
2017962695,listing,/30-treviso-street-fraser-rise-vic-3336-2017962695,642000,is-sold,Sold by private treaty 03 Nov 2022,20221103,30 Treviso Street,FRASER RISE,VIC,3336,-37.7128448,144.719711,4,2,2,House,House,False,0,m2,False
2018001442,listing,/19-luxor-drive-fraser-rise-vic-3336-2018001442,700000,is-sold,Sold by private treaty 03 Nov 2022,20221103,19 Luxor Drive,FRASER RISE,VIC,3336,-37.7197838,144.72522,3,2,2,House,House,False,425,m2,False
2018018806,listing,/34-mamic-boulevard-fraser-rise-vic-3336-2018018806,545000,is-sold,Sold by private treaty 10 Nov 2022,20221110,34 Mamic Boulevard,FRASER RISE,VIC,3336,-37.6982574,144.7212,,,,VacantLand,Vacant land,False,555,m2,False
2018023807,listing,/1-elder-lane-aintree-vic-3336-2018023807,885000,is-sold,Sold by private treaty 11 Nov 2022,20221111,1 Elder Lane,AINTREE,VIC,3336,-37.7169342,144.6688,5,2,2,House,House,False,569,m2,False
2018024680,listing,/10-rapid-street-aintree-vic-3336-2018024680,752000,is-sold,Sold by private treaty 05 Nov 2022,20221105,10 Rapid Street,AINTREE,VIC,3336,-37.7220078,144.678711,4,2,2,House,House,False,409,m2,False
2018054106,listing,/25-adventure-avenue-fraser-rise-vic-3336-2018054106,610000,is-sold,Sold by private treaty 31 Oct 2022,20221031,25 Adventure Avenue,FRASER RISE,VIC,3336,-37.6934662,144.7211,3,2,2,House,House,False,0,m2,False
2018077284,listing,/53-normanby-boulevard-deanside-vic-3336-2018077284,530000,is-sold,Sold by private treaty 05 Nov 2022,20221105,53 Normanby Boulevard,DEANSIDE,VIC,3336,-37.72458,144.706085,3,2,2,Townhouse,Townhouse,False,0,m2,False
2018088885,listing,/11-roaming-drive-fraser-rise-vic-3336-2018088885,645000,is-sold,Sold by private treaty 02 Nov 2022,20221102,11 Roaming Drive,FRASER RISE,VIC,3336,-37.7018242,144.717865,4,2,2,House,House,False,0,m2,False
2018099755,listing,/45-warrigal-drive-aintree-vic-3336-2018099755,1040000,is-sold,Sold by private treaty 09 Nov 2022,20221109,45 Warrigal Drive,AINTREE,VIC,3336,-37.72347,144.677765,5,3,2,House,House,False,0,m2,False
2018104528,listing,/12-quadrant-drive-fraser-rise-vic-3336-2018104528,710000,is-sold,Sold at auction 02 Nov 2022,20221102,12 Quadrant Drive,FRASER RISE,VIC,3336,-37.71889,144.730927,3,2,2,House,House,False,420,m2,False
2018118025,listing,/24-annecy-boulevard-fraser-rise-vic-3336-2018118025,700000,is-sold,Sold prior to auction 08 Nov 2022,20221108,24 Annecy Boulevard,FRASER RISE,VIC,3336,-37.71316,144.724686,4,2,2,House,House,False,392,m2,False
2018129037,listing,/82-fields-street-aintree-vic-3336-2018129037,1350000,is-sold,Sold by private treaty 02 Nov 2022,20221102,82 Fields Street,AINTREE,VIC,3336,-37.72038,144.671265,5,2,2,House,House,False,550,m2,False
2018133557,listing,/14-twain-way-fraser-rise-vic-3336-2018133557,865000,is-sold,Sold by private treaty 10 Nov 2022,20221110,14 Twain Way,FRASER RISE,VIC,3336,-37.702713,144.727554,4,2,2,House,House,False,0,m2,False
2018140405,listing,/3-casine-road-fraser-rise-vic-3336-2018140405,795000,is-sold,Sold at auction 05 Nov 2022,20221105,3 Casine Road,FRASER RISE,VIC,3336,-37.694294,144.7163,5,2,2,House,House,False,400,m2,False
2018166176,listing,/11-wattleseed-dr-fraser-rise-vic-3336-2018166176,707000,is-sold,Sold by private treaty 31 Oct 2022,20221031,11 Wattleseed Dr,FRASER RISE,VIC,3336,-37.71524,144.701233,4,2,2,House,House,False,350,m2,False
2018175763,listing,/82-curtin-drive-deanside-vic-3336-2018175763,572500,is-sold,Sold by private treaty 03 Nov 2022,20221103,82 Curtin Drive,DEANSIDE,VIC,3336,-37.72538,144.705673,3,2,1,House,House,False,236,m2,False
2018187627,listing,/10-isherwood-road-deanside-vic-3336-2018187627,610000,is-sold,Sold by private treaty 09 Nov 2022,20221109,10 Isherwood Road,DEANSIDE,VIC,3336,-37.74103,144.7012,4,2,1,House,House,False,0,m2,False
2017714733,listing,/31-marlee-drive-deanside-vic-3336-2017714733,405000,is-sold,Sold by private treaty 12 Oct 2022,20221012,31 Marlee Drive,DEANSIDE,VIC,3336,-37.7207375,144.718277,,,,VacantLand,Vacant land,False,377,m2,False
2017898395,listing,/5-venture-close-fraser-rise-vic-3336-2017898395,390000,is-sold,Sold by private treaty 31 Oct 2022,20221031,5 Venture Close,FRASER RISE,VIC,3336,-37.6988029,144.716492,,,,VacantLand,Vacant land,False,350,m2,False
2017907146,listing,/20-luxor-drive-fraser-rise-vic-3336-2017907146,690000,is-sold,Sold by private treaty 29 Oct 2022,20221029,20 Luxor Drive,FRASER RISE,VIC,3336,-37.7198563,144.724579,3,2,3,House,House,False,0,m2,False
2017989514,listing,/77-warrigal-drive-aintree-vic-3336-2017989514,710000,is-sold,Sold by private treaty 18 Oct 2022,20221018,77 Warrigal Drive,AINTREE,VIC,3336,-37.721302,144.6777,4,2,2,House,House,False,0,m2,False
2017993957,listing,/lot-119-skyros-road-fraser-rise-vic-3336-2017993957,445000,is-sold,Sold by private treaty 14 Oct 2022,20221014,Lot 119 Skyros Road,FRASER RISE,VIC,3336,-37.72152,144.662537,,,,VacantLand,Vacant land,False,392,m2,False
2018009627,listing,/9-mckell-drive-deanside-vic-3336-2018009627,725000,is-sold,Sold by private treaty 14 Oct 2022,20221014,9 Mckell Drive,DEANSIDE,VIC,3336,-37.74103,144.7012,4,2,2,House,House,False,0,m2,False
2018028392,listing,/9-gleeson-way-deanside-vic-3336-2018028392,665000,is-sold,Sold by private treaty 25 Oct 2022,20221025,9 Gleeson Way,DEANSIDE,VIC,3336,-37.74103,144.7012,4,2,2,House,House,False,0,m2,False
2018040878,listing,/3-elm-drive-fraser-rise-vic-3336-2018040878,629000,is-sold,Sold by private treaty 25 Oct 2022,20221025,3 Elm Drive,FRASER RISE,VIC,3336,-37.71662,144.7005,3,2,1,House,House,False,300,m2,False
2018051725,listing,/48-aubisque-close-fraser-rise-vic-3336-2018051725,790000,is-sold,Sold by private treaty 25 Oct 2022,20221025,48 Aubisque Close,FRASER RISE,VIC,3336,-37.71509,144.725632,4,2,2,House,House,False,448,m2,False
2018059467,listing,/7-wool-street-aintree-vic-3336-2018059467,742000,is-sold,Sold by private treaty 26 Oct 2022,20221026,7 Wool Street,AINTREE,VIC,3336,-37.7194824,144.659439,3,2,2,House,House,False,492,m2,False
2018060728,listing,/7-quarry-road-aintree-vic-3336-2018060728,532800,is-sold,Sold by private treaty 27 Oct 2022,20221027,7 Quarry Road,AINTREE,VIC,3336,-37.7183723,144.657776,,,,VacantLand,Vacant land,False,512,m2,False
2018060967,listing,/14-eaglecrest-avenue-fraser-rise-vic-3336-2018060967,695000,is-sold,Sold by private treaty 22 Oct 2022,20221022,14 Eaglecrest Avenue,FRASER RISE,VIC,3336,-37.71893,144.722641,4,2,2,House,House,False,0,m2,False
2018061731,listing,/21-shearman-road-deanside-vic-3336-2018061731,290000,is-sold,Sold by private treaty 17 Oct 2022,20221017,21 Shearman Road,DEANSIDE,VIC,3336,-37.7398262,144.6932,,,,VacantLand,Vacant land,False,245,m2,False
2018069934,listing,/lot-675-clipstone-crescent-fraser-rise-vic-3336-2018069934,367000,is-sold,Sold by private treaty 13 Oct 2022,20221013,Lot 675 Clipstone crescent,FRASER RISE,VIC,3336,-37.7097321,144.7268,,,,VacantLand,Vacant land,False,400,m2,False
2018073912,listing,/20-kidd-street-deanside-vic-3336-2018073912,750000,is-sold,Sold by private treaty 25 Oct 2022,20221025,20 Kidd Street,DEANSIDE,VIC,3336,-37.7236328,144.723511,4,2,2,House,House,False,448,m2,False
2018082604,listing,/59-chalcot-circuit-fraser-rise-vic-3336-2018082604,375000,is-sold,Sold at auction 12 Oct 2022,20221012,59 Chalcot Circuit,FRASER RISE,VIC,3336,-37.6896133,144.709381,,,,VacantLand,Vacant land,False,392,m2,False
2018083597,listing,/37-adventure-avenue-fraser-rise-vic-3336-2018083597,627000,is-sold,Sold by private treaty 27 Oct 2022,20221027,37 Adventure Avenue,FRASER RISE,VIC,3336,-37.6935539,144.7209,3,2,2,Townhouse,Townhouse,False,223,m2,False
2018090177,listing,/5-halcyon-road-deanside-vic-3336-2018090177,385000,is-sold,Sold by private treaty 14 Oct 2022,20221014,5 Halcyon Road,DEANSIDE,VIC,3336,-37.7359924,144.693451,,,,VacantLand,Vacant land,False,388,m2,False
2018112826,listing,/50-newforest-drive-aintree-vic-3336-2018112826,655000,is-sold,Sold at auction 25 Oct 2022,20221025,50 Newforest Drive,AINTREE,VIC,3336,-37.7148972,144.6702,3,2,2,House,House,False,312,m2,False
2018153173,listing,/93-city-vista-court-fraser-rise-vic-3336-2018153173,1460000,is-sold,Sold by private treaty 25 Oct 2022,20221025,93 City Vista Court,FRASER RISE,VIC,3336,-37.7139778,144.726425,5,3,2,House,House,False,541,m2,False
2017676783,listing,/64-crown-drive-fraser-rise-vic-3336-2017676783,355000,is-sold,Sold by private treaty 04 Oct 2022,20221004,64 Crown Drive,FRASER RISE,VIC,3336,-37.6927032,144.720413,,,,VacantLand,Vacant land,False,313,m2,False
2017692365,listing,/lot-76-arkbar-avenue-deanside-vic-3336-2017692365,,is-sold,Sold by private treaty 30 Sep 2022,20220930,Lot 76 Arkbar Avenue,DEANSIDE,VIC,3336,-37.74103,144.7012,,,,VacantLand,Vacant land,False,315,m2,False
2017787366,listing,/1407-barnmead-street-deanside-vic-3336-2017787366,,is-sold,Sold by private treaty 30 Sep 2022,20220930,1407 Barnmead Street,DEANSIDE,VIC,3336,-37.74103,144.7012,,,,VacantLand,Vacant land,False,444,m2,False
2017920804,listing,/92-charleston-road-deanside-vic-3336-2017920804,400000,is-sold,Sold by private treaty 27 Sep 2022,20220927,92 Charleston Road,DEANSIDE,VIC,3336,-37.74103,144.7012,,,,VacantLand,Vacant land,False,400,m2,False
2017928884,listing,/9-anzac-road-aintree-vic-3336-2017928884,710000,is-sold,Sold by private treaty 26 Sep 2022,20220926,9 Anzac Road,AINTREE,VIC,3336,-37.719696,144.670151,4,2,2,House,House,False,400,m2,False
2017948527,listing,/14-tulipwood-avenue-aintree-vic-3336-2017948527,690000,is-sold,Sold by private treaty 28 Sep 2022,20220928,14 Tulipwood Avenue,AINTREE,VIC,3336,-37.72268,144.655212,4,2,2,House,House,False,350,m2,False
2017992119,listing,/18-cherish-street-fraser-rise-vic-3336-2017992119,590000,is-sold,Sold by private treaty 10 Oct 2022,20221010,18 Cherish Street,FRASER RISE,VIC,3336,-37.7140045,144.701233,3,2,1,House,House,False,220,m2,False
2017993461,listing,/32-vel-street-deanside-vic-3336-2017993461,815000,is-sold,Sold by private treaty 30 Sep 2022,20220930,32 Vel Street,DEANSIDE,VIC,3336,-37.73682,144.703308,4,2,2,House,House,False,410,m2,False
2017996201,listing,/64-crown-drive-fraser-rise-vic-3336-2017996201,355000,is-sold,Sold by private treaty 06 Oct 2022,20221006,64 Crown Drive,FRASER RISE,VIC,3336,-37.69275,144.720444,,,,VacantLand,Vacant land,False,313,m2,False
2018008939,listing,/8-shearer-way-aintree-vic-3336-2018008939,690000,is-sold,Sold by private treaty 30 Sep 2022,20220930,8 Shearer Way,AINTREE,VIC,3336,-37.721653,144.66098,4,2,2,House,House,False,400,m2,False
2018018658,listing,/60-galveston-avenue-fraser-rise-vic-3336-2018018658,665000,is-sold,Sold by private treaty 28 Sep 2022,20220928,60 Galveston Avenue,FRASER RISE,VIC,3336,-37.7164574,144.724091,3,2,2,House,House,False,0,m2,False
2018028764,listing,/48-farrier-boulevard-fraser-rise-vic-3336-2018028764,455000,is-sold,Sold by private treaty 28 Sep 2022,20220928,48 Farrier Boulevard,FRASER RISE,VIC,3336,-37.7029953,144.71489,,,,VacantLand,Vacant land,False,448,m2,False
2018031211,listing,/15-hawking-crescent-fraser-rise-vic-3336-2018031211,710000,is-sold,Sold at auction 04 Oct 2022,20221004,15 Hawking Crescent,FRASER RISE,VIC,3336,-37.7096367,144.725311,4,2,2,House,House,False,471,m2,False
2018033222,listing,/7-rosemary-avenue-aintree-vic-3336-2018033222,830000,is-sold,Sold by private treaty 29 Sep 2022,20220929,7 Rosemary Avenue,AINTREE,VIC,3336,-37.7178841,144.676315,4,2,2,House,House,False,448,m2,False
2018035106,listing,/88-charleston-road-deanside-vic-3336-2018035106,395000,is-sold,Sold by private treaty 27 Sep 2022,20220927,88 Charleston Road,DEANSIDE,VIC,3336,-37.74103,144.7012,,,,VacantLand,Vacant land,False,400,m2,False
2018051376,listing,/27-tora-crescent-fraser-rise-vic-3336-2018051376,710000,is-sold,Sold by private treaty 12 Oct 2022,20221012,27 Tora Crescent,FRASER RISE,VIC,3336,-37.7072067,144.728867,4,2,2,House,House,False,375,m2,False
2018059872,listing,/8-milsom-avenue-fraser-rise-vic-3336-2018059872,775000,is-sold,Sold by private treaty 29 Sep 2022,20220929,8 Milsom Avenue,FRASER RISE,VIC,3336,-37.69108,144.710358,4,2,2,House,House,False,400,m2,False
2018066839,listing,/2-13-vinko-court-fraser-rise-vic-3336-2018066839,620000,is-sold,Sold by private treaty 04 Oct 2022,20221004,2/13 Vinko Court,FRASER RISE,VIC,3336,-37.7105331,144.725525,3,2,2,Townhouse,Townhouse,False,103,m2,False
2018083561,listing,/54-dennison-street-deanside-vic-3336-2018083561,410000,is-sold,Sold by private treaty 04 Oct 2022,20221004,54 Dennison Street,DEANSIDE,VIC,3336,-37.7381134,144.691833,,,,VacantLand,Vacant land,False,392,m2,False
2018114437,listing,/11-mustang-circuit-aintree-vic-3336-2018114437,710000,is-sold,Sold by private treaty 06 Oct 2022,20221006,11 Mustang Circuit,AINTREE,VIC,3336,-37.7215424,144.662567,4,2,2,House,House,False,294,m2,False
2017570606,listing,/18-gibbs-street-deanside-vic-3336-2017570606,680000,is-sold,Sold by private treaty 23 Sep 2022,20220923,18 Gibbs Street,DEANSIDE,VIC,3336,-37.8715973,144.992676,4,2,2,House,House,False,0,m2,False
2017715269,listing,/18-mckell-street-deanside-vic-3336-2017715269,720000,is-sold,Sold by private treaty 09 Sep 2022,20220909,18 Mckell Street,DEANSIDE,VIC,3336,-37.74103,144.7012,4,2,2,House,House,False,0,m2,False
2017886854,listing,/44-higgins-street-fraser-rise-vic-3336-2017886854,1190000,is-sold,Sold by private treaty 09 Sep 2022,20220909,44 Higgins Street,FRASER RISE,VIC,3336,-37.7063026,144.728027,5,4,4,House,House,False,576,m2,False
2017926033,listing,/36-farrier-boulevard-fraser-rise-vic-3336-2017926033,508000,is-sold,Sold by private treaty 15 Sep 2022,20220915,36 Farrier Boulevard,FRASER RISE,VIC,3336,-37.703,144.714935,,,,VacantLand,Vacant land,False,512,m2,False
2017928342,listing,/54-bonniebrook-road-aintree-vic-3336-2017928342,574000,is-sold,Sold by private treaty 13 Sep 2022,20220913,54 Bonniebrook Road,AINTREE,VIC,3336,-37.71314,144.675339,3,2,1,Townhouse,Townhouse,False,0,m2,False
2017957934,listing,/18-petunia-way-fraser-rise-vic-3336-2017957934,750000,is-sold,Sold by private treaty 14 Sep 2022,20220914,18 Petunia Way,FRASER RISE,VIC,3336,-37.7158661,144.701645,4,2,2,House,House,False,400,m2,False
2017966874,listing,/193-saric-street-fraser-rise-vic-3336-2017966874,445000,is-sold,Sold by private treaty 14 Sep 2022,20220914,193 Saric Street,FRASER RISE,VIC,3336,-37.7136421,144.71701,,,,VacantLand,Vacant land,False,551,m2,False
2017985979,listing,/20-walker-street-aintree-vic-3336-2017985979,840000,is-sold,Sold by private treaty 23 Sep 2022,20220923,20 Walker Street,AINTREE,VIC,3336,-37.7189751,144.666275,4,3,2,House,House,False,448,m2,False
2017990885,listing,/18-raddle-road-aintree-vic-3336-2017990885,780000,is-sold,Sold by private treaty 15 Sep 2022,20220915,18 Raddle Road,AINTREE,VIC,3336,-37.7184448,144.661835,4,2,2,House,House,False,0,m2,False
2017992254,listing,/51-higgins-street-fraser-rise-vic-3336-2017992254,1080000,is-sold,Sold by private treaty 21 Sep 2022,20220921,51 Higgins Street,FRASER RISE,VIC,3336,-37.7065048,144.7285,4,2,2,House,House,False,544,m2,False
2018007394,listing,/1-keats-way-fraser-rise-vic-3336-2018007394,610000,is-sold,Sold by private treaty 07 Sep 2022,20220907,1 Keats Way,FRASER RISE,VIC,3336,-37.6972733,144.7268,3,2,4,House,House,False,360,m2,False
2018018176,listing,/64-curtin-drive-deanside-vic-3336-2018018176,610000,is-sold,Sold by private treaty 09 Sep 2022,20220909,64 Curtin Drive,DEANSIDE,VIC,3336,-37.72627,144.705978,4,2,2,House,House,False,0,m2,False
2018019729,listing,/66-curtin-drive-deanside-vic-3336-2018019729,635000,is-sold,Sold by private treaty 21 Sep 2022,20220921,66 Curtin Drive,DEANSIDE,VIC,3336,-37.74157,144.700928,4,2,2,House,House,False,0,m2,False
2018025547,listing,/6-messina-street-fraser-rise-vic-3336-2018025547,711000,is-sold,Sold by private treaty 26 Sep 2022,20220926,6 Messina Street,FRASER RISE,VIC,3336,-37.7097,144.720032,4,2,2,House,House,False,395,m2,False
2018048724,listing,/30-normanby-blvd-deanside-vic-3336-2018048724,690000,is-sold,Sold by private treaty 20 Sep 2022,20220920,30 Normanby Blvd,DEANSIDE,VIC,3336,-37.7246742,144.7064,4,2,2,House,House,False,0,m2,False
2018049267,listing,/15-dimitri-street-fraser-rise-vic-3336-2018049267,740000,is-sold,Sold by private treaty 20 Sep 2022,20220920,15 Dimitri Street,FRASER RISE,VIC,3336,-37.71708,144.718491,4,2,2,House,House,False,0,m2,False
2018058487,listing,/135-maradona-boulevard-deanside-vic-3336-2018058487,560000,is-sold,Sold by private treaty 14 Sep 2022,20220914,135 Maradona Boulevard,DEANSIDE,VIC,3336,-37.74103,144.7012,3,2,1,House,House,False,0,m2,False
2018061882,listing,/46-normanby-blvd-deanside-vic-3336-2018061882,775000,is-sold,Sold by private treaty 12 Sep 2022,20220912,46 Normanby Blvd,DEANSIDE,VIC,3336,-37.72458,144.706085,4,2,2,House,House,False,392,m2,False
2018092426,listing,/49-harrier-circuit-deanside-vic-3336-2018092426,420000,is-sold,Sold by private treaty 14 Sep 2022,20220914,49 Harrier Circuit,DEANSIDE,VIC,3336,-37.7198,144.716644,,,,VacantLand,Vacant land,False,0,m2,False
2018099838,listing,/13-robertson-avenue-aintree-vic-3336-2018099838,807000,is-sold,Sold by private treaty 10 Sep 2022,20220910,13 Robertson Avenue,AINTREE,VIC,3336,-37.727272,144.674637,4,2,2,House,House,False,0,m2,False
2017447103,listing,/deanside-vic-3336-2017447103,580000,is-sold,Sold by private treaty 05 Sep 2022,20220905,,DEANSIDE,VIC,3336,-37.74103,144.7012,3,2,2,Townhouse,Townhouse,False,0,m2,False
2017738282,listing,/76-curtin-drive-deanside-vic-3336-2017738282,610000,is-sold,Sold by private treaty 01 Sep 2022,20220901,76 Curtin Drive,DEANSIDE,VIC,3336,-37.72627,144.705978,4,2,2,House,House,False,0,m2,False
2017800579,listing,/6-goulding-drive-fraser-rise-vic-3336-2017800579,655000,is-sold,Sold by private treaty 06 Sep 2022,20220906,6 Goulding Drive,FRASER RISE,VIC,3336,-37.6988258,144.725357,4,2,2,House,House,False,225,m2,False
2017894994,listing,/49-higgins-street-fraser-rise-vic-3336-2017894994,1250000,is-sold,Sold by private treaty 06 Sep 2022,20220906,49 Higgins Street,FRASER RISE,VIC,3336,-37.7065163,144.728714,4,2,3,House,House,False,612,m2,False
2017896168,listing,/8-anzac-road-aintree-vic-3336-2017896168,690000,is-sold,Sold by private treaty 02 Sep 2022,20220902,8 Anzac Road,AINTREE,VIC,3336,-37.7192421,144.670547,4,2,2,House,House,False,401,m2,False
2017899719,listing,/75-aspire-boulevard-fraser-rise-vic-3336-2017899719,675000,is-sold,Sold by private treaty 06 Sep 2022,20220906,75 Aspire Boulevard,FRASER RISE,VIC,3336,-37.7004547,144.726944,4,2,2,House,House,False,272,m2,False
2017908628,listing,/3-grey-court-deanside-vic-3336-2017908628,435000,is-sold,Sold by private treaty 05 Sep 2022,20220905,3 Grey Court,DEANSIDE,VIC,3336,-37.7394524,144.69397,,,,VacantLand,Vacant land,False,451,m2,False
2017933272,listing,/10-joey-crescent-deanside-vic-3336-2017933272,750000,is-sold,Sold by private treaty 30 Aug 2022,20220830,10 Joey Crescent,DEANSIDE,VIC,3336,-37.74103,144.7012,4,2,2,House,House,False,407,m2,False
2017955850,listing,/22-zodiac-way-fraser-rise-vic-3336-2017955850,785000,is-sold,Sold by private treaty 04 Sep 2022,20220904,22 Zodiac Way,FRASER RISE,VIC,3336,-37.713028,144.732346,4,2,2,House,House,False,420,m2,False
2017972469,listing,/19-solstice-drive-fraser-rise-vic-3336-2017972469,891000,is-sold,Sold by private treaty 06 Sep 2022,20220906,19 Solstice Drive,FRASER RISE,VIC,3336,-37.71041,144.728317,4,2,2,House,House,False,0,m2,False
2017975039,listing,/45-zodiac-way-fraser-rise-vic-3336-2017975039,647000,is-sold,Sold at auction 31 Aug 2022,20220831,45 Zodiac Way,FRASER RISE,VIC,3336,-37.7115974,144.730927,3,2,1,House,House,False,411,m2,False
2018003897,listing,/42-henderson-circuit-aintree-vic-3336-2018003897,735000,is-sold,Sold by private treaty 01 Sep 2022,20220901,42 Henderson Circuit,AINTREE,VIC,3336,-37.71702,144.671173,4,2,2,House,House,False,400,m2,False
2018008326,listing,/2-wright-circuit-fraser-rise-vic-3336-2018008326,640000,is-sold,Sold by private treaty 01 Sep 2022,20220901,2 Wright Circuit,FRASER RISE,VIC,3336,-37.7019653,144.7261,4,2,2,House,House,False,265,m2,False
2018018201,listing,/2-shining-lane-aintree-vic-3336-2018018201,655000,is-sold,Sold by private treaty 03 Sep 2022,20220903,2 Shining Lane,AINTREE,VIC,3336,-37.7215424,144.662567,4,3,2,House,House,False,0,m2,False
2018019491,listing,/24-orbis-avenue-fraser-rise-vic-3336-2018019491,815000,is-sold,Sold by private treaty 02 Sep 2022,20220902,24 Orbis Avenue,FRASER RISE,VIC,3336,-37.7196846,144.731812,4,2,2,House,House,False,475,m2,False
2018027839,listing,/11-galibier-parade-fraser-rise-vic-3336-2018027839,860000,is-sold,Sold by private treaty 04 Sep 2022,20220904,11 Galibier Parade,FRASER RISE,VIC,3336,-37.7122231,144.722366,4,2,2,House,House,False,491,m2,False
2018030850,listing,/13-rowling-street-fraser-rise-vic-3336-2018030850,840000,is-sold,Sold by private treaty 07 Sep 2022,20220907,13 Rowling Street,FRASER RISE,VIC,3336,-37.694603,144.727325,4,2,2,House,House,False,0,m2,False
2018047511,listing,/51-malone-circuit-deanside-vic-3336-2018047511,570000,is-sold,Sold by private treaty 05 Sep 2022,20220905,51 Malone Circuit,DEANSIDE,VIC,3336,-37.723896,144.720413,3,2,1,House,House,False,221,m2,False
2018048455,listing,/1-mckell-drive-deanside-vic-3336-2018048455,605000,is-sold,Sold by private treaty 06 Sep 2022,20220906,1 Mckell Drive,DEANSIDE,VIC,3336,-37.74103,144.7012,4,2,2,House,House,False,0,m2,False
2018359375,listing,/18-opulence-avenue-fraser-rise-vic-3336-2018359375,380000,is-sold,Sold by private treaty 31 Aug 2022,20220831,18 Opulence Avenue,FRASER RISE,VIC,3336,-37.7097321,144.7268,,,,VacantLand,Vacant land,False,420,m2,False
2017181416,listing,/69-malone-circuit-deanside-vic-3336-2017181416,562000,is-sold,Sold by private treaty 15 Aug 2022,20220815,69 Malone Circuit,DEANSIDE,VIC,3336,-37.7241669,144.722,3,2,1,House,House,False,221,m2,False
2017846998,listing,/20-winton-drive-fraser-rise-vic-3336-2017846998,700000,is-sold,Sold by private treaty 24 Aug 2022,20220824,20 Winton Drive,FRASER RISE,VIC,3336,-37.72152,144.662537,4,2,2,House,House,False,0,m2,False
2017864847,listing,/35-wright-circuit-fraser-rise-vic-3336-2017864847,515000,is-sold,Sold by private treaty 17 Aug 2022,20220817,35 Wright Circuit,FRASER RISE,VIC,3336,-37.70255,144.724686,3,1,2,House,House,False,224,m2,False
2017902031,listing,/lot-350-brockwood-street-deanside-vic-3336-2017902031,330000,is-sold,Sold by private treaty 23 Aug 2022,20220823,Lot 350 Brockwood Street,DEANSIDE,VIC,3336,-37.74103,144.7012,,,,VacantLand,Vacant land,False,276,m2,False
2017902045,listing,/lot-351-brockwood-street-deanside-vic-3336-2017902045,293000,is-sold,Sold by private treaty 23 Aug 2022,20220823,Lot 351 Brockwood Street,DEANSIDE,VIC,3336,-37.74103,144.7012,,,,VacantLand,Vacant land,False,244,m2,False
2017913195,listing,/8-kirkwood-avenue-fraser-rise-vic-3336-2017913195,770000,is-sold,Sold by private treaty 23 Aug 2022,20220823,8 Kirkwood Avenue,FRASER RISE,VIC,3336,-37.7123451,144.729172,3,2,2,House,House,False,0,m2,False
2017937417,listing,/10-turin-avenue-deanside-vic-3336-2017937417,683000,is-sold,Sold by private treaty 12 Aug 2022,20220812,10 Turin Avenue,DEANSIDE,VIC,3336,-37.74103,144.7012,3,2,2,House,House,False,0,m2,False
2017948795,listing,/23-friendship-place-fraser-rise-vic-3336-2017948795,240000,is-sold,Sold by private treaty 18 Aug 2022,20220818,23 Friendship Place,FRASER RISE,VIC,3336,-37.72152,144.662537,,,,VacantLand,Vacant land,False,214,m2,False
2017957720,listing,/41-curtin-drive-deanside-vic-3336-2017957720,640000,is-sold,Sold by private treaty 26 Aug 2022,20220826,41 Curtin Drive,DEANSIDE,VIC,3336,-37.72627,144.705978,4,2,2,House,House,False,0,m2,False
2017962070,listing,/9-cetona-street-fraser-rise-vic-3336-2017962070,525000,is-sold,Sold by private treaty 26 Aug 2022,20220826,9 Cetona Street,FRASER RISE,VIC,3336,-37.708725,144.718857,2,2,1,Townhouse,Townhouse,False,169,m2,False
2017962959,listing,/6-griffith-rd-deanside-vic-3336-2017962959,735000,is-sold,Sold by private treaty 16 Aug 2022,20220816,6 GRIFFITH RD,DEANSIDE,VIC,3336,-37.74103,144.7012,4,2,2,House,House,False,0,m2,False
2017964714,listing,/17-konark-blvd-fraser-rise-vic-3336-2017964714,662000,is-sold,Sold by private treaty 29 Aug 2022,20220829,17 Konark Blvd,FRASER RISE,VIC,3336,-37.7097321,144.7268,4,2,2,House,House,False,313,m2,False
2017981034,listing,/71-journey-drive-fraser-rise-vic-3336-2017981034,742000,is-sold,Sold at auction 27 Aug 2022,20220827,71 Journey Drive,FRASER RISE,VIC,3336,-37.702095,144.713623,4,3,2,House,House,False,0,m2,False
2017984262,listing,/lot-637-cottesmore-street-fraser-rise-vic-3336-2017984262,352000,is-sold,Sold by private treaty 29 Aug 2022,20220829,Lot 637 Cottesmore Street,FRASER RISE,VIC,3336,-37.7097321,144.7268,,,,VacantLand,Vacant land,False,392,m2,False
2017993477,listing,/10-gordes-street-fraser-rise-vic-3336-2017993477,570000,is-sold,Sold by private treaty 15 Aug 2022,20220815,10 Gordes Street,FRASER RISE,VIC,3336,-37.713726,144.723724,3,2,2,House,House,False,0,m2,False
2018001444,listing,/58-tora-crescent-fraser-rise-vic-3336-2018001444,1200000,is-sold,Sold by private treaty 27 Aug 2022,20220827,58 Tora Crescent,FRASER RISE,VIC,3336,-37.70685,144.727921,5,5,2,House,House,False,0,m2,False
2018007844,listing,/21-pigato-crescent-fraser-rise-vic-3336-2018007844,560000,is-sold,Sold by private treaty 17 Aug 2022,20220817,21 Pigato Crescent,FRASER RISE,VIC,3336,-37.71987,144.71373,3,2,2,Townhouse,Townhouse,False,0,m2,False
2018015532,listing,/118-fields-street-aintree-vic-3336-2018015532,572000,is-sold,Sold by private treaty 15 Aug 2022,20220815,118 Fields Street,AINTREE,VIC,3336,-37.7172966,144.6724,,,,VacantLand,Vacant land,False,588,m2,False
2018034552,listing,/fraser-rise-vic-3336-2018034552,,is-sold,Sold by private treaty 30 Aug 2022,20220830,,FRASER RISE,VIC,3336,-37.72152,144.662537,,,,VacantLand,Vacant land,False,513,m2,False
2018098468,listing,/15-mustang-circuit-aintree-vic-3336-2018098468,640000,is-sold,Sold by private treaty 25 Aug 2022,20220825,15 Mustang Circuit,AINTREE,VIC,3336,-37.7215424,144.662567,4,2,2,House,House,False,294,m2,False
2017570599,listing,/16-gibbs-street-deanside-vic-3336-2017570599,700000,is-sold,Sold by private treaty 08 Aug 2022,20220808,16 Gibbs Street,DEANSIDE,VIC,3336,-37.8715477,144.992737,4,2,2,NewHouseLand,New House & Land,False,0,m2,False
2017773089,listing,/22-goldsworthy-drive-fraser-rise-vic-3336-2017773089,915000,is-sold,Sold by private treaty 11 Aug 2022,20220811,22 Goldsworthy Drive,FRASER RISE,VIC,3336,-37.71922,144.729858,6,2,2,House,House,False,0,m2,False
2017810955,listing,/3-mckell-drive-deanside-vic-3336-2017810955,605000,is-sold,Sold by private treaty 01 Aug 2022,20220801,3 Mckell Drive,DEANSIDE,VIC,3336,-37.74103,144.7012,4,2,2,House,House,False,256,m2,False
2017838178,listing,/6-flock-street-aintree-vic-3336-2017838178,780000,is-sold,Sold by private treaty 10 Aug 2022,20220810,6 Flock Street,AINTREE,VIC,3336,-37.72074,144.65918,4,2,2,House,House,False,491,m2,False
2017868193,listing,/15-florina-street-fraser-rise-vic-3336-2017868193,403000,is-sold,Sold by private treaty 11 Aug 2022,20220811,15 Florina Street,FRASER RISE,VIC,3336,-37.72152,144.662537,,,,VacantLand,Vacant land,False,429,m2,False
2017890999,listing,/3-signal-circuit-aintree-vic-3336-2017890999,810000,is-sold,Sold by private treaty 06 Aug 2022,20220806,3 Signal Circuit,AINTREE,VIC,3336,-37.7183533,144.6654,4,2,2,House,House,False,480,m2,False
2017899914,listing,/230-frontier-avenue-aintree-vic-3336-2017899914,826000,is-sold,Sold by private treaty 01 Aug 2022,20220801,230 frontier avenue,AINTREE,VIC,3336,-37.72383,144.67601,4,2,2,House,House,False,448,m2,False
2017908281,listing,/27-bullion-drive-aintree-vic-3336-2017908281,1100000,is-sold,Sold by private treaty 05 Aug 2022,20220805,27 Bullion Drive,AINTREE,VIC,3336,-37.71795,144.6588,4,2,2,House,House,False,512,m2,False
2017914955,listing,/7-milsom-avenue-fraser-rise-vic-3336-2017914955,351000,is-sold,Sold by private treaty 10 Aug 2022,20220810,7 Milsom Avenue,FRASER RISE,VIC,3336,-37.69108,144.710739,,,,VacantLand,Vacant land,False,392,m2,False
2017918676,listing,/32-anna-road-fraser-rise-vic-3336-2017918676,712500,is-sold,Sold by private treaty 05 Aug 2022,20220805,32 Anna Road,FRASER RISE,VIC,3336,-37.6995239,144.718979,4,2,2,House,House,False,350,m2,False
2017935623,listing,/42-annecy-boulevard-fraser-rise-vic-3336-2017935623,475000,is-sold,Sold by private treaty 12 Aug 2022,20220812,42 Annecy Boulevard,FRASER RISE,VIC,3336,-37.7128944,144.723373,2,1,1,ApartmentUnitFlat,Apartment / Unit / Flat,False,196,m2,False
2017938016,listing,/lot-108-krateron-street-fraser-rise-vic-3336-2017938016,,is-sold,Sold by private treaty 01 Aug 2022,20220801,Lot 108 Krateron Street,FRASER RISE,VIC,3336,-37.718544,144.716919,,,,VacantLand,Vacant land,False,313,m2,False
2017949893,listing,/23-pigato-crescent-fraser-rise-vic-3336-2017949893,557500,is-sold,Sold by private treaty 06 Aug 2022,20220806,23 Pigato Crescent,FRASER RISE,VIC,3336,-37.7198639,144.71373,3,2,2,Townhouse,Townhouse,False,0,m2,False
2017951298,listing,/7-adams-drive-fraser-rise-vic-3336-2017951298,720000,is-sold,Sold by private treaty 10 Aug 2022,20220810,7 Adams Drive,FRASER RISE,VIC,3336,-37.6949348,144.725739,4,2,2,House,House,False,416,m2,False
2017953377,listing,/6-bloodsworth-road-deanside-vic-3336-2017953377,685000,is-sold,Sold by private treaty 12 Aug 2022,20220812,6 Bloodsworth Road,DEANSIDE,VIC,3336,-37.74103,144.7012,4,3,2,House,House,False,213,m2,False
2017973672,listing,/78-curtin-drive-deanside-vic-3336-2017973672,580000,is-sold,Sold by private treaty 02 Aug 2022,20220802,78 Curtin Drive,DEANSIDE,VIC,3336,-37.72627,144.705978,3,2,1,House,House,False,236,m2,False
2017980085,listing,/20-cherish-street-fraser-rise-vic-3336-2017980085,600000,is-sold,Sold by private treaty 10 Aug 2022,20220810,20 Cherish Street,FRASER RISE,VIC,3336,-37.7142677,144.700058,3,2,1,House,House,False,0,m2,False
2017996069,listing,/13-fairmont-crescent-fraser-rise-vic-3336-2017996069,705000,is-sold,Sold by private treaty 10 Aug 2022,20220810,13 Fairmont Crescent,FRASER RISE,VIC,3336,-37.72152,144.662537,4,2,2,House,House,False,294,m2,False
2018047240,listing,/72-sinclairs-road-deanside-vic-3336-2018047240,565000,is-sold,Sold by private treaty 02 Aug 2022,20220802,72 Sinclairs Road,DEANSIDE,VIC,3336,-37.7264633,144.70842,3,2,2,Townhouse,Townhouse,False,0,m2,False
2018047269,listing,/deanside-vic-3336-2018047269,670000,is-sold,Sold by private treaty 12 Aug 2022,20220812,,DEANSIDE,VIC,3336,-37.74103,144.7012,3,2,2,Townhouse,Townhouse,False,0,m2,False
2017666497,listing,/8-mamic-boulevard-fraser-rise-vic-3336-2017666497,950000,is-sold,Sold by private treaty 28 Jul 2022,20220728,8 Mamic Boulevard,FRASER RISE,VIC,3336,-37.696846,144.720535,4,2,2,House,House,False,507,m2,False
2017735002,listing,/110-pioneer-drive-aintree-vic-3336-2017735002,677500,is-sold,Sold by private treaty 21 Jul 2022,20220721,110 Pioneer Drive,AINTREE,VIC,3336,-37.72746,144.665268,4,2,2,House,House,False,350,m2,False
2017744863,listing,/3-isaacs-street-deanside-vic-3336-2017744863,710000,is-sold,Sold by private treaty 20 Jul 2022,20220720,3 Isaacs Street,DEANSIDE,VIC,3336,-37.74103,144.7012,4,2,2,House,House,False,350,m2,False
2017792096,listing,/314-frontier-avenue-aintree-vic-3336-2017792096,1160000,is-sold,Sold by private treaty 25 Jul 2022,20220725,314 Frontier Avenue,AINTREE,VIC,3336,-37.7177238,144.674011,4,3,2,House,House,False,512,m2,False
2017807965,listing,/30-gilderton-esplanade-aintree-vic-3336-2017807965,1350000,is-sold,Sold by private treaty 30 Jul 2022,20220730,30 Gilderton Esplanade,AINTREE,VIC,3336,-37.7299,144.669937,4,3,3,House,House,False,868,m2,False
2017818233,listing,/9-snowsill-way-fraser-rise-vic-3336-2017818233,955000,is-sold,Sold by private treaty 19 Jul 2022,20220719,9 Snowsill Way,FRASER RISE,VIC,3336,-37.70539,144.727768,4,2,2,House,House,False,576,m2,False
2017842523,listing,/28-crop-drive-fraser-rise-vic-3336-2017842523,671000,is-sold,Sold by private treaty 26 Jul 2022,20220726,28 Crop Drive,FRASER RISE,VIC,3336,-37.7013,144.713638,4,2,1,House,House,False,0,m2,False
2017847253,listing,/fraser-rise-vic-3336-2017847253,342000,is-sold,Sold by private treaty 26 Jul 2022,20220726,,FRASER RISE,VIC,3336,-37.72152,144.662537,,,,VacantLand,Vacant land,False,375,m2,False
2017857877,listing,/6-annecy-boulevard-fraser-rise-vic-3336-2017857877,705000,is-sold,Sold by private treaty 29 Jul 2022,20220729,6 Annecy Boulevard,FRASER RISE,VIC,3336,-37.71341,144.726,4,2,2,House,House,False,350,m2,False
2017861071,listing,/1043-assisi-street-fraser-rise-vic-3336-2017861071,480000,is-sold,Sold by private treaty 27 Jul 2022,20220727,1043 Assisi Street,FRASER RISE,VIC,3336,-37.69477,144.7157,,,,VacantLand,Vacant land,False,448,m2,False
2017867858,listing,/13-treviso-street-fraser-rise-vic-3336-2017867858,685000,is-sold,Sold by private treaty 23 Jul 2022,20220723,13 Treviso Street,FRASER RISE,VIC,3336,-37.7123,144.718491,3,2,2,House,House,False,312,m2,False
2017868655,listing,/82-featherwood-drive-aintree-vic-3336-2017868655,606500,is-sold,Sold by private treaty 29 Jul 2022,20220729,82 Featherwood Drive,AINTREE,VIC,3336,-37.72646,144.672012,3,2,2,House,House,False,0,m2,False
2017868926,listing,/11-jennings-street-deanside-vic-3336-2017868926,691000,is-sold,Sold by private treaty 23 Jul 2022,20220723,11 Jennings Street,DEANSIDE,VIC,3336,-37.7239,144.722641,4,2,2,House,House,False,350,m2,False
2017881306,listing,/5-quarry-rd-aintree-vic-3336-2017881306,495000,is-sold,Sold by private treaty 28 Jul 2022,20220728,5 Quarry Rd,AINTREE,VIC,3336,-37.71851,144.657791,,,,VacantLand,Vacant land,False,448,m2,False
2017884634,listing,/8-stevo-way-fraser-rise-vic-3336-2017884634,662000,is-sold,Sold by private treaty 22 Jul 2022,20220722,8 Stevo Way,FRASER RISE,VIC,3336,-37.6986542,144.720383,4,2,2,House,House,False,0,m2,False
2017896521,listing,/11-journey-drive-fraser-rise-vic-3336-2017896521,691000,is-sold,Sold at auction 25 Jul 2022,20220725,11 Journey Drive,FRASER RISE,VIC,3336,-37.7027435,144.716843,4,2,2,House,House,False,400,m2,False
2017916267,listing,/12-lunar-way-fraser-rise-vic-3336-2017916267,730000,is-sold,Sold by private treaty 23 Jul 2022,20220723,12 Lunar Way,FRASER RISE,VIC,3336,-37.708744,144.731018,3,2,2,House,House,False,451,m2,False
2017917692,listing,/42-chateau-promenade-deanside-vic-3336-2017917692,557500,is-sold,Sold by private treaty 29 Jul 2022,20220729,42 Chateau Promenade,DEANSIDE,VIC,3336,-37.72002,144.7145,3,2,1,Townhouse,Townhouse,False,0,m2,False
2017920248,listing,/50-bonniebrook-road-aintree-vic-3336-2017920248,596500,is-sold,Sold by private treaty 24 Jul 2022,20220724,50 Bonniebrook Road,AINTREE,VIC,3336,-37.713623,144.6768,3,2,1,Townhouse,Townhouse,False,209,m2,False
2017924952,listing,/7-gromark-street-aintree-vic-3336-2017924952,828000,is-sold,Sold at auction 30 Jul 2022,20220730,7 Gromark Street,AINTREE,VIC,3336,-37.72093,144.658813,4,2,2,House,House,False,0,m2,False
2017545283,listing,/48-sirianni-blvd-fraser-rise-vic-3336-2017545283,660000,is-sold,Sold by private treaty 15 Jul 2022,20220715,48 SIRIANNI BLVD,FRASER RISE,VIC,3336,-37.6912651,144.712357,4,2,2,NewHouseLand,New House & Land,False,0,m2,False
2017688356,listing,/15-gibbs-street-deanside-vic-3336-2017688356,655000,is-sold,Sold by private treaty 07 Jul 2022,20220707,15 Gibbs Street,DEANSIDE,VIC,3336,-37.87156,144.99231,4,2,2,House,House,False,0,m2,False
2017709023,listing,/11-scanlon-street-aintree-vic-3336-2017709023,675000,is-sold,Sold by private treaty 04 Jul 2022,20220704,11 Scanlon Street,AINTREE,VIC,3336,-37.72766,144.66394,3,2,2,House,House,False,400,m2,False
2017728026,listing,/4-dunbar-street-fraser-rise-vic-3336-2017728026,705000,is-sold,Sold by private treaty 06 Jul 2022,20220706,4 Dunbar Street,FRASER RISE,VIC,3336,-37.6952667,144.719971,4,2,2,House,House,False,0,m2,False
2017744858,listing,/48-curtin-drive-deanside-vic-3336-2017744858,608000,is-sold,Sold by private treaty 12 Jul 2022,20220712,48 Curtin Drive,DEANSIDE,VIC,3336,-37.72627,144.705978,4,2,2,House,House,False,0,m2,False
2017805761,listing,/19-galveston-avenue-fraser-rise-vic-3336-2017805761,775000,is-sold,Sold by private treaty 11 Jul 2022,20220711,19 Galveston Avenue,FRASER RISE,VIC,3336,-37.7175522,144.723267,4,2,2,House,House,False,448,m2,False
2017831622,listing,/42-krateron-street-fraser-rise-vic-3336-2017831622,400000,is-sold,Sold by private treaty 11 Jul 2022,20220711,42 Krateron Street,FRASER RISE,VIC,3336,-37.7175255,144.717117,,,,VacantLand,Vacant land,False,350,m2,False
2017835948,listing,/1538-adenmore-circuit-deanside-vic-3336-2017835948,,is-sold,Sold by private treaty 05 Jul 2022,20220705,1538 Adenmore Circuit,DEANSIDE,VIC,3336,-37.74103,144.7012,3,2,1,Townhouse,Townhouse,False,163,m2,False
2017836097,listing,/34-cherish-street-fraser-rise-vic-3336-2017836097,721000,is-sold,Sold by private treaty 07 Jul 2022,20220707,34 Cherish Street,FRASER RISE,VIC,3336,-37.7097321,144.7268,4,2,1,House,House,False,340,m2,False
2017864018,listing,/4-gordes-street-fraser-rise-vic-3336-2017864018,590000,is-sold,Sold by private treaty 18 Jul 2022,20220718,4 Gordes Street,FRASER RISE,VIC,3336,-37.713356,144.7238,3,2,2,Townhouse,Townhouse,False,184,m2,False
2017866091,listing,/1508-merindah-boulevard-deanside-vic-3336-2017866091,,is-sold,Sold by private treaty 05 Jul 2022,20220705,1508 Merindah Boulevard,DEANSIDE,VIC,3336,-37.72147,144.718735,4,2,2,NewHouseLand,New House & Land,False,325,m2,False
2017868574,listing,/67-malone-circuit-deanside-vic-3336-2017868574,580000,is-sold,Sold by private treaty 06 Jul 2022,20220706,67 Malone Circuit,DEANSIDE,VIC,3336,-37.7241669,144.722,3,2,2,House,House,False,262,m2,False
2017879375,listing,/7-broomie-street-aintree-vic-3336-2017879375,1280000,is-sold,Sold by private treaty 11 Jul 2022,20220711,7 Broomie Street,AINTREE,VIC,3336,-37.72165,144.660553,5,3,2,House,House,False,720,m2,False
2017881352,listing,/105-pioneer-drive-aintree-vic-3336-2017881352,740000,is-sold,Sold by private treaty 18 Jul 2022,20220718,105 Pioneer Drive,AINTREE,VIC,3336,-37.7267532,144.6648,4,2,2,House,House,False,400,m2,False
2017886424,listing,/29-galveston-avenue-fraser-rise-vic-3336-2017886424,780000,is-sold,Sold by private treaty 05 Jul 2022,20220705,29 Galveston Avenue,FRASER RISE,VIC,3336,-37.71841,144.72345,4,2,2,House,House,False,0,m2,False
2017890395,listing,/51-mamic-boulevard-fraser-rise-vic-3336-2017890395,745000,is-sold,Sold by private treaty 09 Jul 2022,20220709,51 Mamic Boulevard,FRASER RISE,VIC,3336,-37.6998672,144.720825,4,2,2,House,House,False,400,m2,False
2017895152,listing,/4-baker-terrace-fraser-rise-vic-3336-2017895152,765000,is-sold,Sold by private treaty 06 Jul 2022,20220706,4 Baker Terrace,FRASER RISE,VIC,3336,-37.69095,144.70932,4,2,2,House,House,False,0,m2,False
2017915894,listing,/17-bray-street-deanside-vic-3336-2017915894,571000,is-sold,Sold by private treaty 05 Jul 2022,20220705,17 Bray Street,DEANSIDE,VIC,3336,-37.733387,144.697266,3,2,1,House,House,False,0,m2,False
2017919148,listing,/32-wright-circuit-fraser-rise-vic-3336-2017919148,750000,is-sold,Sold by private treaty 15 Jul 2022,20220715,32 Wright Circuit,FRASER RISE,VIC,3336,-37.7028427,144.724533,4,2,2,House,House,False,448,m2,False
2018194364,listing,/4-alwyn-close-aintree-vic-3336-2018194364,800000,is-sold,Sold by private treaty 18 Jul 2022,20220718,4 Alwyn Close,AINTREE,VIC,3336,-37.7190933,144.673462,4,2,,House,House,False,420,m2,False
2017689298,listing,/16-petros-street-fraser-rise-vic-3336-2017689298,740000,is-sold,Sold by private treaty 27 Jun 2022,20220627,16 Petros street,FRASER RISE,VIC,3336,-37.7097321,144.7268,4,2,2,House,House,False,400,m2,False
2017728974,listing,/lot-5621-malua-road-aintree-vic-3336-2017728974,381000,is-sold,Sold by private treaty 24 Jun 2022,20220624,Lot 5621 Malua Road,AINTREE,VIC,3336,-37.7215424,144.662567,,,,VacantLand,Vacant land,False,537,m2,False
2017735001,listing,/9-tailings-road-aintree-vic-3336-2017735001,715000,is-sold,Sold by private treaty 28 Jun 2022,20220628,9 Tailings Road,AINTREE,VIC,3336,-37.71788,144.66008,4,3,2,House,House,False,400,m2,False
2017750479,listing,/45-legrange-crescent-fraser-rise-vic-3336-2017750479,630000,is-sold,Sold by private treaty 28 Jun 2022,20220628,45 Legrange Crescent,FRASER RISE,VIC,3336,-37.70719,144.725311,4,2,2,House,House,False,315,m2,False
2017782778,listing,/74-featherwood-drive-aintree-vic-3336-2017782778,605000,is-sold,Sold by private treaty 29 Jun 2022,20220629,74 Featherwood Drive,AINTREE,VIC,3336,-37.7266579,144.672119,3,2,2,House,House,False,0,m2,False
2017803771,listing,/10-portobello-way-fraser-rise-vic-3336-2017803771,765000,is-sold,Sold by private treaty 04 Jul 2022,20220704,10 Portobello Way,FRASER RISE,VIC,3336,-37.6896133,144.709381,4,2,2,House,House,False,440,m2,False
2017804951,listing,/38-malone-circuit-deanside-vic-3336-2017804951,600000,is-sold,Sold by private treaty 29 Jun 2022,20220629,38 Malone Circuit,DEANSIDE,VIC,3336,-37.72286,144.721176,4,2,1,House,House,False,0,m2,False
2017815477,listing,/7-monticiano-road-fraser-rise-vic-3336-2017815477,855000,is-sold,Sold by private treaty 04 Jul 2022,20220704,7 Monticiano Road,FRASER RISE,VIC,3336,-37.7102776,144.720749,4,3,2,House,House,False,0,m2,False
2017833553,listing,/38-higgins-street-fraser-rise-vic-3336-2017833553,1258000,is-sold,Sold at auction 25 Jun 2022,20220625,38 Higgins Street,FRASER RISE,VIC,3336,-37.70602,144.728546,4,2,2,House,House,False,576,m2,False
2017835763,listing,/8-ellson-street-aintree-vic-3336-2017835763,1310000,is-sold,Sold by private treaty 29 Jun 2022,20220629,8 Ellson Street,AINTREE,VIC,3336,-37.7210846,144.667542,5,4,2,House,House,False,0,m2,False
2017836356,listing,/63-hawking-crescent-fraser-rise-vic-3336-2017836356,773000,is-sold,Sold at auction 25 Jun 2022,20220625,63 Hawking Crescent,FRASER RISE,VIC,3336,-37.7081146,144.7232,4,2,2,House,House,False,504,m2,False
2017841939,listing,/11-ellson-street-aintree-vic-3336-2017841939,505000,is-sold,Sold by private treaty 30 Jun 2022,20220630,11 Ellson Street,AINTREE,VIC,3336,-37.7210846,144.667542,2,1,2,Townhouse,Townhouse,False,0,m2,False
2017848878,listing,/22-scatter-road-fraser-rise-vic-3336-2017848878,817000,is-sold,Sold by private treaty 04 Jul 2022,20220704,"22 Scatter Road,",FRASER RISE,VIC,3336,-37.70074,144.713455,4,2,2,House,House,False,0,m2,False
2017873193,listing,/5-luxor-drive-fraser-rise-vic-3336-2017873193,640000,is-sold,Sold by private treaty 29 Jun 2022,20220629,5 Luxor Drive,FRASER RISE,VIC,3336,-37.7188072,144.725357,3,2,2,House,House,False,402,m2,False
2017874532,listing,/1-13-vinko-court-fraser-rise-vic-3336-2017874532,600000,is-sold,Sold by private treaty 29 Jun 2022,20220629,1/13 Vinko Court,FRASER RISE,VIC,3336,-37.7105331,144.725525,3,2,2,Townhouse,Townhouse,False,108,m2,False
2017892884,listing,/10-solstice-drive-fraser-rise-vic-3336-2017892884,690000,is-sold,Sold by private treaty 29 Jun 2022,20220629,10 Solstice Drive,FRASER RISE,VIC,3336,-37.7111855,144.728516,4,2,2,House,House,False,358,m2,False
2017895106,listing,/74-curtin-drive-deanside-vic-3336-2017895106,580000,is-sold,Sold by private treaty 26 Jun 2022,20220626,74 Curtin Drive,DEANSIDE,VIC,3336,-37.72627,144.705978,3,2,1,House,House,False,221,m2,False
2017901242,listing,/6-jarvis-road-aintree-vic-3336-2017901242,1070000,is-sold,Sold by private treaty 29 Jun 2022,20220629,6 Jarvis Road,AINTREE,VIC,3336,-37.7290878,144.66832,6,3,2,House,House,False,0,m2,False
2017922722,listing,/42-journey-drive-fraser-rise-vic-3336-2017922722,599999,is-sold,Sold by private treaty 25 Jun 2022,20220625,42 Journey Drive,FRASER RISE,VIC,3336,-37.7021179,144.714233,4,2,1,House,House,False,178,m2,False
2018033197,listing,/139-bonniebrook-road-aintree-vic-3336-2018033197,830000,is-sold,Sold by private treaty 29 Jun 2022,20220629,139 Bonniebrook Road,AINTREE,VIC,3336,-37.7131042,144.677032,4,2,2,House,House,False,400,m2,False
2017627620,listing,/9-messina-street-fraser-rise-vic-3336-2017627620,835000,is-sold,Sold by private treaty 17 Jun 2022,20220617,9 Messina Street,FRASER RISE,VIC,3336,-37.7097,144.720032,5,2,2,House,House,False,0,m2,False
2017632704,listing,/4-gleeson-way-deanside-vic-3336-2017632704,691000,is-sold,Sold by private treaty 22 Jun 2022,20220622,4 Gleeson Way,DEANSIDE,VIC,3336,-37.7401733,144.693863,4,2,2,House,House,False,351,m2,False
2017688583,listing,/5-higgins-street-fraser-rise-vic-3336-2017688583,705000,is-sold,Sold by private treaty 08 Jun 2022,20220608,5 Higgins Street,FRASER RISE,VIC,3336,-37.70434,144.729126,3,2,2,House,House,False,400,m2,False
2017728025,listing,/41-annecy-boulevard-fraser-rise-vic-3336-2017728025,771000,is-sold,Sold by private treaty 16 Jun 2022,20220616,41 Annecy Boulevard,FRASER RISE,VIC,3336,-37.7129974,144.722519,4,2,2,House,House,False,540,m2,False
2017754864,listing,/13-trooper-drive-aintree-vic-3336-2017754864,797000,is-sold,Sold by private treaty 24 Jun 2022,20220624,13 Trooper Drive,AINTREE,VIC,3336,-37.7215919,144.672516,4,2,2,House,House,False,0,m2,False
2017767520,listing,/6-starke-street-deanside-vic-3336-2017767520,750000,is-sold,Sold by private treaty 16 Jun 2022,20220616,6 Starke Street,DEANSIDE,VIC,3336,-37.74103,144.7012,4,2,2,House,House,False,0,m2,False
2017772061,listing,/564-hume-drive-fraser-rise-vic-3336-2017772061,745000,is-sold,Sold by private treaty 23 Jun 2022,20220623,564 Hume Drive,FRASER RISE,VIC,3336,-37.7119331,144.724014,4,2,2,House,House,False,0,m2,False
2017773095,listing,/68-wireless-drive-aintree-vic-3336-2017773095,567000,is-sold,Sold by private treaty 10 Jun 2022,20220610,68 Wireless Drive,AINTREE,VIC,3336,-37.7208061,144.6681,3,2,2,Townhouse,Townhouse,False,161,m2,False
2017774720,listing,/43-voyager-drive-fraser-rise-vic-3336-2017774720,730000,is-sold,Sold by private treaty 17 Jun 2022,20220617,43 Voyager Drive,FRASER RISE,VIC,3336,-37.70803,144.727753,4,2,3,House,House,False,0,m2,False
2017789851,listing,/29-lunar-way-fraser-rise-vic-3336-2017789851,765000,is-sold,Sold by private treaty 23 Jun 2022,20220623,29 Lunar Way,FRASER RISE,VIC,3336,-37.7094841,144.729919,4,2,2,House,House,False,534,m2,False
2017796248,listing,/9-eclipse-avenue-fraser-rise-vic-3336-2017796248,715000,is-sold,Sold by private treaty 22 Jun 2022,20220622,9 Eclipse Avenue,FRASER RISE,VIC,3336,-37.7099075,144.730942,4,2,2,House,House,False,549,m2,False
2017804880,listing,/28-malone-circuit-deanside-vic-3336-2017804880,600000,is-sold,Sold by private treaty 07 Jun 2022,20220607,28 Malone Circuit,DEANSIDE,VIC,3336,-37.72286,144.721176,4,2,1,House,House,False,0,m2,False
2017811334,listing,/63-wireless-drive-aintree-vic-3336-2017811334,560000,is-sold,Sold by private treaty 09 Jun 2022,20220609,63 Wireless Drive,AINTREE,VIC,3336,-37.72102,144.668549,3,2,2,Townhouse,Townhouse,False,182,m2,False
2017817436,listing,/14-decipher-street-aintree-vic-3336-2017817436,570000,is-sold,Sold by private treaty 07 Jun 2022,20220607,14 Decipher Street,AINTREE,VIC,3336,-37.71965,144.67308,3,2,1,House,House,False,210,m2,False
2017832417,listing,/4-pyramid-street-aintree-vic-3336-2017832417,295000,is-sold,Sold by private treaty 14 Jun 2022,20220614,4 PYRAMID STREET,AINTREE,VIC,3336,-37.7215424,144.662567,,,,VacantLand,Vacant land,False,263,m2,False
2017851022,listing,/3-quarry-road-aintree-vic-3336-2017851022,670000,is-sold,Sold by private treaty 18 Jun 2022,20220618,3 Quarry Road,AINTREE,VIC,3336,-37.7183723,144.657791,,,,VacantLand,Vacant land,False,616,m2,False
2017864319,listing,/7-gleeson-way-deanside-vic-3336-2017864319,620000,is-sold,Sold by private treaty 23 Jun 2022,20220623,7 Gleeson Way,DEANSIDE,VIC,3336,-37.74103,144.7012,4,2,2,House,House,False,263,m2,False
2017867042,listing,/57-taradale-crescent-fraser-rise-vic-3336-2017867042,1260100,is-sold,Sold by private treaty 15 Jun 2022,20220615,57 Taradale Crescent,FRASER RISE,VIC,3336,-37.696804,144.722061,4,2,3,House,House,False,576,m2,False
2017873512,listing,/34-aniseed-avenue-aintree-vic-3336-2017873512,740000,is-sold,Sold by private treaty 20 Jun 2022,20220620,34 Aniseed Avenue,AINTREE,VIC,3336,-37.7169647,144.676331,4,2,2,House,House,False,400,m2,False
2017929654,listing,/2-eclipse-avenue-fraser-rise-vic-3336-2017929654,750000,is-sold,Sold by private treaty 22 Jun 2022,20220622,2 Eclipse Avenue,FRASER RISE,VIC,3336,-37.7092819,144.731888,4,2,2,House,House,False,461,m2,False
2016998800,listing,/4-bunjil-lane-aintree-vic-3336-2016998800,420000,is-sold,Sold by private treaty 31 May 2022,20220531,4 Bunjil lane,AINTREE,VIC,3336,-37.7154427,144.676727,,,,VacantLand,Vacant land,False,595,m2,False
2017473056,listing,/6-carboni-lane-aintree-vic-3336-2017473056,750000,is-sold,Sold by private treaty 25 May 2022,20220525,6 Carboni Lane,AINTREE,VIC,3336,-37.72767,144.665939,4,2,2,House,House,False,350,m2,False
2017519065,listing,/lot-103-deanside-drive-deanside-vic-3336-2017519065,,is-sold,Sold by private treaty 19 May 2022,20220519,Lot 103 Deanside Drive,DEANSIDE,VIC,3336,-37.7342834,144.684418,,,,VacantLand,Vacant land,False,438,m2,False
2017599931,listing,/adenmore-circuit-deanside-vic-3336-2017599931,,is-sold,Sold by private treaty 19 May 2022,20220519,Adenmore Circuit,DEANSIDE,VIC,3336,-37.74103,144.7012,,,,VacantLand,Vacant land,False,434,m2,False
2017701085,listing,/5-cobblefield-street-aintree-vic-3336-2017701085,713000,is-sold,Sold by private treaty 23 May 2022,20220523,5 Cobblefield Street,AINTREE,VIC,3336,-37.7204437,144.6758,4,2,2,House,House,False,400,m2,False
2017712115,listing,/80-frontier-avenue-aintree-vic-3336-2017712115,750000,is-sold,Sold by private treaty 20 May 2022,20220520,80 Frontier Avenue,AINTREE,VIC,3336,-37.7247849,144.663162,4,2,2,House,House,False,0,m2,False
2017712211,listing,/32-crop-drive-fraser-rise-vic-3336-2017712211,735000,is-sold,Sold by private treaty 27 May 2022,20220527,32 Crop Drive,FRASER RISE,VIC,3336,-37.70155,144.714188,4,2,2,House,House,False,350,m2,False
2017715615,listing,/52-wireless-drive-aintree-vic-3336-2017715615,630000,is-sold,Sold by private treaty 25 May 2022,20220525,52 Wireless Drive,AINTREE,VIC,3336,-37.72075,144.668182,3,2,1,Townhouse,Townhouse,False,300,m2,False
2017726603,listing,/28-wavell-parade-fraser-rise-vic-3336-2017726603,670000,is-sold,Sold by private treaty 24 May 2022,20220524,28 Wavell Parade,FRASER RISE,VIC,3336,-37.7059822,144.7242,3,2,2,House,House,False,252,m2,False
2017752992,listing,/40-galveston-avenue-fraser-rise-vic-3336-2017752992,630000,is-sold,Sold by private treaty 30 May 2022,20220530,40 Galveston Avenue,FRASER RISE,VIC,3336,-37.71746,144.723984,3,2,2,House,House,False,338,m2,False
2017765594,listing,/107-bonniebrook-road-aintree-vic-3336-2017765594,605000,is-sold,Sold by private treaty 18 May 2022,20220518,107 Bonniebrook Road,AINTREE,VIC,3336,-37.71314,144.675339,3,2,2,House,House,False,0,m2,False
2017768497,listing,/10-13-vinko-court-fraser-rise-vic-3336-2017768497,597000,is-sold,Sold by private treaty 28 May 2022,20220528,10/13 Vinko Court,FRASER RISE,VIC,3336,-37.7105331,144.725525,3,2,2,Townhouse,Townhouse,False,103,m2,False
2017769198,listing,/28-palazzo-road-fraser-rise-vic-3336-2017769198,450000,is-sold,Sold by private treaty 28 May 2022,20220528,28 Palazzo Road,FRASER RISE,VIC,3336,-37.693615,144.715012,,,2,VacantLand,Vacant land,False,457,m2,False
2017770851,listing,/20-pulsar-way-fraser-rise-vic-3336-2017770851,645000,is-sold,Sold by private treaty 30 May 2022,20220530,20 Pulsar Way,FRASER RISE,VIC,3336,-37.7083054,144.727921,3,2,1,House,House,False,337,m2,False
2017783204,listing,/72-featherwood-drive-aintree-vic-3336-2017783204,615000,is-sold,Sold by private treaty 24 May 2022,20220524,72 Featherwood Drive,AINTREE,VIC,3336,-37.7266464,144.672226,3,2,2,House,House,False,0,m2,False
2017786847,listing,/3-bottlebrush-road-aintree-vic-3336-2017786847,770000,is-sold,Sold by private treaty 19 May 2022,20220519,3 Bottlebrush Road,AINTREE,VIC,3336,-37.72354,144.660278,4,2,2,House,House,False,0,m2,False
2017804189,listing,/12-mission-drive-aintree-vic-3336-2017804189,900000,is-sold,Sold by private treaty 04 Jun 2022,20220604,12 Mission Drive,AINTREE,VIC,3336,-37.718853,144.670547,4,3,2,House,House,False,400,m2,False
2017823370,listing,/51-woodlea-boulevard-aintree-vic-3336-2017823370,985000,is-sold,Sold by private treaty 23 May 2022,20220523,51 Woodlea Boulevard,AINTREE,VIC,3336,-37.72056,144.660767,,,,House,House,False,0,m2,False
2017832270,listing,/15-bray-street-deanside-vic-3336-2017832270,580000,is-sold,Sold by private treaty 28 May 2022,20220528,15 Bray Street,DEANSIDE,VIC,3336,-37.733387,144.697266,3,2,1,House,House,False,0,m2,False
2017985795,listing,/74-sinclairs-road-deanside-vic-3336-2017985795,580000,is-sold,Sold by private treaty 31 May 2022,20220531,74 Sinclairs Road,DEANSIDE,VIC,3336,-37.7266579,144.708923,3,2,2,Townhouse,Townhouse,False,0,m2,False
2017516994,listing,/17-pippen-loop-deanside-vic-3336-2017516994,445000,is-sold,Sold by private treaty 11 May 2022,20220511,17 Pippen Loop,DEANSIDE,VIC,3336,-37.7207565,144.722443,,,,VacantLand,Vacant land,False,396,m2,False
2017558201,listing,/4-pulsar-way-fraser-rise-vic-3336-2017558201,775000,is-sold,Sold by private treaty 05 May 2022,20220505,4 Pulsar Way,FRASER RISE,VIC,3336,-37.70825,144.729111,4,2,2,House,House,False,400,m2,False
2017581511,listing,/15-gold-street-aintree-vic-3336-2017581511,825000,is-sold,Sold by private treaty 09 May 2022,20220509,15 Gold Street,AINTREE,VIC,3336,-37.7171822,144.656189,4,2,2,House,House,False,0,m2,False
2017603528,listing,/8-13-vinko-court-fraser-rise-vic-3336-2017603528,580000,is-sold,Sold by private treaty 06 May 2022,20220506,8/13 Vinko Court,FRASER RISE,VIC,3336,-37.7105331,144.725525,3,2,2,Townhouse,Townhouse,False,121,m2,False
2017627996,listing,/1038-billy-road-deanside-vic-3336-2017627996,,is-sold,Sold by private treaty 06 May 2022,20220506,1038 Billy Road,DEANSIDE,VIC,3336,-37.7273445,144.7084,,,,VacantLand,Vacant land,False,420,m2,False
2017651783,listing,/89-fields-street-aintree-vic-3336-2017651783,660000,is-sold,Sold by private treaty 06 May 2022,20220506,89 Fields Street,AINTREE,VIC,3336,-37.71981,144.671082,,,,VacantLand,Vacant land,False,0,m2,False
2017671206,listing,/12-wander-way-fraser-rise-vic-3336-2017671206,675000,is-sold,Sold by private treaty 13 May 2022,20220513,12 Wander Way,FRASER RISE,VIC,3336,-37.701992,144.717667,4,2,2,House,House,False,352,m2,False
2017712817,listing,/47-wireless-drive-aintree-vic-3336-2017712817,600000,is-sold,Sold by private treaty 06 May 2022,20220506,47 Wireless Drive,AINTREE,VIC,3336,-37.72062,144.6681,3,2,2,Townhouse,Townhouse,False,0,m2,False
2017724459,listing,/111-orbis-avenue-fraser-rise-vic-3336-2017724459,710000,is-sold,Sold by private treaty 13 May 2022,20220513,111 Orbis Avenue,FRASER RISE,VIC,3336,-37.7177162,144.726425,4,2,2,Townhouse,Townhouse,False,318,m2,False
2017740971,listing,/34-forrester-grove-fraser-rise-vic-3336-2017740971,755000,is-sold,Sold at auction 14 May 2022,20220514,34 Forrester Grove,FRASER RISE,VIC,3336,-37.7066154,144.7248,3,2,2,House,House,False,430,m2,False
2017740974,listing,/9-springlands-crescent-fraser-rise-vic-3336-2017740974,772000,is-sold,Sold at auction 14 May 2022,20220514,9 Springlands Crescent,FRASER RISE,VIC,3336,-37.7125244,144.725,3,2,2,House,House,False,475,m2,False
2017741166,listing,/4-fleece-road-aintree-vic-3336-2017741166,717000,is-sold,Sold by private treaty 05 May 2022,20220505,4 Fleece Road,AINTREE,VIC,3336,-37.72031,144.6609,4,2,2,House,House,False,0,m2,False
2017746541,listing,/2232-58-taradale-crescent-fraser-rise-vic-3336-2017746541,453000,is-sold,Sold by private treaty 16 May 2022,20220516,2232/58 Taradale Crescent,FRASER RISE,VIC,3336,-37.6968651,144.722015,,,,VacantLand,Vacant land,False,448,m2,False
2017772062,listing,/29-hawking-crescent-fraser-rise-vic-3336-2017772062,960000,is-sold,Sold by private treaty 16 May 2022,20220516,29 Hawking Crescent,FRASER RISE,VIC,3336,-37.7089767,144.724442,4,2,2,House,House,False,0,m2,False
2017773741,listing,/4-eclipse-avenue-fraser-rise-vic-3336-2017773741,1025000,is-sold,Sold by private treaty 13 May 2022,20220513,4 Eclipse Avenue,FRASER RISE,VIC,3336,-37.7093239,144.73175,5,3,2,House,House,False,568,m2,False
2017782684,listing,/25-winton-drive-fraser-rise-vic-3336-2017782684,701000,is-sold,Sold by private treaty 09 May 2022,20220509,25 Winton Drive,FRASER RISE,VIC,3336,-37.72152,144.662537,3,2,2,House,House,False,0,m2,False
2017789473,listing,/9-13-vinko-court-fraser-rise-vic-3336-2017789473,585000,is-sold,Sold by private treaty 09 May 2022,20220509,9/13 Vinko Court,FRASER RISE,VIC,3336,-37.7105331,144.725525,3,2,2,Townhouse,Townhouse,False,121,m2,False
2017865462,listing,/15-shearman-road-deanside-vic-3336-2017865462,722000,is-sold,Sold by private treaty 08 May 2022,20220508,15 Shearman Road,DEANSIDE,VIC,3336,-37.74103,144.7012,4,2,2,House,House,False,360,m2,False
2017887975,listing,/lot-5620-malua-road-aintree-vic-3336-2017887975,359000,is-sold,Sold by private treaty 05 May 2022,20220505,LOT 5620 Malua Road,AINTREE,VIC,3336,-37.7215424,144.662567,,,,VacantLand,Vacant land,False,448,m2,False
2017985796,listing,/76-sinclairs-road-deanside-vic-3336-2017985796,580000,is-sold,Sold by private treaty 12 May 2022,20220512,76 Sinclairs Road,DEANSIDE,VIC,3336,-37.72554,144.7086,3,2,2,Townhouse,Townhouse,False,0,m2,False
2017507542,listing,/23-malone-circuit-deanside-vic-3336-2017507542,735000,is-sold,Sold by private treaty 21 Apr 2022,20220421,23 Malone Circuit,DEANSIDE,VIC,3336,-37.72286,144.721176,3,2,2,House,House,False,0,m2,False
2017571392,listing,/11-taradale-crescent-fraser-rise-vic-3336-2017571392,1260000,is-sold,Sold by private treaty 22 Apr 2022,20220422,11 Taradale Crescent,FRASER RISE,VIC,3336,-37.69631,144.72139,5,3,2,House,House,False,512,m2,False
2017594001,listing,/14-escott-road-aintree-vic-3336-2017594001,660000,is-sold,Sold by private treaty 21 Apr 2022,20220421,14 Escott Road,AINTREE,VIC,3336,-37.7202225,144.6701,4,2,1,House,House,False,336,m2,False
2017627022,listing,/4-rutherford-avenue-fraser-rise-vic-3336-2017627022,1000000,is-sold,Sold by private treaty 02 May 2022,20220502,4 Rutherford Avenue,FRASER RISE,VIC,3336,-37.7050934,144.727661,3,3,2,House,House,False,575,m2,False
2017633149,listing,/47-homage-avenue-fraser-rise-vic-3336-2017633149,650000,is-sold,Sold by private treaty 04 May 2022,20220504,47 Homage Avenue,FRASER RISE,VIC,3336,-37.7145042,144.695251,3,2,2,House,House,False,0,m2,False
2017648508,listing,/14-greenwood-drive-aintree-vic-3336-2017648508,970000,is-sold,Sold by private treaty 27 Apr 2022,20220427,14 Greenwood Drive,AINTREE,VIC,3336,-37.7141037,144.673538,4,2,4,House,House,False,512,m2,False
2017661455,listing,/94-aspire-boulevard-fraser-rise-vic-3336-2017661455,830000,is-sold,Sold by private treaty 26 Apr 2022,20220426,94 Aspire Boulevard,FRASER RISE,VIC,3336,-37.7013435,144.72612,4,2,2,House,House,False,413,m2,False
2017661525,listing,/34-bullion-drive-aintree-vic-3336-2017661525,992500,is-sold,Sold prior to auction 21 Apr 2022,20220421,34 Bullion Drive,AINTREE,VIC,3336,-37.71747,144.6593,4,2,2,House,House,False,0,m2,False
2017667770,listing,/lot-125-paskas-drive-fraser-rise-vic-3336-2017667770,,is-sold,Sold by private treaty 03 May 2022,20220503,Lot 125 Paskas Drive,FRASER RISE,VIC,3336,-37.7097321,144.7268,,,,VacantLand,Vacant land,False,339,m2,False
2017667818,listing,/lot-135-skyros-road-fraser-rise-vic-3336-2017667818,,is-sold,Sold by private treaty 27 Apr 2022,20220427,Lot 135 Skyros Road,FRASER RISE,VIC,3336,-37.7097321,144.7268,,,,VacantLand,Vacant land,False,432,m2,False
2017670747,listing,/39-curtin-dr-deanside-vic-3336-2017670747,735000,is-sold,Sold by private treaty 30 Apr 2022,20220430,39 Curtin dr,DEANSIDE,VIC,3336,-37.74103,144.7012,4,2,2,House,House,False,350,m2,False
2017671932,listing,/16-devine-lane-aintree-vic-3336-2017671932,790000,is-sold,Sold by private treaty 22 Apr 2022,20220422,16 Devine Lane,AINTREE,VIC,3336,-37.7258148,144.661392,4,2,2,House,House,False,350,m2,False
2017681764,listing,/52-curtin-drive-deanside-vic-3336-2017681764,630000,is-sold,Sold by private treaty 24 Apr 2022,20220424,52 Curtin Drive,DEANSIDE,VIC,3336,-37.74103,144.7012,4,2,2,House,House,False,0,m2,False
2017712796,listing,/87-cascade-drive-aintree-vic-3336-2017712796,1050000,is-sold,Sold at auction 23 Apr 2022,20220423,87 Cascade Drive,AINTREE,VIC,3336,-37.71628,144.678513,4,3,2,House,House,False,466,m2,False
2017727504,listing,/22-morrisey-terrace-aintree-vic-3336-2017727504,1339000,is-sold,Sold prior to auction 26 Apr 2022,20220426,22 Morrisey Terrace,AINTREE,VIC,3336,-37.7209473,144.664032,5,3,3,House,House,False,591,m2,False
2017728027,listing,/22-aspire-boulevard-fraser-rise-vic-3336-2017728027,955000,is-sold,Sold by private treaty 26 Apr 2022,20220426,22 Aspire Boulevard,FRASER RISE,VIC,3336,-37.6954231,144.726,4,2,2,House,House,False,522,m2,False
2017733835,listing,/33-pear-parade-fraser-rise-vic-3336-2017733835,430000,is-sold,Sold by private treaty 29 Apr 2022,20220429,33 Pear Parade,FRASER RISE,VIC,3336,-37.7011147,144.712067,,,,VacantLand,Vacant land,False,396,m2,False
2017742244,listing,/100-city-vista-court-fraser-rise-vic-3336-2017742244,730000,is-sold,Sold by private treaty 27 Apr 2022,20220427,100 City Vista Court,FRASER RISE,VIC,3336,-37.7115059,144.726624,3,2,3,House,House,False,424,m2,False
2017756390,listing,/46-featherwood-drive-aintree-vic-3336-2017756390,890000,is-sold,Sold by private treaty 02 May 2022,20220502,46 Featherwood Drive,AINTREE,VIC,3336,-37.7268639,144.672165,5,2,2,House,House,False,475,m2,False
2017778050,listing,/10-italianate-avenue-deanside-vic-3336-2017778050,290000,is-sold,Sold by private treaty 27 Apr 2022,20220427,10 Italianate Avenue,DEANSIDE,VIC,3336,-37.74103,144.7012,,,,VacantLand,Vacant land,False,224,m2,False
2017466364,listing,/33-cascade-drive-aintree-vic-3336-2017466364,748500,is-sold,Sold by private treaty 20 Apr 2022,20220420,33 Cascade Drive,AINTREE,VIC,3336,-37.7198,144.680023,4,2,2,House,House,False,448,m2,False
2017536100,listing,/28-featherwood-drive-aintree-vic-3336-2017536100,800000,is-sold,Sold by private treaty 12 Apr 2022,20220412,28 Featherwood Drive,AINTREE,VIC,3336,-37.726284,144.67601,4,2,,House,House,False,556,m2,False
2017592078,listing,/12-stevo-way-fraser-rise-vic-3336-2017592078,610000,is-sold,Sold by private treaty 07 Apr 2022,20220407,12 Stevo Way,FRASER RISE,VIC,3336,-37.69879,144.7197,,,,VacantLand,Vacant land,False,651,m2,False
2017613453,listing,/11-wander-way-fraser-rise-vic-3336-2017613453,700000,is-sold,Sold by private treaty 07 Apr 2022,20220407,11 Wander Way,FRASER RISE,VIC,3336,-37.70189,144.716827,3,2,2,House,House,False,448,m2,False
2017626521,listing,/19-forrester-grove-fraser-rise-vic-3336-2017626521,718000,is-sold,Sold by private treaty 11 Apr 2022,20220411,19 Forrester Grove,FRASER RISE,VIC,3336,-37.70593,144.725143,3,2,2,House,House,False,0,m2,False
2017636209,listing,/98-pioneer-drive-aintree-vic-3336-2017636209,730000,is-sold,Sold by private treaty 12 Apr 2022,20220412,98 Pioneer Drive,AINTREE,VIC,3336,-37.72697,144.664246,4,2,2,House,House,False,0,m2,False
2017651205,listing,/15-jardine-drive-fraser-rise-vic-3336-2017651205,577500,is-sold,Sold by private treaty 07 Apr 2022,20220407,15 Jardine Drive,FRASER RISE,VIC,3336,-37.71003,144.723267,3,1,1,House,House,False,261,m2,False
2017651899,listing,/5-receiver-road-aintree-vic-3336-2017651899,760000,is-sold,Sold at auction 10 Apr 2022,20220410,5 Receiver Road,AINTREE,VIC,3336,-37.7207832,144.672058,4,2,2,House,House,False,448,m2,False
2017664106,listing,/6-pulsar-way-fraser-rise-vic-3336-2017664106,712500,is-sold,Sold by private treaty 12 Apr 2022,20220412,6 Pulsar Way,FRASER RISE,VIC,3336,-37.70833,144.728989,4,2,2,House,House,False,400,m2,False
2017667724,listing,/lot-123-paskas-drive-fraser-rise-vic-3336-2017667724,,is-sold,Sold by private treaty 13 Apr 2022,20220413,Lot 123 Paskas Drive,FRASER RISE,VIC,3336,-37.7097321,144.7268,,,,VacantLand,Vacant land,False,265,m2,False
2017676118,listing,/5-tora-crescent-fraser-rise-vic-3336-2017676118,770000,is-sold,Sold by private treaty 21 Apr 2022,20220421,5 Tora Crescent,FRASER RISE,VIC,3336,-37.7069168,144.731018,4,2,2,House,House,False,444,m2,False
2017689280,listing,/8-mckillop-way-fraser-rise-vic-3336-2017689280,565000,is-sold,Sold by private treaty 19 Apr 2022,20220419,8 Mckillop Way,FRASER RISE,VIC,3336,-37.70131,144.728134,3,2,2,House,House,False,0,m2,False
2017700236,listing,/16-gordes-street-fraser-rise-vic-3336-2017700236,605000,is-sold,Sold by private treaty 19 Apr 2022,20220419,16 Gordes Street,FRASER RISE,VIC,3336,-37.71433,144.723618,3,2,2,House,House,False,0,m2,False
2017709954,listing,/14-broomie-street-aintree-vic-3336-2017709954,1365000,is-sold,Sold by private treaty 10 Apr 2022,20220410,14 Broomie Street,AINTREE,VIC,3336,-37.7219238,144.6601,7,4,3,House,House,False,720,m2,False
2017712212,listing,/21-annecy-boulevard-fraser-rise-vic-3336-2017712212,636000,is-sold,Sold by private treaty 20 Apr 2022,20220420,21 Annecy Boulevard,FRASER RISE,VIC,3336,-37.7134132,144.7242,3,2,2,House,House,False,293,m2,False
2017731479,listing,/45-modena-road-fraser-rise-vic-3336-2017731479,745000,is-sold,Sold by private treaty 20 Apr 2022,20220420,45 Modena Road,FRASER RISE,VIC,3336,-37.6939621,144.71698,3,2,2,House,House,False,374,m2,False
2017746644,listing,/28-curtin-drive-deanside-vic-3336-2017746644,613000,is-sold,Sold by private treaty 20 Apr 2022,20220420,28 Curtin Drive,DEANSIDE,VIC,3336,-37.74103,144.7012,4,2,2,House,House,False,289,m2,False
2017746662,listing,/36-curtin-drive-deanside-vic-3336-2017746662,600000,is-sold,Sold by private treaty 20 Apr 2022,20220420,36 Curtin Drive,DEANSIDE,VIC,3336,-37.74103,144.7012,4,2,2,House,House,False,289,m2,False
2017746971,listing,/30-curtin-drive-deanside-vic-3336-2017746971,610000,is-sold,Sold by private treaty 20 Apr 2022,20220420,30 Curtin Drive,DEANSIDE,VIC,3336,-37.74103,144.7012,4,2,2,House,House,False,289,m2,False
2017748191,listing,/2-rosemary-avenue-aintree-vic-3336-2017748191,545000,is-sold,Sold by private treaty 14 Apr 2022,20220414,2 Rosemary Avenue,AINTREE,VIC,3336,-37.7178955,144.676636,,,,VacantLand,Vacant land,False,572,m2,False
2017442656,listing,/70-frontier-avenue-aintree-vic-3336-2017442656,960000,is-sold,Sold by private treaty 29 Mar 2022,20220329,70 Frontier Avenue,AINTREE,VIC,3336,-37.7243423,144.6622,5,3,2,House,House,False,0,m2,False
2017550842,listing,/lot-122-22-66-sinclairs-road-deanside-vic-3336-2017550842,,is-sold,Sold by private treaty 29 Mar 2022,20220329,Lot 122/22-66 Sinclairs Road,DEANSIDE,VIC,3336,-37.7231979,144.709412,,,,VacantLand,Vacant land,False,262,m2,False
2017550845,listing,/lot-133-22-66-sinclairs-road-deanside-vic-3336-2017550845,,is-sold,Sold by private treaty 29 Mar 2022,20220329,Lot 133/22-66 Sinclairs Road,DEANSIDE,VIC,3336,-37.7231979,144.709412,,,,VacantLand,Vacant land,False,350,m2,False
2017550869,listing,/lot-163-22-66-sinclairs-road-deanside-vic-3336-2017550869,,is-sold,Sold by private treaty 29 Mar 2022,20220329,Lot 163/22-66 Sinclairs Road,DEANSIDE,VIC,3336,-37.7231979,144.709412,,,,VacantLand,Vacant land,False,387,m2,False
2017584970,listing,/12-raddle-road-aintree-vic-3336-2017584970,740000,is-sold,Sold by private treaty 29 Mar 2022,20220329,12 Raddle Road,AINTREE,VIC,3336,-37.7192078,144.661621,4,2,2,House,House,False,448,m2,False
2017588846,listing,/13-mast-street-aintree-vic-3336-2017588846,760000,is-sold,Sold by private treaty 29 Mar 2022,20220329,13 Mast Street,AINTREE,VIC,3336,-37.7211,144.674973,4,2,2,House,House,False,400,m2,False
