id,listingType,url,price,tagClassName,tagText,date,street,suburb,state,postcode,lat,lng,beds,baths,parking,propertyType,propertyTypeFormatted,isRural,landSize,landUnit,isRetirement
2017993793,listing,/7-indi-street-alfredton-vic-3350-2017993793,442000,is-sold,Sold by private treaty 27 Feb 2023,20230227,7 Indi Street,ALFREDTON,VIC,3350,-37.55623,143.80574,3,2,3,House,House,False,732,m2,False
2018289006,listing,/330-drummond-street-south-ballarat-central-vic-3350-2018289006,Price Withheld,is-sold,Sold by private treaty 27 Feb 2023,20230227,330 Drummond Street South,BALLARAT CENTRAL,VIC,3350,-37.56893,143.845688,3,1,4,House,House,False,434,m2,False
2018339207,listing,/107-clissold-street-black-hill-vic-3350-2018339207,Price Withheld,is-sold,Sold by private treaty 27 Feb 2023,20230227,107 Clissold Street,BLACK HILL,VIC,3350,-37.5539436,143.866272,3,1,1,House,House,False,1026,m2,False
2018303009,listing,/17-thompson-street-brown-hill-vic-3350-2018303009,570000,is-sold,Sold by private treaty 27 Feb 2023,20230227,17 Thompson Street,BROWN HILL,VIC,3350,-37.5554047,143.893478,4,2,2,House,House,False,1176,m2,False
2018330681,listing,/14-coorabin-drive-brown-hill-vic-3350-2018330681,1020000,is-sold,Sold by private treaty 27 Feb 2023,20230227,14 Coorabin Drive,BROWN HILL,VIC,3350,-37.5339546,143.9203,4,2,2,House,House,False,971,m2,False
2018277234,listing,/4-302-clayton-street-canadian-vic-3350-2018277234,500000,is-sold,Sold by private treaty 27 Feb 2023,20230227,4/302 Clayton Street,CANADIAN,VIC,3350,-37.5736771,143.875183,3,2,2,ApartmentUnitFlat,Apartment / Unit / Flat,False,220,m2,False
2018356545,listing,/104-duncan-street-lake-wendouree-vic-3350-2018356545,1610000,is-sold,Sold by private treaty 27 Feb 2023,20230227,104 Duncan Street,LAKE WENDOUREE,VIC,3350,-37.5525742,143.848053,4,2,2,House,House,False,588,m2,False
2018078827,listing,/6-horwood-drive-mount-clear-vic-3350-2018078827,360000,is-sold,Sold by private treaty 28 Feb 2023,20230228,6 Horwood Drive,MOUNT CLEAR,VIC,3350,-37.5925369,143.87175,1,1,2,House,House,False,737,m2,False
