id,listingType,url,price,tagClassName,tagText,date,street,suburb,state,postcode,lat,lng,beds,baths,parking,propertyType,propertyTypeFormatted,isRural,landSize,landUnit,isRetirement
2017993793,listing,/7-indi-street-alfredton-vic-3350-2017993793,442000,is-sold,Sold by private treaty 27 Feb 2023,20230227,7 Indi Street,ALFREDTON,VIC,3350,-37.55623,143.80574,3,3,3,House,House,False,732,m2,False
2018289006,listing,/330-drummond-street-south-ballarat-central-vic-3350-2018289006,,is-sold,Sold by private treaty 27 Feb 2023,20230227,330 Drummond Street South,BALLARAT CENTRAL,VIC,3350,-37.56893,143.845688,3,3,3,House,House,False,434,m2,False
2018339207,listing,/107-clissold-street-black-hill-vic-3350-2018339207,,is-sold,Sold by private treaty 27 Feb 2023,20230227,107 Clissold Street,BLACK HILL,VIC,3350,-37.5539436,143.866272,3,3,3,House,House,False,1026,m2,False
2018303009,listing,/17-thompson-street-brown-hill-vic-3350-2018303009,570000,is-sold,Sold by private treaty 27 Feb 2023,20230227,17 Thompson Street,BROWN HILL,VIC,3350,-37.5554047,143.893478,4,4,4,House,House,False,1176,m2,False
2018330681,listing,/14-coorabin-drive-brown-hill-vic-3350-2018330681,1020000,is-sold,Sold by private treaty 27 Feb 2023,20230227,14 Coorabin Drive,BROWN HILL,VIC,3350,-37.5339546,143.9203,4,4,4,House,House,False,971,m2,False
2018277234,listing,/4-302-clayton-street-canadian-vic-3350-2018277234,500000,is-sold,Sold by private treaty 27 Feb 2023,20230227,4/302 Clayton Street,CANADIAN,VIC,3350,-37.5736771,143.875183,3,3,3,ApartmentUnitFlat,Apartment / Unit / Flat,False,220,m2,False
2018356545,listing,/104-duncan-street-lake-wendouree-vic-3350-2018356545,1610000,is-sold,Sold by private treaty 27 Feb 2023,20230227,104 Duncan Street,LAKE WENDOUREE,VIC,3350,-37.5525742,143.848053,4,4,4,House,House,False,588,m2,False
2018078827,listing,/6-horwood-drive-mount-clear-vic-3350-2018078827,360000,is-sold,Sold by private treaty 28 Feb 2023,20230228,6 Horwood Drive,MOUNT CLEAR,VIC,3350,-37.5925369,143.87175,1,1,1,House,House,False,737,m2,False
2018233065,listing,/2-107a-larter-street-ballarat-east-vic-3350-2018233065,405000,is-sold,Sold by private treaty 01 Mar 2023,20230301,2/107A Larter Street,BALLARAT EAST,VIC,3350,-37.5698471,143.873154,2,2,2,ApartmentUnitFlat,Apartment / Unit / Flat,False,0,m2,False
2018247354,listing,/10-gray-street-ballarat-east-vic-3350-2018247354,475000,is-sold,Sold by private treaty 01 Mar 2023,20230301,10 Gray Street,BALLARAT EAST,VIC,3350,-37.56427,143.8726,4,4,4,House,House,False,1100,m2,False
2018345100,listing,/202-wendouree-parade-lake-wendouree-vic-3350-2018345100,,is-sold,Sold by private treaty 01 Mar 2023,20230301,202 Wendouree Parade,LAKE WENDOUREE,VIC,3350,-37.5492325,143.84552,4,4,4,House,House,False,0,m2,False
2018299383,listing,/6-la-trobe-street-redan-vic-3350-2018299383,315000,is-sold,Sold by private treaty 01 Mar 2023,20230301,6 La Trobe Street,REDAN,VIC,3350,-37.5731163,143.845963,1,1,1,House,House,False,0,m2,False
2017855811,listing,/6-andrews-court-nerrina-vic-3350-2017855811,290000,is-sold,Sold by private treaty 01 Mar 2023,20230301,6 Andrews Court,NERRINA,VIC,3350,-37.54085,143.882309,,,,VacantLand,Vacant land,False,1194,m2,False
2018343948,listing,/101a-south-street-ballarat-central-vic-3350-2018343948,500000,is-sold,Sold by private treaty 03 Mar 2023,20230303,101a South Street,BALLARAT CENTRAL,VIC,3350,-37.57018,143.852829,3,3,3,House,House,False,272,m2,False
2017923747,listing,/23-lilley-street-ballarat-north-vic-3350-2017923747,510000,is-sold,Sold by private treaty 06 Mar 2023,20230306,23 Lilley Street,BALLARAT NORTH,VIC,3350,-37.5407639,143.854141,3,1,1,House,House,False,0,m2,False
2018312363,listing,/304-elsworth-street-west-mount-pleasant-vic-3350-2018312363,465000,is-sold,Sold by private treaty 06 Mar 2023,20230306,304 Elsworth Street West,MOUNT PLEASANT,VIC,3350,-37.5813675,143.853073,3,2,1,House,House,False,745,m2,False
2018356389,listing,/1-14-park-street-east-redan-vic-3350-2018356389,345000,is-sold,Sold by private treaty 06 Mar 2023,20230306,1/14 Park Street East,REDAN,VIC,3350,-37.5714531,143.833618,2,1,1,House,House,False,0,m2,False
2018327141,listing,/2-hammill-close-canadian-vic-3350-2018327141,900000,is-sold,Sold by private treaty 07 Mar 2023,20230307,2 Hammill Close,CANADIAN,VIC,3350,-37.59213,143.875015,4,2,2,House,House,False,602,m2,False
2018042218,listing,/25-navvy-jack-road-canadian-vic-3350-2018042218,230000,is-sold,Sold by private treaty 07 Mar 2023,20230307,25 Navvy Jack Road,CANADIAN,VIC,3350,-37.57418,143.879913,,,,VacantLand,Vacant land,False,493,m2,False
2018205287,listing,/4-717-tress-street-mount-pleasant-vic-3350-2018205287,433000,is-sold,Sold by private treaty 07 Mar 2023,20230307,4/717 Tress Street,MOUNT PLEASANT,VIC,3350,-37.57664,143.858566,3,2,2,Townhouse,Townhouse,False,0,m2,False
2017979304,listing,/2-pleasant-street-south-newington-vic-3350-2017979304,,is-sold,Sold by private treaty 07 Mar 2023,20230307,2 Pleasant Street South,NEWINGTON,VIC,3350,-37.56047,143.838547,4,2,2,House,House,False,332,m2,False
2018125745,listing,/3-8-gale-street-canadian-vic-3350-2018125745,370000,is-sold,Sold by private treaty 08 Mar 2023,20230308,3/8 Gale Street,CANADIAN,VIC,3350,-37.57973,143.875381,3,1,2,ApartmentUnitFlat,Apartment / Unit / Flat,False,200,m2,False
2018199577,listing,/2-haymes-crescent-golden-point-vic-3350-2018199577,575000,is-sold,Sold by private treaty 08 Mar 2023,20230308,2 Haymes Crescent,GOLDEN POINT,VIC,3350,-37.56732,143.86351,3,2,1,House,House,False,0,m2,False
2018181776,listing,/110-lofven-street-nerrina-vic-3350-2018181776,650000,is-sold,Sold by private treaty 02 Mar 2023,20230302,110 Lofven Street,NERRINA,VIC,3350,-37.5427628,143.893127,4,2,4,House,House,False,1060,m2,False
2018256446,listing,/5-peppertree-court-alfredton-vic-3350-2018256446,,is-sold,Sold by private treaty 01 Mar 2023,20230301,5 Peppertree Court,ALFREDTON,VIC,3350,-37.54531,143.788666,4,2,2,House,House,False,942,m2,False
2018336182,listing,/39-russell-street-newington-vic-3350-2018336182,1400000,is-sold,Sold by private treaty 01 Mar 2023,20230301,39 Russell Street,NEWINGTON,VIC,3350,-37.5617142,143.8287,4,2,2,House,House,False,0,m2,False
2017904769,listing,/4-ainsworth-parade-lucas-vic-3350-2017904769,320000,is-sold,Sold by private treaty 24 Feb 2023,20230224,4 Ainsworth Parade,LUCAS,VIC,3350,-37.54852,143.777,,,,VacantLand,Vacant land,False,640,m2,False
2018144414,listing,/4-1000-sherrard-street-ballarat-north-vic-3350-2018144414,285000,is-sold,Sold by private treaty 24 Feb 2023,20230224,4/1000 Sherrard Street,BALLARAT NORTH,VIC,3350,-37.5423241,143.870926,2,1,,ApartmentUnitFlat,Apartment / Unit / Flat,False,102,m2,False
2018175945,listing,/807-ligar-street-soldiers-hill-vic-3350-2018175945,930000,is-sold,Sold by private treaty 27 Feb 2023,20230227,807 Ligar Street,SOLDIERS HILL,VIC,3350,-37.5447159,143.863174,5,2,1,House,House,False,0,m2,False
2018189881,listing,/4-mancev-court-brown-hill-vic-3350-2018189881,600000,is-sold,Sold by private treaty 23 Feb 2023,20230223,4 Mancev Court,BROWN HILL,VIC,3350,-37.55411,143.896622,3,1,6,House,House,False,1460,m2,False
2018219760,listing,/28-talbot-street-south-ballarat-central-vic-3350-2018219760,700000,is-sold,Sold by private treaty 24 Feb 2023,20230224,28 Talbot Street South,BALLARAT CENTRAL,VIC,3350,-37.5622025,143.842255,2,1,1,House,House,False,299,m2,False
2018240447,listing,/7-mia-street-alfredton-vic-3350-2018240447,430000,is-sold,Sold by private treaty 22 Feb 2023,20230222,7 Mia Street,ALFREDTON,VIC,3350,-37.5644226,143.784241,3,2,2,House,House,False,235,m2,False
2018299385,listing,/204-sebastopol-street-ballarat-central-vic-3350-2018299385,380000,is-sold,Sold by private treaty 23 Feb 2023,20230223,204 Sebastopol Street,BALLARAT CENTRAL,VIC,3350,-37.571476,143.849518,2,1,1,House,House,False,0,m2,False
2018317969,listing,/1301a-dana-street-ballarat-central-vic-3350-2018317969,1290000,is-sold,Sold by private treaty 24 Feb 2023,20230224,1301A Dana Street,BALLARAT CENTRAL,VIC,3350,-37.56242,143.84053,4,2,2,House,House,False,0,m2,False
2018326716,listing,/13-balyarta-street-alfredton-vic-3350-2018326716,645000,is-sold,Sold by private treaty 24 Feb 2023,20230224,13 Balyarta Street,ALFREDTON,VIC,3350,-37.5526581,143.805542,3,1,2,House,House,False,876,m2,False
2018327224,listing,/201-neill-street-soldiers-hill-vic-3350-2018327224,720000,is-sold,Sold by private treaty 24 Feb 2023,20230224,201 Neill Street,SOLDIERS HILL,VIC,3350,-37.5564537,143.859909,4,2,2,House,House,False,0,m2,False
2018341102,listing,/34-magpie-street-golden-point-vic-3350-2018341102,695000,is-sold,Sold by private treaty 24 Feb 2023,20230224,34 Magpie Street,GOLDEN POINT,VIC,3350,-37.57381,143.863937,3,1,2,House,House,False,1593,m2,False
2018344302,listing,/10-bentley-place-ballarat-east-vic-3350-2018344302,,is-sold,Sold by private treaty 23 Feb 2023,20230223,10 Bentley Place,BALLARAT EAST,VIC,3350,-37.5656738,143.87204,3,2,1,House,House,False,352,m2,False
2018346921,listing,/46-victoria-avenue-lake-wendouree-vic-3350-2018346921,,is-sold,Sold by private treaty 25 Feb 2023,20230225,46 Victoria Avenue,LAKE WENDOUREE,VIC,3350,-37.5546951,143.843979,4,1,2,House,House,False,704,m2,False
2018356458,listing,/5-philip-avenue-ballarat-north-vic-3350-2018356458,575000,is-sold,Sold by private treaty 24 Feb 2023,20230224,5 Philip Avenue,BALLARAT NORTH,VIC,3350,-37.54278,143.876114,3,2,2,House,House,False,615,m2,False
2018110832,listing,/16-whatman-street-lucas-vic-3350-2018110832,283000,is-sold,Sold by private treaty 21 Feb 2023,20230221,16 Whatman Street,LUCAS,VIC,3350,-37.54852,143.777,,,,VacantLand,Vacant land,False,448,m2,False
2018176572,listing,/40-mary-drive-alfredton-vic-3350-2018176572,650000,is-sold,Sold by private treaty 15 Feb 2023,20230215,40 Mary Drive,ALFREDTON,VIC,3350,-37.5570831,143.79129,4,2,2,House,House,False,536,m2,False
2018184193,listing,/37-lovenear-grove-ballarat-east-vic-3350-2018184193,425000,is-sold,Sold by private treaty 20 Feb 2023,20230220,37 Lovenear Grove,BALLARAT EAST,VIC,3350,-37.5719872,143.882736,3,1,2,House,House,False,658,m2,False
2018213146,listing,/110-cuthberts-road-alfredton-vic-3350-2018213146,575000,is-sold,Sold by private treaty 20 Feb 2023,20230220,110 Cuthberts Road,ALFREDTON,VIC,3350,-37.5532837,143.79808,3,2,4,House,House,False,778,m2,False
2018249253,listing,/10-ron-court-canadian-vic-3350-2018249253,275000,is-sold,Sold by private treaty 16 Feb 2023,20230216,10 Ron Court,CANADIAN,VIC,3350,-37.58218,143.877228,1,1,1,Townhouse,Townhouse,False,132,m2,False
2018256662,listing,/8-church-street-ballarat-central-vic-3350-2018256662,,is-sold,Sold by private treaty 17 Feb 2023,20230217,8 Church Street,BALLARAT CENTRAL,VIC,3350,-37.5609131,143.840057,2,2,1,House,House,False,0,m2,False
2018258473,listing,/3-altieri-place-ballarat-east-vic-3350-2018258473,625000,is-sold,Sold by private treaty 16 Feb 2023,20230216,3 Altieri Place,BALLARAT EAST,VIC,3350,-37.5714722,143.880661,4,2,2,House,House,False,750,m2,False
2018268874,listing,/7-doodts-road-black-hill-vic-3350-2018268874,745000,is-sold,Sold by private treaty 17 Feb 2023,20230217,7 Doodts Road,BLACK HILL,VIC,3350,-37.54448,143.878159,5,2,2,House,House,False,904,m2,False
2018285079,listing,/1a-hillside-drive-ballarat-north-vic-3350-2018285079,520000,is-sold,Sold by private treaty 20 Feb 2023,20230220,1A Hillside Drive,BALLARAT NORTH,VIC,3350,-37.5401039,143.86882,3,2,1,House,House,False,269,m2,False
2018297510,listing,/186-humffray-street-north-ballarat-east-vic-3350-2018297510,418000,is-sold,Sold by private treaty 17 Feb 2023,20230217,186 Humffray Street North,BALLARAT EAST,VIC,3350,-37.5558052,143.878967,3,1,1,House,House,False,0,m2,False
2018299380,listing,/8-pryor-street-mount-pleasant-vic-3350-2018299380,500200,is-sold,Sold by private treaty 21 Feb 2023,20230221,8 Pryor Street,MOUNT PLEASANT,VIC,3350,-37.5800056,143.85112,3,1,2,House,House,False,612,m2,False
2018309188,listing,/704-gregory-street-soldiers-hill-vic-3350-2018309188,610000,is-sold,Sold by private treaty 20 Feb 2023,20230220,704 Gregory Street,SOLDIERS HILL,VIC,3350,-37.5445824,143.854416,3,1,1,House,House,False,468,m2,False
2018312360,listing,/1-lake-view-court-ballarat-north-vic-3350-2018312360,715000,is-sold,Sold by private treaty 18 Feb 2023,20230218,1 Lake View Court,BALLARAT NORTH,VIC,3350,-37.541317,143.877014,3,2,2,House,House,False,590,m2,False
2018324666,listing,/522b-peel-street-north-black-hill-vic-3350-2018324666,,is-sold,Sold by private treaty 20 Feb 2023,20230220,522B Peel Street North,BLACK HILL,VIC,3350,-37.550045,143.866379,3,2,2,Townhouse,Townhouse,False,319,m2,False
2018324729,listing,/6-limerick-street-alfredton-vic-3350-2018324729,620000,is-sold,Sold by private treaty 15 Feb 2023,20230215,6 Limerick Street,ALFREDTON,VIC,3350,-37.56253,143.796173,4,2,2,House,House,False,449,m2,False
2018325266,listing,/3-arwon-crescent-alfredton-vic-3350-2018325266,615500,is-sold,Sold by private treaty 22 Feb 2023,20230222,3 Arwon Crescent,ALFREDTON,VIC,3350,-37.5581665,143.787048,4,2,2,House,House,False,686,m2,False
2018328609,listing,/17-quirk-road-lucas-vic-3350-2018328609,325000,is-sold,Sold by private treaty 16 Feb 2023,20230216,17 Quirk Road,LUCAS,VIC,3350,-37.546,143.76915,,,,VacantLand,Vacant land,False,640,m2,False
2018339514,listing,/2-204-larter-street-golden-point-vic-3350-2018339514,352000,is-sold,Sold by private treaty 18 Feb 2023,20230218,2/204 Larter Street,GOLDEN POINT,VIC,3350,-37.5727959,143.872437,2,1,1,ApartmentUnitFlat,Apartment / Unit / Flat,False,0,m2,False
2018341471,listing,/2-8-vale-street-alfredton-vic-3350-2018341471,,is-sold,Sold by private treaty 21 Feb 2023,20230221,2/8 Vale Street,ALFREDTON,VIC,3350,-37.55565,143.815491,3,2,2,House,House,False,0,m2,False
2018359164,listing,/8-11-caselli-street-ballarat-east-vic-3350-2018359164,707750,is-sold,Sold by private treaty 22 Feb 2023,20230222,8/11 Caselli Street,BALLARAT EAST,VIC,3350,-37.55919,143.886658,3,2,2,Townhouse,Townhouse,False,0,m2,False
2018038687,listing,/7-beldi-street-alfredton-vic-3350-2018038687,640000,is-sold,Sold by private treaty 10 Feb 2023,20230210,7 Beldi Street,ALFREDTON,VIC,3350,-37.5608673,143.789017,4,2,2,House,House,False,0,m2,False
2018043780,listing,/211-landsborough-street-ballarat-north-vic-3350-2018043780,620000,is-sold,Sold by private treaty 13 Feb 2023,20230213,211 Landsborough Street,BALLARAT NORTH,VIC,3350,-37.54137,143.873154,4,1,1,House,House,False,1464,m2,False
2018046879,listing,/209-18-22-wendouree-parade-lake-wendouree-vic-3350-2018046879,1276000,is-sold,Sold by private treaty 14 Feb 2023,20230214,209/18-22 Wendouree Parade,LAKE WENDOUREE,VIC,3350,-37.55428,143.843216,3,2,2,ApartmentUnitFlat,Apartment / Unit / Flat,False,0,m2,False
2018053147,listing,/8-jarvis-way-lucas-vic-3350-2018053147,297000,is-sold,Sold by private treaty 15 Feb 2023,20230215,8 Jarvis Way,LUCAS,VIC,3350,-37.54852,143.777,,,,VacantLand,Vacant land,False,512,m2,False
2018093790,listing,/33-towong-street-alfredton-vic-3350-2018093790,,is-sold,Sold by private treaty 14 Feb 2023,20230214,33 Towong Street,ALFREDTON,VIC,3350,-37.55758,143.8071,4,2,2,House,House,False,705,m2,False
2018142083,listing,/28-gregory-street-black-hill-vic-3350-2018142083,560000,is-sold,Sold by private treaty 09 Feb 2023,20230209,28 Gregory Street,BLACK HILL,VIC,3350,-37.5461273,143.867233,3,2,1,House,House,False,0,m2,False
2018142420,listing,/1013-macarthur-street-lake-wendouree-vic-3350-2018142420,,is-sold,Sold by private treaty 10 Feb 2023,20230210,1013 MacArthur Street,LAKE WENDOUREE,VIC,3350,-37.54982,143.846161,5,3,2,House,House,False,507,m2,False
2018158650,listing,/29-oakbank-drive-mount-helen-vic-3350-2018158650,626000,is-sold,Sold by private treaty 10 Feb 2023,20230210,29 Oakbank Drive,MOUNT HELEN,VIC,3350,-37.61862,143.887512,4,2,2,House,House,False,839,m2,False
2018186926,listing,/6-chevron-court-lake-wendouree-vic-3350-2018186926,700000,is-sold,Sold by private treaty 10 Feb 2023,20230210,6 Chevron Court,LAKE WENDOUREE,VIC,3350,-37.5406265,143.823929,2,2,2,House,House,False,393,m2,False
2018205240,listing,/5-106-clayton-street-golden-point-vic-3350-2018205240,310000,is-sold,Sold by private treaty 15 Feb 2023,20230215,5/106 Clayton Street,GOLDEN POINT,VIC,3350,-37.572403,143.871262,2,1,1,ApartmentUnitFlat,Apartment / Unit / Flat,False,0,m2,False
2018230868,listing,/4-128-webster-street-lake-wendouree-vic-3350-2018230868,705000,is-sold,Sold by private treaty 15 Feb 2023,20230215,4/128 Webster Street,LAKE WENDOUREE,VIC,3350,-37.5557175,143.844849,2,1,1,House,House,False,0,m2,False
2018233820,listing,/309-clayton-street-canadian-vic-3350-2018233820,570000,is-sold,Sold by private treaty 10 Feb 2023,20230210,309 Clayton Street,CANADIAN,VIC,3350,-37.5737228,143.876358,3,2,4,House,House,False,876,m2,False
2018234642,listing,/13-peake-street-golden-point-vic-3350-2018234642,320000,is-sold,Sold by private treaty 15 Feb 2023,20230215,13 Peake Street,GOLDEN POINT,VIC,3350,-37.57157,143.862839,3,1,2,House,House,False,438,m2,False
2018279884,listing,/37-walters-way-alfredton-vic-3350-2018279884,599000,is-sold,Sold by private treaty 13 Feb 2023,20230213,37 Walters Way,ALFREDTON,VIC,3350,-37.5603523,143.78923,3,2,2,House,House,False,0,m2,False
2018283242,listing,/lot-313-todd-street-lucas-vic-3350-2018283242,350000,is-sold,Sold by private treaty 13 Feb 2023,20230213,Lot 313 Todd Street,LUCAS,VIC,3350,-37.54837,143.776642,,,,VacantLand,Vacant land,False,680,m2,False
2018284858,listing,/1009-talbot-street-south-redan-vic-3350-2018284858,380000,is-sold,Sold by private treaty 10 Feb 2023,20230210,1009 Talbot Street South,REDAN,VIC,3350,-37.5816,143.839325,2,1,1,House,House,False,595,m2,False
2018290343,listing,/410a-kline-street-canadian-vic-3350-2018290343,,is-sold,Sold by private treaty 13 Feb 2023,20230213,410A Kline Street,CANADIAN,VIC,3350,-37.5736923,143.8828,,,,VacantLand,Vacant land,False,2363,m2,False
2018312923,listing,/16-sells-road-lucas-vic-3350-2018312923,600000,is-sold,Sold by private treaty 10 Feb 2023,20230210,16 Sells Road,LUCAS,VIC,3350,-37.54852,143.777,4,2,2,House,House,False,508,m2,False
2018323415,listing,/64-springs-road-brown-hill-vic-3350-2018323415,860000,is-sold,Sold by private treaty 09 Feb 2023,20230209,64 Springs Road,BROWN HILL,VIC,3350,-37.5393333,143.91452,3,1,2,House,House,False,6950,m2,False
2018325855,listing,/12-cordover-court-alfredton-vic-3350-2018325855,740000,is-sold,Sold by private treaty 15 Feb 2023,20230215,12 Cordover Court,ALFREDTON,VIC,3350,-37.556736,143.806458,4,2,2,House,House,False,719,m2,False
2017701937,listing,/7-o-callaghan-parade-lucas-vic-3350-2017701937,565000,is-sold,Sold by private treaty 04 Feb 2023,20230204,7 O'Callaghan Parade,LUCAS,VIC,3350,-37.5470657,143.772949,4,2,2,House,House,False,650,m2,False
2018111693,listing,/89-o-shannassy-parade-lucas-vic-3350-2018111693,545000,is-sold,Sold by private treaty 06 Feb 2023,20230206,89 O'Shannassy Parade,LUCAS,VIC,3350,-37.54915,143.775879,4,2,2,House,House,False,366,m2,False
2018172464,listing,/7-fraser-street-mount-pleasant-vic-3350-2018172464,640000,is-sold,Sold by private treaty 07 Feb 2023,20230207,7 Fraser Street,MOUNT PLEASANT,VIC,3350,-37.581665,143.859512,4,2,1,House,House,False,852,m2,False
2018175275,listing,/4-nunn-street-ballarat-east-vic-3350-2018175275,520000,is-sold,Sold by private treaty 03 Feb 2023,20230203,4 Nunn Street,BALLARAT EAST,VIC,3350,-37.5568771,143.8678,3,1,2,House,House,False,948,m2,False
2018186031,listing,/4-506-wendouree-parade-lake-wendouree-vic-3350-2018186031,649000,is-sold,Sold by private treaty 09 Feb 2023,20230209,4/506 Wendouree Parade,LAKE WENDOUREE,VIC,3350,-37.5424957,143.8298,2,1,1,Townhouse,Townhouse,False,200,m2,False
2018189039,listing,/19-mckee-street-golden-point-vic-3350-2018189039,575000,is-sold,Sold by private treaty 08 Feb 2023,20230208,19 McKee Street,GOLDEN POINT,VIC,3350,-37.575737,143.862717,3,1,2,House,House,False,1120,m2,False
2018204867,listing,/1-400-fussell-street-canadian-vic-3350-2018204867,,is-sold,Sold by private treaty 08 Feb 2023,20230208,1/400 Fussell Street,CANADIAN,VIC,3350,-37.5744171,143.8915,4,2,2,House,House,False,1850,m2,False
2018227529,listing,/4-128-webster-street-lake-wendouree-vic-3350-2018227529,705000,is-sold,Sold by private treaty 09 Feb 2023,20230209,4/128 Webster Street,LAKE WENDOUREE,VIC,3350,-37.5557175,143.844849,2,1,1,ApartmentUnitFlat,Apartment / Unit / Flat,False,0,m2,False
2018233059,listing,/20-warburton-drive-lucas-vic-3350-2018233059,660000,is-sold,Sold by private treaty 08 Feb 2023,20230208,20 Warburton Drive,LUCAS,VIC,3350,-37.5497627,143.783051,4,2,3,House,House,False,0,m2,False
2018237700,listing,/406-neill-street-soldiers-hill-vic-3350-2018237700,1300000,is-sold,Sold by private treaty 08 Feb 2023,20230208,406 Neill Street,SOLDIERS HILL,VIC,3350,-37.55269,143.861008,4,2,2,House,House,False,770,m2,False
2018246670,listing,/45-evans-way-lucas-vic-3350-2018246670,580000,is-sold,Sold by private treaty 03 Feb 2023,20230203,45 Evans Way,LUCAS,VIC,3350,-37.5434036,143.768951,3,2,2,House,House,False,0,m2,False
2018263623,listing,/2-61-gillies-street-south-alfredton-vic-3350-2018263623,500000,is-sold,Sold by private treaty 02 Feb 2023,20230202,2/61 Gillies Street South,ALFREDTON,VIC,3350,-37.56141,143.8173,3,2,2,House,House,False,244,m2,False
2018267709,listing,/314a-eureka-street-ballarat-east-vic-3350-2018267709,505000,is-sold,Sold by private treaty 02 Feb 2023,20230202,314A Eureka Street,BALLARAT EAST,VIC,3350,-37.5658531,143.877563,3,2,1,House,House,False,527,m2,False
2018285902,listing,/3-317a-lal-lal-street-canadian-vic-3350-2018285902,450000,is-sold,Sold by private treaty 07 Feb 2023,20230207,3/317a Lal Lal Street,CANADIAN,VIC,3350,-37.58013,143.877731,3,2,2,ApartmentUnitFlat,Apartment / Unit / Flat,False,0,m2,False
2018287567,listing,/2-marina-drive-mount-clear-vic-3350-2018287567,585000,is-sold,Sold by private treaty 07 Feb 2023,20230207,2 Marina Drive,MOUNT CLEAR,VIC,3350,-37.60786,143.866531,3,1,2,House,House,False,860,m2,False
2018295779,listing,/11-tulloch-rise-canadian-vic-3350-2018295779,678000,is-sold,Sold by private treaty 07 Feb 2023,20230207,11 Tulloch Rise,CANADIAN,VIC,3350,-37.58975,143.872177,3,2,2,House,House,False,560,m2,False
2018299384,listing,/6-malcolm-court-brown-hill-vic-3350-2018299384,385000,is-sold,Sold by private treaty 08 Feb 2023,20230208,6 Malcolm Court,BROWN HILL,VIC,3350,-37.5558777,143.8971,2,1,1,ApartmentUnitFlat,Apartment / Unit / Flat,False,0,m2,False
2018312905,listing,/27-lavinia-drive-ballarat-north-vic-3350-2018312905,625000,is-sold,Sold by private treaty 06 Feb 2023,20230206,27 Lavinia Drive,BALLARAT NORTH,VIC,3350,-37.53782,143.866058,3,1,4,House,House,False,771,m2,False
2018318002,listing,/1301-dana-street-ballarat-central-vic-3350-2018318002,1205000,is-sold,Sold by private treaty 06 Feb 2023,20230206,1301 Dana Street,BALLARAT CENTRAL,VIC,3350,-37.56245,143.840714,3,2,2,House,House,False,0,m2,False
2018343643,listing,/4-610-wilson-street-canadian-vic-3350-2018343643,450000,is-sold,Sold by private treaty 09 Feb 2023,20230209,4/610 Wilson Street,CANADIAN,VIC,3350,-37.5733452,143.885468,2,1,1,House,House,False,140,m2,False
2017705949,listing,/5-arkansaw-court-brown-hill-vic-3350-2017705949,880000,is-sold,Sold by private treaty 30 Jan 2023,20230130,5 Arkansaw Court,BROWN HILL,VIC,3350,-37.5517845,143.903458,4,2,2,House,House,False,820,m2,False
2017905440,listing,/13-high-street-lake-wendouree-vic-3350-2017905440,950000,is-sold,Sold by private treaty 02 Feb 2023,20230202,13 High Street,LAKE WENDOUREE,VIC,3350,-37.5509949,143.847015,3,2,1,House,House,False,0,m2,False
2018009910,listing,/10-tennis-street-lake-wendouree-vic-3350-2018009910,1300000,is-sold,Sold by private treaty 30 Jan 2023,20230130,10 Tennis Street,LAKE WENDOUREE,VIC,3350,-37.55796,143.836319,4,2,4,House,House,False,0,m2,False
2018053176,listing,/225-drummond-street-south-ballarat-central-vic-3350-2018053176,,is-sold,Sold by private treaty 31 Jan 2023,20230131,225 Drummond Street South,BALLARAT CENTRAL,VIC,3350,-37.5669441,143.846542,2,1,1,House,House,False,285,m2,False
2018083563,listing,/507-neill-street-soldiers-hill-vic-3350-2018083563,600000,is-sold,Sold by private treaty 01 Feb 2023,20230201,507 Neill Street,SOLDIERS HILL,VIC,3350,-37.5501671,143.860931,3,1,1,House,House,False,386,m2,False
2018088511,listing,/16-pleasant-street-south-newington-vic-3350-2018088511,,is-sold,Sold by private treaty 30 Jan 2023,20230130,16 Pleasant Street South,NEWINGTON,VIC,3350,-37.5614166,143.838181,4,2,1,House,House,False,1200,m2,False
2018110124,listing,/105-norman-street-ballarat-north-vic-3350-2018110124,835000,is-sold,Sold by private treaty 02 Feb 2023,20230202,105 Norman Street,BALLARAT NORTH,VIC,3350,-37.53885,143.877228,3,2,2,House,House,False,1120,m2,False
2018157311,listing,/409-humffray-street-north-brown-hill-vic-3350-2018157311,570000,is-sold,Sold by private treaty 31 Jan 2023,20230131,409 Humffray Street North,BROWN HILL,VIC,3350,-37.5513573,143.902832,4,1,2,House,House,False,623,m2,False
2018177034,listing,/122a-clyde-street-soldiers-hill-vic-3350-2018177034,629000,is-sold,Sold by private treaty 01 Feb 2023,20230201,122A Clyde Street,SOLDIERS HILL,VIC,3350,-37.54909,143.856277,3,2,2,House,House,False,442,m2,False
2018188663,listing,/12-devon-street-lake-wendouree-vic-3350-2018188663,945000,is-sold,Sold by private treaty 02 Feb 2023,20230202,12 Devon Street,LAKE WENDOUREE,VIC,3350,-37.55149,143.846283,3,2,2,Townhouse,Townhouse,False,251,m2,False
2018203640,listing,/3-717-tress-street-mount-pleasant-vic-3350-2018203640,,is-sold,Sold by private treaty 31 Jan 2023,20230131,3/717 Tress Street,MOUNT PLEASANT,VIC,3350,-37.57664,143.858566,2,2,1,Townhouse,Townhouse,False,0,m2,False
2018233003,listing,/8-wilmott-street-lucas-vic-3350-2018233003,675000,is-sold,Sold by private treaty 02 Feb 2023,20230202,8 Wilmott Street,LUCAS,VIC,3350,-37.5488663,143.778778,4,2,2,House,House,False,496,m2,False
2018245574,listing,/4-sovereign-street-golden-point-vic-3350-2018245574,600000,is-sold,Sold by private treaty 31 Jan 2023,20230131,4 Sovereign Street,GOLDEN POINT,VIC,3350,-37.571,143.868668,3,2,1,House,House,False,498,m2,False
2018247875,listing,/9-swift-rise-brown-hill-vic-3350-2018247875,,is-sold,Sold by private treaty 01 Feb 2023,20230201,9 Swift Rise,BROWN HILL,VIC,3350,-37.5350456,143.920654,3,2,4,House,House,False,1432,m2,False
2018251449,listing,/1-1314-mair-street-lake-wendouree-vic-3350-2018251449,485000,is-sold,Sold by private treaty 02 Feb 2023,20230202,1/1314 Mair Street,LAKE WENDOUREE,VIC,3350,-37.5571823,143.840332,2,1,1,ApartmentUnitFlat,Apartment / Unit / Flat,False,0,m2,False
2018279382,listing,/39-belltower-avenue-alfredton-vic-3350-2018279382,691888,is-sold,Sold by private treaty 31 Jan 2023,20230131,39 Belltower Avenue,ALFREDTON,VIC,3350,-37.5446,143.788925,4,2,4,House,House,False,840,m2,False
2018284921,listing,/123a-yarana-drive-mount-helen-vic-3350-2018284921,461000,is-sold,Sold by private treaty 31 Jan 2023,20230131,123A Yarana Drive,MOUNT HELEN,VIC,3350,-37.6254425,143.874725,4,2,1,House,House,False,351,m2,False
2018285080,listing,/31-york-street-golden-point-vic-3350-2018285080,570000,is-sold,Sold by private treaty 30 Jan 2023,20230130,31 York Street,GOLDEN POINT,VIC,3350,-37.5701141,143.8697,4,2,2,House,House,False,632,m2,False
2018285084,listing,/11-mary-drive-alfredton-vic-3350-2018285084,630000,is-sold,Sold by private treaty 30 Jan 2023,20230130,11 Mary Drive,ALFREDTON,VIC,3350,-37.55438,143.791855,4,2,2,House,House,False,496,m2,False
2018314354,listing,/419-skipton-street-redan-vic-3350-2018314354,475000,is-sold,Sold by private treaty 31 Jan 2023,20230131,419 Skipton Street,REDAN,VIC,3350,-37.57308,143.847351,2,1,1,House,House,False,552,m2,False
2017750466,listing,/2-109-nelson-street-ballarat-east-vic-3350-2017750466,259500,is-sold,Sold by private treaty 23 Jan 2023,20230123,2/109 Nelson Street,BALLARAT EAST,VIC,3350,-37.5565834,143.876846,2,1,1,ApartmentUnitFlat,Apartment / Unit / Flat,False,141,m2,False
2017889570,listing,/38-timbertop-drive-mount-helen-vic-3350-2017889570,800000,is-sold,Sold by private treaty 29 Jan 2023,20230129,38 Timbertop Drive,MOUNT HELEN,VIC,3350,-37.61786,143.893951,4,2,4,House,House,False,2062,m2,False
2017945230,listing,/10-cherry-court-canadian-vic-3350-2017945230,500000,is-sold,Sold by private treaty 27 Jan 2023,20230127,10 Cherry Court,CANADIAN,VIC,3350,-37.57584,143.888733,3,2,2,House,House,False,512,m2,False
2018024423,listing,/10-st-mirren-drive-nerrina-vic-3350-2018024423,690000,is-sold,Sold by private treaty 23 Jan 2023,20230123,10 St Mirren Drive,NERRINA,VIC,3350,-37.5411453,143.882767,4,2,3,House,House,False,521,m2,False
2018095802,listing,/34-creekstone-drive-alfredton-vic-3350-2018095802,620000,is-sold,Sold by private treaty 24 Jan 2023,20230124,34 Creekstone Drive,ALFREDTON,VIC,3350,-37.55731,143.7892,3,2,2,House,House,False,630,m2,False
2018098786,listing,/411-joseph-street-canadian-vic-3350-2018098786,375000,is-sold,Sold by private treaty 21 Jan 2023,20230121,411 Joseph Street,CANADIAN,VIC,3350,-37.58064,143.876511,3,1,,House,House,False,818,m2,False
2018114936,listing,/4-901-gregory-street-ballarat-central-vic-3350-2018114936,200000,is-sold,Sold by private treaty 23 Jan 2023,20230123,4/901 Gregory Street,BALLARAT CENTRAL,VIC,3350,-37.5448761,143.849548,1,1,1,House,House,False,0,m2,False
2018126504,listing,/129-eureka-street-ballarat-east-vic-3350-2018126504,,is-sold,Sold by private treaty 21 Jan 2023,20230121,129 Eureka Street,BALLARAT EAST,VIC,3350,-37.56547,143.872665,6,3,2,House,House,False,1194,m2,False
2018138470,listing,/5-atrium-drive-ballarat-north-vic-3350-2018138470,1400000,is-sold,Sold by private treaty 27 Jan 2023,20230127,5 Atrium Drive,BALLARAT NORTH,VIC,3350,-37.5362663,143.871445,5,2,2,House,House,False,863,m2,False
2018161789,listing,/502-gregory-street-soldiers-hill-vic-3350-2018161789,515000,is-sold,Sold by private treaty 27 Jan 2023,20230127,502 Gregory Street,SOLDIERS HILL,VIC,3350,-37.54496,143.857285,3,1,1,House,House,False,0,m2,False
2018189046,listing,/1311-1313-dana-street-ballarat-central-vic-3350-2018189046,1700000,is-sold,Sold by private treaty 20 Jan 2023,20230120,1311-1313 Dana Street,BALLARAT CENTRAL,VIC,3350,-37.56231,143.839569,5,3,3,House,House,False,1120,m2,False
2018219759,listing,/4a-brophy-street-brown-hill-vic-3350-2018219759,505000,is-sold,Sold by private treaty 24 Jan 2023,20230124,4A Brophy Street,BROWN HILL,VIC,3350,-37.5539246,143.895264,3,2,2,House,House,False,246,m2,False
2018222431,listing,/4-4-lal-lal-street-golden-point-vic-3350-2018222431,360000,is-sold,Sold by private treaty 23 Jan 2023,20230123,4/4 Lal Lal Street,GOLDEN POINT,VIC,3350,-37.5755272,143.869843,2,1,1,ApartmentUnitFlat,Apartment / Unit / Flat,False,153,m2,False
2018223746,listing,/50-messenger-parade-lucas-vic-3350-2018223746,360000,is-sold,Sold by private treaty 29 Jan 2023,20230129,50 Messenger Parade,LUCAS,VIC,3350,-37.54835,143.77182,,,,VacantLand,Vacant land,False,659,m2,False
2018229307,listing,/3-falcon-drive-invermay-park-vic-3350-2018229307,,is-sold,Sold by private treaty 23 Jan 2023,20230123,3 Falcon Drive,INVERMAY PARK,VIC,3350,-37.5272369,143.865356,4,2,2,House,House,False,970,m2,False
2018267139,listing,/6-106-whitehorse-road-mount-clear-vic-3350-2018267139,355000,is-sold,Sold by private treaty 23 Jan 2023,20230123,6/106 Whitehorse Road,MOUNT CLEAR,VIC,3350,-37.60255,143.865738,2,1,1,ApartmentUnitFlat,Apartment / Unit / Flat,False,391,m2,False
2018276151,listing,/2-dunlop-street-mount-pleasant-vic-3350-2018276151,560000,is-sold,Sold by private treaty 24 Jan 2023,20230124,2 Dunlop Street,MOUNT PLEASANT,VIC,3350,-37.57799,143.853165,3,1,2,House,House,False,457,m2,False
2018279159,listing,/2-507-howitt-street-soldiers-hill-vic-3350-2018279159,395000,is-sold,Sold by private treaty 30 Jan 2023,20230130,2/507 Howitt Street,SOLDIERS HILL,VIC,3350,-37.5437927,143.857391,2,1,1,ApartmentUnitFlat,Apartment / Unit / Flat,False,342,m2,False
2018284914,listing,/147-eddy-avenue-mount-helen-vic-3350-2018284914,1150000,is-sold,Sold by private treaty 27 Jan 2023,20230127,147 Eddy Avenue,MOUNT HELEN,VIC,3350,-37.6296043,143.87944,4,2,6,House,House,False,902,m2,False
2018284922,listing,/21-ningana-street-alfredton-vic-3350-2018284922,470000,is-sold,Sold by private treaty 28 Jan 2023,20230128,21 Ningana Street,ALFREDTON,VIC,3350,-37.5538254,143.80777,3,1,1,House,House,False,0,m2,False
2017781684,listing,/1-615a-skipton-street-redan-vic-3350-2017781684,405000,is-sold,Sold by private treaty 20 Jan 2023,20230120,1/615A Skipton Street,REDAN,VIC,3350,-37.5768776,143.84404,3,2,2,ApartmentUnitFlat,Apartment / Unit / Flat,False,0,m2,False
2018017090,listing,/53-verdale-drive-alfredton-vic-3350-2018017090,620000,is-sold,Sold by private treaty 16 Jan 2023,20230116,53 Verdale Drive,ALFREDTON,VIC,3350,-37.5632553,143.787567,4,2,2,House,House,False,454,m2,False
2018128347,listing,/525-doveton-street-north-soldiers-hill-vic-3350-2018128347,640000,is-sold,Sold by private treaty 17 Jan 2023,20230117,525 Doveton Street North,SOLDIERS HILL,VIC,3350,-37.54912,143.85672,3,1,1,House,House,False,511,m2,False
2018139150,listing,/1045-humffray-street-mount-pleasant-vic-3350-2018139150,430000,is-sold,Sold by private treaty 20 Jan 2023,20230120,1045 Humffray Street,MOUNT PLEASANT,VIC,3350,-37.5838661,143.850784,3,1,1,House,House,False,822,m2,False
2018157835,listing,/421-humffray-street-north-brown-hill-vic-3350-2018157835,505000,is-sold,Sold by private treaty 17 Jan 2023,20230117,421 Humffray Street North,BROWN HILL,VIC,3350,-37.55084,143.904434,3,2,1,House,House,False,294,m2,False
2018164856,listing,/16-collard-street-newington-vic-3350-2018164856,735000,is-sold,Sold by private treaty 20 Jan 2023,20230120,16 Collard Street,NEWINGTON,VIC,3350,-37.5643044,143.830841,3,2,2,House,House,False,0,m2,False
2018200453,listing,/2-324-humffray-street-north-brown-hill-vic-3350-2018200453,345000,is-sold,Sold by private treaty 17 Jan 2023,20230117,2/324 Humffray Street North,BROWN HILL,VIC,3350,-37.553257,143.89859,2,1,1,House,House,False,0,m2,False
2018205302,listing,/39-elaine-avenue-alfredton-vic-3350-2018205302,837000,is-sold,Sold by private treaty 16 Jan 2023,20230116,39 Elaine Avenue,ALFREDTON,VIC,3350,-37.55053,143.795624,3,2,2,House,House,False,867,m2,False
2018205982,listing,/1-514-516-armstrong-street-north-soldiers-hill-vic-3350-2018205982,,is-sold,Sold by private treaty 18 Jan 2023,20230118,1/514-516 Armstrong Street North,SOLDIERS HILL,VIC,3350,-37.54972,143.85878,2,1,1,House,House,False,0,m2,False
2018219677,listing,/1-14-lilley-street-ballarat-north-vic-3350-2018219677,395000,is-sold,Sold by private treaty 17 Jan 2023,20230117,1/14 Lilley Street,BALLARAT NORTH,VIC,3350,-37.5413933,143.854752,2,1,1,ApartmentUnitFlat,Apartment / Unit / Flat,False,0,m2,False
2018229890,listing,/48-messenger-parade-lucas-vic-3350-2018229890,750000,is-sold,Sold by private treaty 18 Jan 2023,20230118,48 Messenger Parade,LUCAS,VIC,3350,-37.54835,143.77182,4,2,2,House,House,False,589,m2,False
2018231022,listing,/30-waranga-street-nerrina-vic-3350-2018231022,1100000,is-sold,Sold by private treaty 15 Jan 2023,20230115,30 Waranga Street,NERRINA,VIC,3350,-37.54535,143.883743,5,2,2,House,House,False,1321,m2,False
2018244704,listing,/3-242-victoria-street-ballarat-east-vic-3350-2018244704,510000,is-sold,Sold by private treaty 20 Jan 2023,20230120,3/242 Victoria Street,BALLARAT EAST,VIC,3350,-37.55858,143.891357,2,2,1,Townhouse,Townhouse,False,0,m2,False
2018245521,listing,/4a-essex-street-ballarat-central-vic-3350-2018245521,795000,is-sold,Sold by private treaty 18 Jan 2023,20230118,4A Essex Street,BALLARAT CENTRAL,VIC,3350,-37.567112,143.839417,3,2,4,House,House,False,654,m2,False
2018255336,listing,/20-grainger-parade-lucas-vic-3350-2018255336,870000,is-sold,Sold by private treaty 17 Jan 2023,20230117,20 Grainger Parade,LUCAS,VIC,3350,-37.54143,143.77478,4,2,2,House,House,False,680,m2,False
2018262860,listing,/119-scott-parade-ballarat-east-vic-3350-2018262860,,is-sold,Sold by private treaty 20 Jan 2023,20230120,119 Scott Parade,BALLARAT EAST,VIC,3350,-37.5581665,143.874344,3,1,2,House,House,False,374,m2,False
2018265321,listing,/1-tralee-road-alfredton-vic-3350-2018265321,573000,is-sold,Sold by private treaty 17 Jan 2023,20230117,1 Tralee Road,ALFREDTON,VIC,3350,-37.5628,143.801239,3,2,2,House,House,False,335,m2,False
2018275334,listing,/45-chase-boulevard-alfredton-vic-3350-2018275334,460000,is-sold,Sold by private treaty 18 Jan 2023,20230118,45 Chase Boulevard,ALFREDTON,VIC,3350,-37.55546,143.790131,2,2,1,House,House,False,300,m2,False
2018275958,listing,/37-recreation-road-mount-clear-vic-3350-2018275958,587200,is-sold,Sold by private treaty 20 Jan 2023,20230120,37 Recreation Road,MOUNT CLEAR,VIC,3350,-37.60409,143.87323,3,2,2,House,House,False,640,m2,False
2018282421,listing,/282-humffray-street-ballarat-east-vic-3350-2018282421,490000,is-sold,Sold by private treaty 19 Jan 2023,20230119,282 Humffray Street,BALLARAT EAST,VIC,3350,-37.5534439,143.892258,3,1,3,House,House,False,606,m2,False
2018016608,listing,/215-grant-street-golden-point-vic-3350-2018016608,440000,is-sold,Sold by private treaty 12 Jan 2023,20230112,215 Grant Street,GOLDEN POINT,VIC,3350,-37.5689545,143.861908,2,1,1,House,House,False,263,m2,False
2018067408,listing,/1-806-bond-street-mount-pleasant-vic-3350-2018067408,276000,is-sold,Sold by private treaty 10 Jan 2023,20230110,1/806 Bond Street,MOUNT PLEASANT,VIC,3350,-37.57559,143.853165,2,1,1,ApartmentUnitFlat,Apartment / Unit / Flat,False,128,m2,False
2018129659,listing,/301-skipton-street-ballarat-central-vic-3350-2018129659,600000,is-sold,Sold by private treaty 10 Jan 2023,20230110,301 Skipton Street,BALLARAT CENTRAL,VIC,3350,-37.5709152,143.849762,3,1,2,House,House,False,984,m2,False
2018142419,listing,/224-errard-street-south-ballarat-central-vic-3350-2018142419,345000,is-sold,Sold by private treaty 10 Jan 2023,20230110,224 Errard Street South,BALLARAT CENTRAL,VIC,3350,-37.56678,143.847519,2,1,,House,House,False,191,m2,False
2018162435,listing,/216-armstrong-street-north-soldiers-hill-vic-3350-2018162435,560000,is-sold,Sold by private treaty 13 Jan 2023,20230113,216 Armstrong Street North,SOLDIERS HILL,VIC,3350,-37.5557671,143.857666,3,1,1,House,House,False,250,m2,False
2018172431,listing,/17-lakeland-drive-lucas-vic-3350-2018172431,305000,is-sold,Sold by private treaty 13 Jan 2023,20230113,17 Lakeland Drive,LUCAS,VIC,3350,-37.54852,143.777,,,,VacantLand,Vacant land,False,448,m2,False
2018196845,listing,/20-timbertop-drive-mount-helen-vic-3350-2018196845,795000,is-sold,Sold by private treaty 12 Jan 2023,20230112,20 Timbertop Drive,MOUNT HELEN,VIC,3350,-37.61976,143.891113,4,2,4,House,House,False,1557,m2,False
2018203639,listing,/1-717-tress-street-mount-pleasant-vic-3350-2018203639,450000,is-sold,Sold by private treaty 10 Jan 2023,20230110,1/717 Tress Street,MOUNT PLEASANT,VIC,3350,-37.57664,143.858566,2,2,1,Townhouse,Townhouse,False,374,m2,False
2018205233,listing,/3-6-cobden-street-mount-pleasant-vic-3350-2018205233,296000,is-sold,Sold by private treaty 13 Jan 2023,20230113,3/6 Cobden Street,MOUNT PLEASANT,VIC,3350,-37.5751343,143.853439,2,1,1,ApartmentUnitFlat,Apartment / Unit / Flat,False,0,m2,False
2018229714,listing,/12-lemuela-court-invermay-park-vic-3350-2018229714,560000,is-sold,Sold by private treaty 11 Jan 2023,20230111,12 Lemuela Court,INVERMAY PARK,VIC,3350,-37.5299339,143.859421,3,2,2,House,House,False,842,m2,False
2018235765,listing,/11-peppermint-place-mount-pleasant-vic-3350-2018235765,390000,is-sold,Sold by private treaty 09 Jan 2023,20230109,11 Peppermint Place,MOUNT PLEASANT,VIC,3350,-37.583744,143.859924,2,1,1,House,House,False,277,m2,False
2018235933,listing,/119-stawell-street-north-ballarat-east-vic-3350-2018235933,460000,is-sold,Sold by private treaty 13 Jan 2023,20230113,119 Stawell Street North,BALLARAT EAST,VIC,3350,-37.5553131,143.882828,3,1,2,House,House,False,0,m2,False
2018243045,listing,/2-519-peel-street-north-black-hill-vic-3350-2018243045,410000,is-sold,Sold by private treaty 09 Jan 2023,20230109,2/519 Peel Street North,BLACK HILL,VIC,3350,-37.55038,143.86554,2,1,1,ApartmentUnitFlat,Apartment / Unit / Flat,False,269,m2,False
2018244705,listing,/3-nightingale-street-newington-vic-3350-2018244705,635000,is-sold,Sold by private treaty 13 Jan 2023,20230113,3 Nightingale Street,NEWINGTON,VIC,3350,-37.56567,143.837082,2,1,2,House,House,False,459,m2,False
2018245509,listing,/20-gribble-street-lucas-vic-3350-2018245509,830000,is-sold,Sold by private treaty 09 Jan 2023,20230109,20 Gribble Street,LUCAS,VIC,3350,-37.5539322,143.7827,4,2,2,House,House,False,575,m2,False
2018248410,listing,/405-eyre-street-ballarat-central-vic-3350-2018248410,485000,is-sold,Sold by private treaty 09 Jan 2023,20230109,405 Eyre Street,BALLARAT CENTRAL,VIC,3350,-37.5655251,143.849,2,2,1,House,House,False,417,m2,False
2018255539,listing,/3-2-finley-court-mount-clear-vic-3350-2018255539,420000,is-sold,Sold by private treaty 12 Jan 2023,20230112,3/2 Finley Court,MOUNT CLEAR,VIC,3350,-37.59979,143.867172,3,1,2,ApartmentUnitFlat,Apartment / Unit / Flat,False,0,m2,False
2018258053,listing,/509-lyons-street-ballarat-central-vic-3350-2018258053,530000,is-sold,Sold by private treaty 08 Jan 2023,20230108,509 Lyons Street,BALLARAT CENTRAL,VIC,3350,-37.57263,143.850388,3,1,2,House,House,False,525,m2,False
2018263014,listing,/1-420-sherrard-street-black-hill-vic-3350-2018263014,515000,is-sold,Sold by private treaty 10 Jan 2023,20230110,1/420 Sherrard Street,BLACK HILL,VIC,3350,-37.552803,143.8687,3,2,2,House,House,False,277,m2,False
2018266244,listing,/302-darling-street-redan-vic-3350-2018266244,540000,is-sold,Sold by private treaty 10 Jan 2023,20230110,302 Darling Street,REDAN,VIC,3350,-37.5748978,143.843063,3,1,2,House,House,False,630,m2,False
2017604557,listing,/lot-240-91-sydney-way-alfredton-vic-3350-2017604557,400000,is-sold,Sold by private treaty 05 Jan 2023,20230105,Lot 240/91 Sydney Way,ALFREDTON,VIC,3350,-37.55971,143.7929,,,,VacantLand,Vacant land,False,877,m2,False
2017949637,listing,/709-pleasant-street-south-redan-vic-3350-2017949637,550000,is-sold,Sold by private treaty 06 Jan 2023,20230106,709 Pleasant Street South,REDAN,VIC,3350,-37.5757751,143.8364,3,2,1,House,House,False,563,m2,False
2017971415,listing,/24-lyons-street-south-ballarat-central-vic-3350-2017971415,711000,is-sold,Sold by private treaty 05 Jan 2023,20230105,24 Lyons Street South,BALLARAT CENTRAL,VIC,3350,-37.56324,143.851166,4,1,2,House,House,False,348,m2,False
2018125995,listing,/114-clayton-street-golden-point-vic-3350-2018125995,600000,is-sold,Sold by private treaty 06 Jan 2023,20230106,114 Clayton Street,GOLDEN POINT,VIC,3350,-37.57219,143.8723,4,1,2,House,House,False,579,m2,False
2018126406,listing,/131-shortridge-drive-lucas-vic-3350-2018126406,725000,is-sold,Sold by private treaty 03 Jan 2023,20230103,131 Shortridge Drive,LUCAS,VIC,3350,-37.54061,143.7736,4,3,2,House,House,False,576,m2,False
2018126506,listing,/7-castlebar-close-invermay-park-vic-3350-2018126506,640000,is-sold,Sold by private treaty 08 Jan 2023,20230108,7 Castlebar Close,INVERMAY PARK,VIC,3350,-37.52437,143.8562,5,2,2,House,House,False,861,m2,False
2018127771,listing,/9-sweeney-street-black-hill-vic-3350-2018127771,439000,is-sold,Sold by private treaty 06 Jan 2023,20230106,9 Sweeney Street,BLACK HILL,VIC,3350,-37.5470123,143.865982,3,1,1,House,House,False,630,m2,False
2018140167,listing,/113-lonsdale-street-redan-vic-3350-2018140167,440000,is-sold,Sold by private treaty 06 Jan 2023,20230106,113 Lonsdale Street,REDAN,VIC,3350,-37.5753746,143.833725,3,1,4,House,House,False,770,m2,False
2018158717,listing,/101-lonsdale-street-redan-vic-3350-2018158717,385000,is-sold,Sold by private treaty 03 Jan 2023,20230103,101 Lonsdale Street,REDAN,VIC,3350,-37.5755157,143.835251,3,1,5,House,House,False,532,m2,False
2018170104,listing,/17-stockade-street-ballarat-east-vic-3350-2018170104,620000,is-sold,Sold by private treaty 05 Jan 2023,20230105,17 Stockade Street,BALLARAT EAST,VIC,3350,-37.56974,143.895737,3,2,2,House,House,False,625,m2,False
2018193378,listing,/2-21-high-street-lake-wendouree-vic-3350-2018193378,471000,is-sold,Sold by private treaty 04 Jan 2023,20230104,2/21 High Street,LAKE WENDOUREE,VIC,3350,-37.5503159,143.84668,2,1,1,House,House,False,0,m2,False
2018219673,listing,/8-509-drummond-street-south-redan-vic-3350-2018219673,335000,is-sold,Sold by private treaty 30 Dec 2022,20221230,8/509 Drummond Street South,REDAN,VIC,3350,-37.5721931,143.845779,2,1,1,ApartmentUnitFlat,Apartment / Unit / Flat,False,0,m2,False
2018223335,listing,/40-kilkenny-drive-alfredton-vic-3350-2018223335,,is-sold,Sold by private treaty 23 Dec 2022,20221223,40 Kilkenny Drive,ALFREDTON,VIC,3350,-37.5635948,143.798462,4,2,2,House,House,False,0,m2,False
2018232820,listing,/111-clissold-street-black-hill-vic-3350-2018232820,765000,is-sold,Sold by private treaty 04 Jan 2023,20230104,111 Clissold Street,BLACK HILL,VIC,3350,-37.5540123,143.866577,3,2,1,House,House,False,0,m2,False
2018233005,listing,/205-clyde-street-soldiers-hill-vic-3350-2018233005,600000,is-sold,Sold by private treaty 30 Dec 2022,20221230,205 Clyde Street,SOLDIERS HILL,VIC,3350,-37.547924,143.8555,4,1,2,House,House,False,513,m2,False
2018245578,listing,/410-armstrong-street-south-ballarat-central-vic-3350-2018245578,700000,is-sold,Sold by private treaty 03 Jan 2023,20230103,410 Armstrong Street South,BALLARAT CENTRAL,VIC,3350,-37.57086,143.852188,3,2,1,House,House,False,0,m2,False
2018255216,listing,/5-east-street-north-bakery-hill-vic-3350-2018255216,505000,is-sold,Sold by private treaty 28 Dec 2022,20221228,5 East Street North,BAKERY HILL,VIC,3350,-37.5615,143.86763,3,1,,House,House,False,0,m2,False
2018262605,listing,/4-7-ningana-street-alfredton-vic-3350-2018262605,212500,is-sold,Sold by private treaty 23 Dec 2022,20221223,4/7 Ningana Street,ALFREDTON,VIC,3350,-37.5525436,143.808243,1,1,1,ApartmentUnitFlat,Apartment / Unit / Flat,False,0,m2,False
2018274938,listing,/14-10-bells-lane-brown-hill-vic-3350-2018274938,460000,is-sold,Sold by private treaty 02 Jan 2023,20230102,14/10 Bells Lane,BROWN HILL,VIC,3350,-37.5523834,143.8875,2,2,1,Townhouse,Townhouse,False,0,m2,False
2018325572,listing,/306-wendouree-parade-lake-wendouree-vic-3350-2018325572,3795000,is-sold,Sold by private treaty 23 Dec 2022,20221223,306 Wendouree Parade,LAKE WENDOUREE,VIC,3350,-37.5451965,143.843811,6,4,3,House,House,False,1392,m2,False
2017685151,listing,/8-murray-street-newington-vic-3350-2017685151,650000,is-sold,Sold by private treaty 21 Dec 2022,20221221,8 Murray Street,NEWINGTON,VIC,3350,-37.56492,143.8333,3,1,1,House,House,False,572,m2,False
2017871470,listing,/2-10-hickman-street-ballarat-central-vic-3350-2017871470,665000,is-sold,Sold by private treaty 22 Dec 2022,20221222,2/10 Hickman Street,BALLARAT CENTRAL,VIC,3350,-37.5731621,143.851868,3,2,1,House,House,False,249,m2,False
2018046376,listing,/40-mia-street-alfredton-vic-3350-2018046376,595000,is-sold,Sold by private treaty 21 Dec 2022,20221221,40 Mia Street,ALFREDTON,VIC,3350,-37.5647049,143.784882,4,2,2,House,House,False,0,m2,False
2018108454,listing,/42-moore-way-lucas-vic-3350-2018108454,595000,is-sold,Sold by private treaty 22 Dec 2022,20221222,42 Moore Way,LUCAS,VIC,3350,-37.54206,143.775726,3,2,2,House,House,False,476,m2,False
2018111610,listing,/53-canopy-avenue-alfredton-vic-3350-2018111610,630000,is-sold,Sold by private treaty 21 Dec 2022,20221221,53 Canopy Avenue,ALFREDTON,VIC,3350,-37.5534821,143.7914,4,2,2,House,House,False,508,m2,False
2018145652,listing,/1-801-skipton-street-redan-vic-3350-2018145652,340000,is-sold,Sold by private treaty 22 Dec 2022,20221222,1/801 Skipton Street,REDAN,VIC,3350,-37.5799446,143.842209,2,1,1,ApartmentUnitFlat,Apartment / Unit / Flat,False,221,m2,False
2018172425,listing,/1-23-gillies-street-south-alfredton-vic-3350-2018172425,530000,is-sold,Sold by private treaty 21 Dec 2022,20221221,1/23 Gillies Street South,ALFREDTON,VIC,3350,-37.55808,143.818,3,2,1,Townhouse,Townhouse,False,0,m2,False
2018172433,listing,/27-heales-street-mount-pleasant-vic-3350-2018172433,580000,is-sold,Sold by private treaty 22 Dec 2022,20221222,27 Heales Street,MOUNT PLEASANT,VIC,3350,-37.5802345,143.8552,4,2,4,House,House,False,757,m2,False
2018187205,listing,/56-daly-drive-lucas-vic-3350-2018187205,610000,is-sold,Sold by private treaty 21 Dec 2022,20221221,56 Daly Drive,LUCAS,VIC,3350,-37.5497551,143.773529,4,2,2,House,House,False,0,m2,False
2018188662,listing,/50-victory-avenue-alfredton-vic-3350-2018188662,445000,is-sold,Sold by private treaty 22 Dec 2022,20221222,50 Victory Avenue,ALFREDTON,VIC,3350,-37.55684,143.8083,2,1,2,House,House,False,609,m2,False
2018205312,listing,/2-317a-lal-lal-street-canadian-vic-3350-2018205312,495000,is-sold,Sold by private treaty 21 Dec 2022,20221221,2/317a Lal Lal Street,CANADIAN,VIC,3350,-37.58013,143.877731,3,2,3,ApartmentUnitFlat,Apartment / Unit / Flat,False,513,m2,False
2018228800,listing,/2-318-kline-street-ballarat-east-vic-3350-2018228800,337500,is-sold,Sold by private treaty 22 Dec 2022,20221222,2/318 Kline Street,BALLARAT EAST,VIC,3350,-37.5713043,143.884491,2,1,1,ApartmentUnitFlat,Apartment / Unit / Flat,False,0,m2,False
2018234708,listing,/308-humffray-street-north-brown-hill-vic-3350-2018234708,580000,is-sold,Sold by private treaty 22 Dec 2022,20221222,308 Humffray Street North,BROWN HILL,VIC,3350,-37.55338,143.896667,3,1,3,House,House,False,995,m2,False
2018235584,listing,/425-drummond-street-south-ballarat-central-vic-3350-2018235584,400000,is-sold,Sold by private treaty 21 Dec 2022,20221221,425 Drummond Street South,BALLARAT CENTRAL,VIC,3350,-37.57111,143.845825,2,1,1,Townhouse,Townhouse,False,140,m2,False
2018240678,listing,/505-windermere-street-redan-vic-3350-2018240678,571000,is-sold,Sold by private treaty 21 Dec 2022,20221221,505 Windermere Street,REDAN,VIC,3350,-37.5716743,143.844208,4,1,4,House,House,False,976,m2,False
2018243049,listing,/4-ron-court-canadian-vic-3350-2018243049,350000,is-sold,Sold by private treaty 22 Dec 2022,20221222,4 Ron Court,CANADIAN,VIC,3350,-37.5818176,143.876541,2,2,1,Townhouse,Townhouse,False,377,m2,False
2018245180,listing,/213-clyde-street-soldiers-hill-vic-3350-2018245180,940000,is-sold,Sold by private treaty 21 Dec 2022,20221221,213 Clyde Street,SOLDIERS HILL,VIC,3350,-37.547226,143.855576,3,1,3,House,House,False,1186,m2,False
2018245525,listing,/2-creekstone-drive-alfredton-vic-3350-2018245525,640000,is-sold,Sold by private treaty 20 Dec 2022,20221220,2 Creekstone Drive,ALFREDTON,VIC,3350,-37.5568047,143.784851,5,2,2,House,House,False,0,m2,False
2018254158,listing,/4-1148-geelong-road-mount-clear-vic-3350-2018254158,372000,is-sold,Sold by private treaty 23 Dec 2022,20221223,4/1148 Geelong Road,MOUNT CLEAR,VIC,3350,-37.60013,143.867508,2,1,1,ApartmentUnitFlat,Apartment / Unit / Flat,False,0,m2,False
2018258279,listing,/11-junction-street-newington-vic-3350-2018258279,680000,is-sold,Sold by private treaty 22 Dec 2022,20221222,11 Junction Street,NEWINGTON,VIC,3350,-37.5623779,143.835251,3,1,3,House,House,False,365,m2,False
2017711236,listing,/619-barkly-street-golden-point-vic-3350-2017711236,555000,is-sold,Sold by private treaty 20 Dec 2022,20221220,619 Barkly Street,GOLDEN POINT,VIC,3350,-37.57283,143.8593,3,1,1,House,House,False,733,m2,False
2017877420,listing,/19-offaly-street-alfredton-vic-3350-2017877420,830000,is-sold,Sold by private treaty 19 Dec 2022,20221219,19 Offaly Street,ALFREDTON,VIC,3350,-37.56255,143.794357,4,2,3,House,House,False,540,m2,False
2018031829,listing,/5-rumler-court-ballarat-north-vic-3350-2018031829,775000,is-sold,Sold by private treaty 19 Dec 2022,20221219,5 Rumler Court,BALLARAT NORTH,VIC,3350,-37.53904,143.872513,3,2,5,House,House,False,951,m2,False
2018067483,listing,/2-vista-court-black-hill-vic-3350-2018067483,645000,is-sold,Sold by private treaty 19 Dec 2022,20221219,2 Vista Court,BLACK HILL,VIC,3350,-37.5461159,143.873169,4,2,2,House,House,False,717,m2,False
2018089106,listing,/10-water-street-brown-hill-vic-3350-2018089106,420000,is-sold,Sold by private treaty 15 Dec 2022,20221215,10 Water Street,BROWN HILL,VIC,3350,-37.5562248,143.8956,2,1,1,House,House,False,741,m2,False
2018126410,listing,/318-eureka-street-ballarat-east-vic-3350-2018126410,450000,is-sold,Sold by private treaty 19 Dec 2022,20221219,318 Eureka Street,BALLARAT EAST,VIC,3350,-37.5656433,143.878036,3,1,1,House,House,False,683,m2,False
2018135421,listing,/20-queen-street-south-ballarat-east-vic-3350-2018135421,397500,is-sold,Sold by private treaty 19 Dec 2022,20221219,20 Queen Street South,BALLARAT EAST,VIC,3350,-37.56349,143.8779,3,1,1,House,House,False,559,m2,False
2018143836,listing,/1009-macarthur-street-lake-wendouree-vic-3350-2018143836,945000,is-sold,Sold by private treaty 15 Dec 2022,20221215,1009 Macarthur Street,LAKE WENDOUREE,VIC,3350,-37.5499268,143.846451,4,2,1,House,House,False,482,m2,False
2018172420,listing,/1729-sturt-street-alfredton-vic-3350-2018172420,700000,is-sold,Sold by private treaty 14 Dec 2022,20221214,1729 Sturt Street,ALFREDTON,VIC,3350,-37.5523758,143.809937,3,2,2,House,House,False,671,m2,False
2018178356,listing,/69-peel-street-south-golden-point-vic-3350-2018178356,550000,is-sold,Sold by private treaty 19 Dec 2022,20221219,69 Peel Street South,GOLDEN POINT,VIC,3350,-37.5678558,143.863,2,1,1,House,House,False,270,m2,False
2018180444,listing,/305-bradshaw-street-golden-point-vic-3350-2018180444,865000,is-sold,Sold by private treaty 20 Dec 2022,20221220,305 Bradshaw Street,GOLDEN POINT,VIC,3350,-37.57263,143.862244,3,1,2,House,House,False,2275,m2,False
2018183196,listing,/ca-12a-gillanders-road-mount-pleasant-vic-3350-2018183196,190000,is-sold,Sold by private treaty 20 Dec 2022,20221220,CA/12A Gillanders Road,MOUNT PLEASANT,VIC,3350,-37.5872421,143.8515,,,,VacantLand,Vacant land,True,1.1,ha,False
2018202558,listing,/12-heales-street-mount-pleasant-vic-3350-2018202558,430000,is-sold,Sold by private treaty 19 Dec 2022,20221219,12 Heales Street,MOUNT PLEASANT,VIC,3350,-37.5797729,143.854813,3,1,2,House,House,False,589,m2,False
2018203638,listing,/428-raglan-street-south-ballarat-central-vic-3350-2018203638,815000,is-sold,Sold by private treaty 19 Dec 2022,20221219,428 Raglan Street South,BALLARAT CENTRAL,VIC,3350,-37.57125,143.84816,3,2,5,House,House,False,540,m2,False
2018205228,listing,/10-talgarno-court-mount-pleasant-vic-3350-2018205228,555000,is-sold,Sold by private treaty 15 Dec 2022,20221215,10 Talgarno Court,MOUNT PLEASANT,VIC,3350,-37.58305,143.856384,4,1,3,House,House,False,0,m2,False
2018205282,listing,/107-nelson-street-ballarat-east-vic-3350-2018205282,535000,is-sold,Sold by private treaty 20 Dec 2022,20221220,107 Nelson Street,BALLARAT EAST,VIC,3350,-37.55683,143.876633,2,1,4,House,House,False,506,m2,False
2018208466,listing,/1-501-leith-street-redan-vic-3350-2018208466,478000,is-sold,Sold by private treaty 20 Dec 2022,20221220,1/501 Leith Street,REDAN,VIC,3350,-37.5789833,143.837158,3,2,2,ApartmentUnitFlat,Apartment / Unit / Flat,False,223,m2,False
2018232643,listing,/21-signature-drive-alfredton-vic-3350-2018232643,785000,is-sold,Sold by private treaty 15 Dec 2022,20221215,21 Signature Drive,ALFREDTON,VIC,3350,-37.5510178,143.810608,3,2,2,House,House,False,0,m2,False
2018252549,listing,/1-503-darling-street-redan-vic-3350-2018252549,373000,is-sold,Sold by private treaty 20 Dec 2022,20221220,1/503 Darling Street,REDAN,VIC,3350,-37.57502,143.839722,2,1,1,Townhouse,Townhouse,False,0,m2,False
2018321612,listing,/38-signature-drive-alfredton-vic-3350-2018321612,832500,is-sold,Sold by private treaty 14 Dec 2022,20221214,38 Signature Drive,ALFREDTON,VIC,3350,-37.5515327,143.811859,4,2,2,House,House,False,0,m2,False
2017833757,listing,/11-newhaven-close-mount-pleasant-vic-3350-2017833757,430000,is-sold,Sold by private treaty 14 Dec 2022,20221214,11 Newhaven Close,MOUNT PLEASANT,VIC,3350,-37.5807838,143.852951,3,1,1,Townhouse,Townhouse,False,0,m2,False
2017967253,listing,/24-eleanor-drive-lucas-vic-3350-2017967253,585000,is-sold,Sold by private treaty 14 Dec 2022,20221214,24 Eleanor Drive,LUCAS,VIC,3350,-37.54878,143.7775,4,2,2,House,House,False,525,m2,False
2018048014,listing,/210-lyons-street-south-ballarat-central-vic-3350-2018048014,730000,is-sold,Sold by private treaty 09 Dec 2022,20221209,210 Lyons Street South,BALLARAT CENTRAL,VIC,3350,-37.5663,143.850571,3,2,4,House,House,False,1010,m2,False
2018067401,listing,/309-eureka-street-ballarat-east-vic-3350-2018067401,451250,is-sold,Sold by private treaty 09 Dec 2022,20221209,309 Eureka Street,BALLARAT EAST,VIC,3350,-37.5651321,143.87709,3,1,,House,House,False,583,m2,False
2018099368,listing,/8-howitt-street-ballarat-north-vic-3350-2018099368,735000,is-sold,Sold by private treaty 12 Dec 2022,20221212,8 Howitt Street,BALLARAT NORTH,VIC,3350,-37.54452,143.869263,3,2,3,House,House,False,615,m2,False
2018112576,listing,/31-balanada-close-alfredton-vic-3350-2018112576,380000,is-sold,Sold by private treaty 12 Dec 2022,20221212,31 Balanada Close,ALFREDTON,VIC,3350,-37.54846,143.796921,2,2,1,Townhouse,Townhouse,False,117,m2,False
2018141688,listing,/8-opal-street-alfredton-vic-3350-2018141688,694000,is-sold,Sold by private treaty 13 Dec 2022,20221213,8 Opal Street,ALFREDTON,VIC,3350,-37.55649,143.79213,4,2,2,House,House,False,0,m2,False
2018142087,listing,/17-bradleys-lane-mount-clear-vic-3350-2018142087,980000,is-sold,Sold by private treaty 12 Dec 2022,20221212,17 Bradleys Lane,MOUNT CLEAR,VIC,3350,-37.60616,143.86232,5,3,4,House,House,True,1.82,ha,False
2018145011,listing,/335-richards-street-ballarat-east-vic-3350-2018145011,425000,is-sold,Sold by private treaty 09 Dec 2022,20221209,335 Richards Street,BALLARAT EAST,VIC,3350,-37.57323,143.888428,3,1,2,House,House,False,644,m2,False
2018152815,listing,/86-willoby-drive-alfredton-vic-3350-2018152815,650000,is-sold,Sold by private treaty 12 Dec 2022,20221212,86 Willoby Drive,ALFREDTON,VIC,3350,-37.56129,143.787048,4,2,2,House,House,False,500,m2,False
2018189038,listing,/8-nathanael-place-ballarat-east-vic-3350-2018189038,585000,is-sold,Sold by private treaty 09 Dec 2022,20221209,8 Nathanael Place,BALLARAT EAST,VIC,3350,-37.5725365,143.887085,3,2,2,House,House,False,619,m2,False
2018190616,listing,/8-bradby-avenue-mount-clear-vic-3350-2018190616,495000,is-sold,Sold by private treaty 12 Dec 2022,20221212,8 Bradby Avenue,MOUNT CLEAR,VIC,3350,-37.6048965,143.869751,4,1,3,House,House,False,623,m2,False
2018190801,listing,/5-jemacra-place-mount-clear-vic-3350-2018190801,500000,is-sold,Sold by private treaty 14 Dec 2022,20221214,5 Jemacra Place,MOUNT CLEAR,VIC,3350,-37.6065063,143.872772,6,2,2,House,House,False,0,m2,False
2018190803,listing,/14-jemacra-place-mount-clear-vic-3350-2018190803,471000,is-sold,Sold by private treaty 14 Dec 2022,20221214,14 Jemacra Place,MOUNT CLEAR,VIC,3350,-37.60546,143.872177,5,2,2,House,House,False,0,m2,False
2018203659,listing,/5-delmela-court-brown-hill-vic-3350-2018203659,1025000,is-sold,Sold by private treaty 13 Dec 2022,20221213,5 Delmela Court,BROWN HILL,VIC,3350,-37.53683,143.921631,4,2,2,House,House,False,6269,m2,False
2018204715,listing,/127-park-street-east-redan-vic-3350-2018204715,520000,is-sold,Sold by private treaty 14 Dec 2022,20221214,127 Park Street East,REDAN,VIC,3350,-37.5714264,143.830246,3,2,2,House,House,False,0,m2,False
2018207757,listing,/3-1110-dana-street-ballarat-central-vic-3350-2018207757,410000,is-sold,Sold by private treaty 12 Dec 2022,20221212,3/1110 Dana Street,BALLARAT CENTRAL,VIC,3350,-37.562088,143.84317,2,1,1,ApartmentUnitFlat,Apartment / Unit / Flat,False,0,m2,False
2018214855,listing,/102-thompson-street-brown-hill-vic-3350-2018214855,585000,is-sold,Sold by private treaty 13 Dec 2022,20221213,102 Thompson Street,BROWN HILL,VIC,3350,-37.5527229,143.893616,3,2,2,House,House,False,319,m2,False
2018220464,listing,/16-james-street-golden-point-vic-3350-2018220464,649000,is-sold,Sold by private treaty 13 Dec 2022,20221213,16 James Street,GOLDEN POINT,VIC,3350,-37.5669632,143.860382,3,2,1,House,House,False,526,m2,False
2018234018,listing,/7-polwarth-court-alfredton-vic-3350-2018234018,895000,is-sold,Sold by private treaty 10 Dec 2022,20221210,7 Polwarth Court,ALFREDTON,VIC,3350,-37.5579147,143.796448,4,2,6,House,House,False,1128,m2,False
2014485676,listing,/104-lane-street-brown-hill-vic-3350-2014485676,597000,is-sold,Sold by private treaty 07 Dec 2022,20221207,104 Lane Street,BROWN HILL,VIC,3350,-37.554512,143.890137,3,2,2,House,House,False,570,m2,False
2017873538,listing,/5-carbery-way-lucas-vic-3350-2017873538,300000,is-sold,Sold by private treaty 07 Dec 2022,20221207,5 Carbery Way,LUCAS,VIC,3350,-37.53988,143.773544,,,,VacantLand,Vacant land,False,490,m2,False
2018043584,listing,/17-lightfoot-avenue-mount-pleasant-vic-3350-2018043584,455000,is-sold,Sold by private treaty 09 Dec 2022,20221209,17 Lightfoot Avenue,MOUNT PLEASANT,VIC,3350,-37.5828362,143.852188,3,2,,House,House,False,712,m2,False
2018056078,listing,/319-ascot-street-south-ballarat-central-vic-3350-2018056078,425000,is-sold,Sold by private treaty 08 Dec 2022,20221208,319 Ascot Street South,BALLARAT CENTRAL,VIC,3350,-37.56842,143.843246,3,1,1,House,House,False,365,m2,False
2018067395,listing,/11-gillies-street-south-alfredton-vic-3350-2018067395,580000,is-sold,Sold by private treaty 06 Dec 2022,20221206,11 Gillies Street South,ALFREDTON,VIC,3350,-37.5573044,143.818115,3,1,3,House,House,False,592,m2,False
2018110259,listing,/606-darling-street-redan-vic-3350-2018110259,693000,is-sold,Sold by private treaty 07 Dec 2022,20221207,606 Darling Street,REDAN,VIC,3350,-37.5743141,143.838013,3,2,6,House,House,False,903,m2,False
2018112567,listing,/322-barkly-street-golden-point-vic-3350-2018112567,545000,is-sold,Sold by private treaty 08 Dec 2022,20221208,322 Barkly Street,GOLDEN POINT,VIC,3350,-37.5684,143.863937,2,1,,House,House,False,262,m2,False
2018124797,listing,/108-bell-street-redan-vic-3350-2018124797,455000,is-sold,Sold by private treaty 09 Dec 2022,20221209,108 Bell Street,REDAN,VIC,3350,-37.5777359,143.844208,3,1,2,House,House,False,0,m2,False
2018126594,listing,/3-joseph-street-ballarat-east-vic-3350-2018126594,543000,is-sold,Sold by private treaty 06 Dec 2022,20221206,3 Joseph Street,BALLARAT EAST,VIC,3350,-37.56673,143.880371,4,1,1,House,House,False,595,m2,False
2018126601,listing,/52-lofven-street-nerrina-vic-3350-2018126601,785000,is-sold,Sold by private treaty 07 Dec 2022,20221207,52 Lofven Street,NERRINA,VIC,3350,-37.5485764,143.886688,4,1,4,House,House,False,1175,m2,False
2018157620,listing,/402-sherrard-street-black-hill-vic-3350-2018157620,,is-sold,Sold by private treaty 07 Dec 2022,20221207,402 Sherrard Street,BLACK HILL,VIC,3350,-37.5542336,143.868439,4,2,2,House,House,False,0,m2,False
2018159843,listing,/11a-elliott-street-lake-wendouree-vic-3350-2018159843,810000,is-sold,Sold by private treaty 09 Dec 2022,20221209,11A Elliott Street,LAKE WENDOUREE,VIC,3350,-37.55715,143.834457,2,2,1,House,House,False,330,m2,False
2018175163,listing,/2-25-paling-street-ballarat-north-vic-3350-2018175163,380000,is-sold,Sold by private treaty 07 Dec 2022,20221207,2/25 Paling Street,BALLARAT NORTH,VIC,3350,-37.54076,143.8575,2,1,1,ApartmentUnitFlat,Apartment / Unit / Flat,False,194,m2,False
2018177669,listing,/35-cuzens-road-alfredton-vic-3350-2018177669,715000,is-sold,Sold by private treaty 08 Dec 2022,20221208,35 Cuzens Road,ALFREDTON,VIC,3350,-37.559185,143.7885,4,2,2,House,House,False,629,m2,False
2018190703,listing,/2-leitrim-street-alfredton-vic-3350-2018190703,925000,is-sold,Sold by private treaty 06 Dec 2022,20221206,2 Leitrim Street,ALFREDTON,VIC,3350,-37.5657959,143.798141,4,2,5,House,House,False,699,m2,False
2018206078,listing,/305-neill-street-soldiers-hill-vic-3350-2018206078,692000,is-sold,Sold at auction 08 Dec 2022,20221208,305 Neill Street,SOLDIERS HILL,VIC,3350,-37.5550346,143.859772,3,1,2,House,House,False,452,m2,False
2018219675,listing,/307-eyre-street-ballarat-central-vic-3350-2018219675,585000,is-sold,Sold by private treaty 07 Dec 2022,20221207,307 Eyre Street,BALLARAT CENTRAL,VIC,3350,-37.5656433,143.850357,3,1,1,House,House,False,298,m2,False
2018224222,listing,/1-tipperary-street-alfredton-vic-3350-2018224222,609900,is-sold,Sold by private treaty 07 Dec 2022,20221207,1 Tipperary Street,ALFREDTON,VIC,3350,-37.5657272,143.80069,3,2,2,House,House,False,0,m2,False
2018229930,listing,/16-hutchinson-drive-lucas-vic-3350-2018229930,716000,is-sold,Sold by private treaty 08 Dec 2022,20221208,16 Hutchinson Drive,LUCAS,VIC,3350,-37.553875,143.781815,4,2,2,House,House,False,630,m2,False
2018279084,listing,/13-signature-drive-alfredton-vic-3350-2018279084,850000,is-sold,Sold by private treaty 06 Dec 2022,20221206,13 Signature Drive,ALFREDTON,VIC,3350,-37.5508842,143.810272,4,2,2,House,House,False,476,m2,False
2017853100,listing,/2-315-walker-street-ballarat-north-vic-3350-2017853100,420000,is-sold,Sold by private treaty 01 Dec 2022,20221201,2/315 Walker Street,BALLARAT NORTH,VIC,3350,-37.5428848,143.868652,3,2,2,House,House,False,208,m2,False
2018013938,listing,/2-yarana-drive-mount-helen-vic-3350-2018013938,510000,is-sold,Sold by private treaty 01 Dec 2022,20221201,2 Yarana Drive,MOUNT HELEN,VIC,3350,-37.62294,143.876678,3,1,2,House,House,False,834,m2,False
2018035478,listing,/119-dyson-drive-alfredton-vic-3350-2018035478,585500,is-sold,Sold by private treaty 01 Dec 2022,20221201,119 Dyson Drive,ALFREDTON,VIC,3350,-37.5584564,143.784592,3,2,2,House,House,False,591,m2,False
2018110552,listing,/2-brind-way-lucas-vic-3350-2018110552,665000,is-sold,Sold by private treaty 05 Dec 2022,20221205,2 Brind Way,LUCAS,VIC,3350,-37.54569,143.772812,4,2,2,House,House,False,0,m2,False
2018126415,listing,/7-7-9-ningana-street-alfredton-vic-3350-2018126415,192000,is-sold,Sold by private treaty 01 Dec 2022,20221201,7/7-9 Ningana Street,ALFREDTON,VIC,3350,-37.5528336,143.808182,1,1,1,ApartmentUnitFlat,Apartment / Unit / Flat,False,0,m2,False
2018127069,listing,/316-clayton-street-canadian-vic-3350-2018127069,850000,is-sold,Sold by private treaty 06 Dec 2022,20221206,316 Clayton Street,CANADIAN,VIC,3350,-37.574543,143.87619,,,,VacantLand,Vacant land,False,1888,m2,False
2018127844,listing,/21-leitrim-street-alfredton-vic-3350-2018127844,660000,is-sold,Sold by private treaty 01 Dec 2022,20221201,21 Leitrim Street,ALFREDTON,VIC,3350,-37.5657959,143.798141,4,2,2,House,House,False,480,m2,False
2018135169,listing,/1-2-lovenear-grove-ballarat-east-vic-3350-2018135169,270000,is-sold,Sold by private treaty 01 Dec 2022,20221201,1/2 Lovenear Grove,BALLARAT EAST,VIC,3350,-37.57097,143.883255,1,1,1,House,House,False,0,m2,False
2018162165,listing,/16-swamp-gum-place-alfredton-vic-3350-2018162165,535000,is-sold,Sold by private treaty 01 Dec 2022,20221201,16 Swamp Gum Place,ALFREDTON,VIC,3350,-37.55403,143.789551,4,2,2,Townhouse,Townhouse,False,184,m2,False
2018172463,listing,/3-chamberlain-street-ballarat-east-vic-3350-2018172463,510000,is-sold,Sold by private treaty 02 Dec 2022,20221202,3 Chamberlain Street,BALLARAT EAST,VIC,3350,-37.5606155,143.880875,3,1,1,House,House,False,290,m2,False
2018189040,listing,/7b-blanc-court-brown-hill-vic-3350-2018189040,730000,is-sold,Sold by private treaty 02 Dec 2022,20221202,7b Blanc Court,BROWN HILL,VIC,3350,-37.55473,143.920456,4,2,2,House,House,False,584,m2,False
2018191498,listing,/1-462-wendouree-parade-lake-wendouree-vic-3350-2018191498,2300000,is-sold,Sold by private treaty 05 Dec 2022,20221205,1/462 Wendouree Parade,LAKE WENDOUREE,VIC,3350,-37.54337,143.832916,2,2,2,House,House,False,0,m2,False
2018205236,listing,/104-larter-street-golden-point-vic-3350-2018205236,383000,is-sold,Sold by private treaty 05 Dec 2022,20221205,104 Larter Street,GOLDEN POINT,VIC,3350,-37.5697327,143.872131,2,1,1,House,House,False,505,m2,False
2018205307,listing,/34-warburton-drive-lucas-vic-3350-2018205307,500000,is-sold,Sold by private treaty 30 Nov 2022,20221130,34 Warburton Drive,LUCAS,VIC,3350,-37.54987,143.780518,3,2,2,House,House,False,266,m2,False
2018205308,listing,/507-talbot-street-south-redan-vic-3350-2018205308,840500,is-sold,Sold by private treaty 30 Nov 2022,20221130,507 Talbot Street South,REDAN,VIC,3350,-37.5715523,143.8412,3,1,6,House,House,False,1015,m2,False
2018206279,listing,/9-belmar-crescent-canadian-vic-3350-2018206279,720000,is-sold,Sold by private treaty 06 Dec 2022,20221206,9 Belmar Crescent,CANADIAN,VIC,3350,-37.5865479,143.8719,3,2,2,House,House,False,654,m2,False
2018222186,listing,/7-jemacra-place-mount-clear-vic-3350-2018222186,462000,is-sold,Sold by private treaty 05 Dec 2022,20221205,7 Jemacra Place,MOUNT CLEAR,VIC,3350,-37.6063766,143.8723,5,2,2,House,House,False,0,m2,False
2018235153,listing,/913-lydiard-street-ballarat-north-vic-3350-2018235153,645000,is-sold,Sold by private treaty 05 Dec 2022,20221205,913 Lydiard Street,BALLARAT NORTH,VIC,3350,-37.54226,143.861053,3,1,2,House,House,False,763,m2,False
2018237223,listing,/101-norman-street-ballarat-north-vic-3350-2018237223,980000,is-sold,Sold by private treaty 02 Dec 2022,20221202,101 Norman Street,BALLARAT NORTH,VIC,3350,-37.5389023,143.877838,4,2,2,House,House,False,854,m2,False
2018273843,listing,/18-lyric-court-canadian-vic-3350-2018273843,585000,is-sold,Sold by private treaty 01 Dec 2022,20221201,18 Lyric Court,CANADIAN,VIC,3350,-37.5891266,143.876984,4,2,2,House,House,False,465,m2,False
2017472681,listing,/27-846-eureka-street-ballarat-east-vic-3350-2017472681,349000,is-sold,Sold by private treaty 24 Nov 2022,20221124,27/846 Eureka Street,BALLARAT EAST,VIC,3350,-37.56838,143.898392,,,,VacantLand,Vacant land,False,812,m2,False
2017895325,listing,/1-402-doveton-street-north-soldiers-hill-vic-3350-2017895325,600000,is-sold,Sold by private treaty 30 Nov 2022,20221130,1/402 Doveton Street North,SOLDIERS HILL,VIC,3350,-37.5528679,143.856644,3,1,1,Townhouse,Townhouse,False,0,m2,False
2017918875,listing,/422-raglan-street-south-ballarat-central-vic-3350-2017918875,970000,is-sold,Sold by private treaty 24 Nov 2022,20221124,422 Raglan Street South,BALLARAT CENTRAL,VIC,3350,-37.5709572,143.848236,4,3,,House,House,False,484,m2,False
2018058176,listing,/2-509-bell-street-redan-vic-3350-2018058176,410000,is-sold,Sold by private treaty 30 Nov 2022,20221130,2/509 Bell Street,REDAN,VIC,3350,-37.577,143.8372,2,1,1,ApartmentUnitFlat,Apartment / Unit / Flat,False,173,m2,False
2018096317,listing,/36-corbett-street-ballarat-east-vic-3350-2018096317,367500,is-sold,Sold by private treaty 25 Nov 2022,20221125,36 Corbett Street,BALLARAT EAST,VIC,3350,-37.5605965,143.871246,3,1,2,House,House,False,489,m2,False
2018097263,listing,/29-armagh-street-alfredton-vic-3350-2018097263,599900,is-sold,Sold by private treaty 24 Nov 2022,20221124,29 Armagh Street,ALFREDTON,VIC,3350,-37.56429,143.799469,3,2,2,House,House,False,0,m2,False
2018112379,listing,/6-northwood-court-invermay-park-vic-3350-2018112379,550000,is-sold,Sold by private treaty 28 Nov 2022,20221128,6 Northwood Court,INVERMAY PARK,VIC,3350,-37.52438,143.863892,3,1,2,House,House,False,863,m2,False
2018115257,listing,/10-talbot-street-north-ballarat-central-vic-3350-2018115257,928000,is-sold,Sold by private treaty 26 Nov 2022,20221126,10 Talbot Street North,BALLARAT CENTRAL,VIC,3350,-37.5593033,143.8434,3,1,2,House,House,False,535,m2,False
2018122027,listing,/701-doveton-street-north-soldiers-hill-vic-3350-2018122027,527500,is-sold,Sold by private treaty 25 Nov 2022,20221125,701 Doveton Street North,SOLDIERS HILL,VIC,3350,-37.5460548,143.8574,2,1,2,House,House,False,305,m2,False
2018126404,listing,/219-shire-avenue-mount-helen-vic-3350-2018126404,630000,is-sold,Sold by private treaty 28 Nov 2022,20221128,219 Shire Avenue,MOUNT HELEN,VIC,3350,-37.6240921,143.873154,4,2,2,House,House,False,953,m2,False
2018135241,listing,/59-vale-street-alfredton-vic-3350-2018135241,330000,is-sold,Sold at auction 28 Nov 2022,20221128,59 Vale Street,ALFREDTON,VIC,3350,-37.5598221,143.8157,2,1,1,House,House,False,278,m2,False
2018140570,listing,/43-melbourne-road-brown-hill-vic-3350-2018140570,515000,is-sold,Sold by private treaty 29 Nov 2022,20221129,43 Melbourne Road,BROWN HILL,VIC,3350,-37.5572243,143.898239,3,1,2,House,House,False,719,m2,False
2018142411,listing,/319-lal-lal-street-canadian-vic-3350-2018142411,440000,is-sold,Sold by private treaty 29 Nov 2022,20221129,319 Lal Lal Street,CANADIAN,VIC,3350,-37.5802345,143.877823,3,1,2,House,House,False,324,m2,False
2018142421,listing,/503-south-street-ballarat-central-vic-3350-2018142421,660000,is-sold,Sold by private treaty 28 Nov 2022,20221128,503 South Street,BALLARAT CENTRAL,VIC,3350,-37.56952,143.846832,3,2,1,House,House,False,425,m2,False
2018152923,listing,/608-windermere-street-redan-vic-3350-2018152923,427500,is-sold,Sold by private treaty 30 Nov 2022,20221130,608 Windermere Street,REDAN,VIC,3350,-37.5742035,143.843231,3,1,2,House,House,False,0,m2,False
2018155273,listing,/38-willoby-drive-alfredton-vic-3350-2018155273,545000,is-sold,Sold by private treaty 24 Nov 2022,20221124,38 Willoby Drive,ALFREDTON,VIC,3350,-37.55898,143.787247,3,2,2,House,House,False,0,m2,False
2018173816,listing,/315a-crompton-street-soldiers-hill-vic-3350-2018173816,560000,is-sold,Sold by private treaty 30 Nov 2022,20221130,315A Crompton Street,SOLDIERS HILL,VIC,3350,-37.5434875,143.854858,3,2,2,ApartmentUnitFlat,Apartment / Unit / Flat,False,324,m2,False
2018190390,listing,/3-25-flockhart-street-mount-pleasant-vic-3350-2018190390,380000,is-sold,Sold by private treaty 28 Nov 2022,20221128,3/25 Flockhart Street,MOUNT PLEASANT,VIC,3350,-37.58499,143.854309,3,1,2,House,House,False,646,m2,False
2018209268,listing,/27-falkirk-road-nerrina-vic-3350-2018209268,1120000,is-sold,Sold by private treaty 25 Nov 2022,20221125,27 Falkirk Road,NERRINA,VIC,3350,-37.5425,143.886154,4,2,6,House,House,False,1580,m2,False
2018213384,listing,/5-wirilda-court-mount-helen-vic-3350-2018213384,731501,is-sold,Sold by private treaty 28 Nov 2022,20221128,5 Wirilda Court,MOUNT HELEN,VIC,3350,-37.62069,143.884125,3,2,2,House,House,False,716,m2,False
2017769240,listing,/1772-sturt-street-alfredton-vic-3350-2017769240,,is-sold,Sold by private treaty 23 Nov 2022,20221123,1772 Sturt Street,ALFREDTON,VIC,3350,-37.5494957,143.805634,4,2,2,House,House,False,0,m2,False
2018024235,listing,/67-warburton-drive-lucas-vic-3350-2018024235,590000,is-sold,Sold by private treaty 21 Nov 2022,20221121,67 Warburton Drive,LUCAS,VIC,3350,-37.5500374,143.778244,4,2,2,House,House,False,553,m2,False
2018041571,listing,/18-hillcrest-road-nerrina-vic-3350-2018041571,732500,is-sold,Sold by private treaty 19 Nov 2022,20221119,18 Hillcrest Road,NERRINA,VIC,3350,-37.5487366,143.8928,4,1,2,House,House,False,1459,m2,False
2018048541,listing,/1-18-gale-street-canadian-vic-3350-2018048541,415000,is-sold,Sold by private treaty 22 Nov 2022,20221122,1/18 Gale Street,CANADIAN,VIC,3350,-37.58012,143.8743,3,2,2,Townhouse,Townhouse,False,0,m2,False
2018053138,listing,/24a-lilley-street-ballarat-north-vic-3350-2018053138,430000,is-sold,Sold by private treaty 24 Nov 2022,20221124,24A Lilley Street,BALLARAT NORTH,VIC,3350,-37.540432,143.85495,3,1,2,House,House,False,304,m2,False
2018067487,listing,/20-apple-orchard-drive-brown-hill-vic-3350-2018067487,1158888,is-sold,Sold by private treaty 18 Nov 2022,20221118,20 Apple Orchard Drive,BROWN HILL,VIC,3350,-37.5470963,143.9162,4,2,3,House,House,False,921,m2,False
2018084319,listing,/2-717-tress-street-mount-pleasant-vic-3350-2018084319,,is-sold,Sold by private treaty 22 Nov 2022,20221122,2/717 Tress Street,MOUNT PLEASANT,VIC,3350,-37.57664,143.858566,2,2,1,Townhouse,Townhouse,False,0,m2,False
2018110794,listing,/100-larter-street-golden-point-vic-3350-2018110794,470000,is-sold,Sold by private treaty 21 Nov 2022,20221121,100 Larter Street,GOLDEN POINT,VIC,3350,-37.5695267,143.871964,3,1,2,House,House,False,0,m2,False
2018111543,listing,/4-719-geelong-road-canadian-vic-3350-2018111543,388000,is-sold,Sold by private treaty 21 Nov 2022,20221121,4/719 Geelong Road,CANADIAN,VIC,3350,-37.5834961,143.868729,3,2,1,ApartmentUnitFlat,Apartment / Unit / Flat,False,0,m2,False
2018126501,listing,/811-doveton-street-soldiers-hill-vic-3350-2018126501,790000,is-sold,Sold by private treaty 22 Nov 2022,20221122,811 Doveton Street,SOLDIERS HILL,VIC,3350,-37.5442047,143.857956,3,2,2,House,House,False,0,m2,False
2018126507,listing,/13-harris-drive-lucas-vic-3350-2018126507,612000,is-sold,Sold by private treaty 22 Nov 2022,20221122,13 Harris Drive,LUCAS,VIC,3350,-37.5465927,143.785492,4,2,2,House,House,False,0,m2,False
2018126599,listing,/104-mansfield-avenue-mount-clear-vic-3350-2018126599,,is-sold,Sold by private treaty 23 Nov 2022,20221123,104 Mansfield Avenue,MOUNT CLEAR,VIC,3350,-37.5966034,143.865891,3,1,2,House,House,False,780,m2,False
2018139756,listing,/13-lilley-street-ballarat-north-vic-3350-2018139756,555000,is-sold,Sold by private treaty 23 Nov 2022,20221123,13 Lilley Street,BALLARAT NORTH,VIC,3350,-37.5415,143.854263,3,1,1,House,House,False,781,m2,False
2018140427,listing,/25-walters-way-alfredton-vic-3350-2018140427,650000,is-sold,Sold by private treaty 21 Nov 2022,20221121,25 Walters Way,ALFREDTON,VIC,3350,-37.56067,143.789963,4,2,2,House,House,False,456,m2,False
2018140996,listing,/800b-doveton-street-north-soldiers-hill-vic-3350-2018140996,563000,is-sold,Sold by private treaty 21 Nov 2022,20221121,800b Doveton Street North,SOLDIERS HILL,VIC,3350,-37.5447578,143.858368,2,1,1,Townhouse,Townhouse,False,0,m2,False
2018144501,listing,/85-eleanor-drive-lucas-vic-3350-2018144501,935000,is-sold,Sold by private treaty 24 Nov 2022,20221124,85 Eleanor Drive,LUCAS,VIC,3350,-37.54526,143.778839,4,2,2,House,House,False,0,m2,False
2018157895,listing,/726-tress-street-mount-pleasant-vic-3350-2018157895,585000,is-sold,Sold by private treaty 23 Nov 2022,20221123,726 Tress Street,MOUNT PLEASANT,VIC,3350,-37.57675,143.857361,3,1,2,House,House,False,592,m2,False
2018158773,listing,/15-horwood-drive-canadian-vic-3350-2018158773,630000,is-sold,Sold by private treaty 22 Nov 2022,20221122,15 Horwood Drive,CANADIAN,VIC,3350,-37.59223,143.87294,4,2,2,House,House,False,671,m2,False
2018171808,listing,/213-talbot-street-south-ballarat-central-vic-3350-2018171808,1600000,is-sold,Sold by private treaty 21 Nov 2022,20221121,213 Talbot Street South,BALLARAT CENTRAL,VIC,3350,-37.5656853,143.842255,4,2,2,House,House,False,721,m2,False
2018251573,listing,/101-norman-street-ballarat-north-vic-3350-2018251573,980000,is-sold,Sold by private treaty 23 Nov 2022,20221123,101 Norman Street,BALLARAT NORTH,VIC,3350,-37.5389023,143.877838,4,2,2,House,House,False,854,m2,False
2017951996,listing,/503-ligar-street-soldiers-hill-vic-3350-2017951996,950000,is-sold,Sold by private treaty 16 Nov 2022,20221116,503 Ligar Street,SOLDIERS HILL,VIC,3350,-37.5507164,143.862076,4,3,4,House,House,False,919,m2,False
2017978013,listing,/324-yarrowee-parade-redan-vic-3350-2017978013,515000,is-sold,Sold by private treaty 16 Nov 2022,20221116,324 Yarrowee Parade,REDAN,VIC,3350,-37.581913,143.844315,3,2,2,House,House,False,405,m2,False
2018020243,listing,/16-209-leith-street-redan-vic-3350-2018020243,315000,is-sold,Sold by private treaty 16 Nov 2022,20221116,16/209 Leith Street,REDAN,VIC,3350,-37.5793037,143.839981,2,1,1,ApartmentUnitFlat,Apartment / Unit / Flat,False,0,m2,False
2018049247,listing,/20-midlands-drive-ballarat-north-vic-3350-2018049247,550000,is-sold,Sold by private treaty 17 Nov 2022,20221117,20 Midlands Drive,BALLARAT NORTH,VIC,3350,-37.5380325,143.856689,3,2,2,House,House,False,781,m2,False
2018055473,listing,/18-cavan-grove-alfredton-vic-3350-2018055473,675000,is-sold,Sold by private treaty 17 Nov 2022,20221117,18 Cavan Grove,ALFREDTON,VIC,3350,-37.56745,143.797256,4,2,2,House,House,False,512,m2,False
2018068872,listing,/24-anton-drive-alfredton-vic-3350-2018068872,570000,is-sold,Sold by private treaty 17 Nov 2022,20221117,24 Anton Drive,ALFREDTON,VIC,3350,-37.5608673,143.78685,3,2,2,House,House,False,398,m2,False
2018089714,listing,/13-116-daylesford-road-brown-hill-vic-3350-2018089714,605000,is-sold,Sold by private treaty 17 Nov 2022,20221117,13/116 Daylesford Road,BROWN HILL,VIC,3350,-37.5495,143.9123,4,2,2,House,House,False,2212,m2,False
2018111847,listing,/22-inkerman-street-newington-vic-3350-2018111847,785000,is-sold,Sold by private treaty 16 Nov 2022,20221116,22 Inkerman Street,NEWINGTON,VIC,3350,-37.565876,143.834732,3,2,4,House,House,False,724,m2,False
2018112569,listing,/1-parkwood-street-alfredton-vic-3350-2018112569,650000,is-sold,Sold by private treaty 17 Nov 2022,20221117,1 Parkwood Street,ALFREDTON,VIC,3350,-37.55346,143.803085,4,2,2,House,House,False,714,m2,False
2018125562,listing,/3-6-alfred-street-redan-vic-3350-2018125562,275000,is-sold,Sold by private treaty 16 Nov 2022,20221116,3/6 Alfred Street,REDAN,VIC,3350,-37.5596,143.8293,2,1,1,ApartmentUnitFlat,Apartment / Unit / Flat,False,0,m2,False
2018138650,listing,/15-lakeland-drive-lucas-vic-3350-2018138650,330000,is-sold,Sold by private treaty 17 Nov 2022,20221117,15 Lakeland Drive,LUCAS,VIC,3350,-37.54852,143.777,,,,VacantLand,Vacant land,False,507,m2,False
2018138791,listing,/15-ron-court-canadian-vic-3350-2018138791,375000,is-sold,Sold by private treaty 17 Nov 2022,20221117,15 Ron Court,CANADIAN,VIC,3350,-37.58227,143.877014,2,2,1,Townhouse,Townhouse,False,185,m2,False
2018142415,listing,/5-harrier-drive-invermay-park-vic-3350-2018142415,995000,is-sold,Sold by private treaty 17 Nov 2022,20221117,5 Harrier Drive,INVERMAY PARK,VIC,3350,-37.5282631,143.865128,4,2,3,House,House,False,856,m2,False
2018154561,listing,/310-nicholson-street-black-hill-vic-3350-2018154561,500000,is-sold,Sold by private treaty 17 Nov 2022,20221117,310 Nicholson Street,BLACK HILL,VIC,3350,-37.5558853,143.866745,3,1,2,House,House,False,785,m2,False
2018157891,listing,/10-tregurtha-street-golden-point-vic-3350-2018157891,440000,is-sold,Sold by private treaty 16 Nov 2022,20221116,10 Tregurtha Street,GOLDEN POINT,VIC,3350,-37.5729637,143.8673,2,1,1,House,House,False,0,m2,False
2018172434,listing,/15-cassinia-court-canadian-vic-3350-2018172434,580000,is-sold,Sold by private treaty 18 Nov 2022,20221118,15 Cassinia Court,CANADIAN,VIC,3350,-37.58219,143.883316,4,2,2,House,House,False,437,m2,False
2018185097,listing,/406-windermere-street-ballarat-central-vic-3350-2018185097,595000,is-sold,Sold by private treaty 16 Nov 2022,20221116,406 Windermere Street,BALLARAT CENTRAL,VIC,3350,-37.5693779,143.844086,3,1,1,House,House,False,0,m2,False
2018186056,listing,/19-ascot-street-north-ballarat-central-vic-3350-2018186056,,is-sold,Sold by private treaty 17 Nov 2022,20221117,19 Ascot Street North,BALLARAT CENTRAL,VIC,3350,-37.5589,143.844421,3,2,2,House,House,False,508,m2,False
2018191999,listing,/827-bond-street-mount-pleasant-vic-3350-2018191999,435000,is-sold,Sold by private treaty 18 Nov 2022,20221118,827 Bond Street,MOUNT PLEASANT,VIC,3350,-37.5770454,143.852234,3,1,2,House,House,False,627,m2,False
2018192539,listing,/724-norman-street-invermay-park-vic-3350-2018192539,565000,is-sold,Sold by private treaty 16 Nov 2022,20221116,724 Norman Street,INVERMAY PARK,VIC,3350,-37.5358658,143.85672,3,1,2,House,House,False,663,m2,False
2017701940,listing,/13-church-street-ballarat-central-vic-3350-2017701940,1345000,is-sold,Sold by private treaty 09 Nov 2022,20221109,13 Church Street,BALLARAT CENTRAL,VIC,3350,-37.5612335,143.840012,4,3,3,House,House,False,457,m2,False
2017810014,listing,/209a-and-211-213-elsworth-street-canadian-vic-3350-2017810014,,is-sold,Sold by private treaty 15 Nov 2022,20221115,209a and 211-213 Elsworth Street,CANADIAN,VIC,3350,-37.5841637,143.881638,,,,VacantLand,Vacant land,False,0,m2,False
2017842015,listing,/23-hollioake-drive-lucas-vic-3350-2017842015,750000,is-sold,Sold by private treaty 15 Nov 2022,20221115,23 Hollioake Drive,LUCAS,VIC,3350,-37.55543,143.783081,4,2,2,House,House,False,576,m2,False
2017852638,listing,/2-morres-street-ballarat-east-vic-3350-2017852638,320000,is-sold,Sold by private treaty 14 Nov 2022,20221114,2 Morres Street,BALLARAT EAST,VIC,3350,-37.55837,143.867508,2,1,3,House,House,False,637,m2,False
2017926549,listing,/626-barkly-street-golden-point-vic-3350-2017926549,490000,is-sold,Sold by private treaty 10 Nov 2022,20221110,626 Barkly Street,GOLDEN POINT,VIC,3350,-37.572937,143.858582,3,1,2,House,House,False,573,m2,False
2017943303,listing,/305-skipton-street-ballarat-central-vic-3350-2017943303,489000,is-sold,Sold by private treaty 09 Nov 2022,20221109,305 Skipton Street,BALLARAT CENTRAL,VIC,3350,-37.571228,143.849426,2,1,1,House,House,False,300,m2,False
2018067396,listing,/317-doveton-street-south-ballarat-central-vic-3350-2018067396,520000,is-sold,Sold by private treaty 11 Nov 2022,20221111,317 Doveton Street South,BALLARAT CENTRAL,VIC,3350,-37.5693,143.853622,3,1,1,House,House,False,299,m2,False
2018094186,listing,/2-12-ritchie-street-brown-hill-vic-3350-2018094186,405000,is-sold,Sold by private treaty 11 Nov 2022,20221111,2/12 Ritchie Street,BROWN HILL,VIC,3350,-37.5560379,143.8993,4,2,2,ApartmentUnitFlat,Apartment / Unit / Flat,False,0,m2,False
2018119973,listing,/11-ron-court-canadian-vic-3350-2018119973,290000,is-sold,Sold by private treaty 10 Nov 2022,20221110,11 Ron Court,CANADIAN,VIC,3350,-37.5822067,143.877258,1,1,1,Townhouse,Townhouse,False,111,m2,False
2018124799,listing,/6-warburton-drive-lucas-vic-3350-2018124799,605000,is-sold,Sold by private treaty 10 Nov 2022,20221110,6 Warburton Drive,LUCAS,VIC,3350,-37.5512,143.783432,3,2,2,House,House,False,418,m2,False
2018129175,listing,/801-cosmopolitan-place-ballarat-central-vic-3350-2018129175,475000,is-sold,Sold by private treaty 15 Nov 2022,20221115,801 Cosmopolitan Place,BALLARAT CENTRAL,VIC,3350,-37.5661125,143.841324,2,1,1,House,House,False,152,m2,False
2018155934,listing,/10-464-wendouree-parade-lake-wendouree-vic-3350-2018155934,575000,is-sold,Sold by private treaty 11 Nov 2022,20221111,10/464 Wendouree Parade,LAKE WENDOUREE,VIC,3350,-37.5429535,143.832855,2,1,1,Townhouse,Townhouse,False,0,m2,False
2018157837,listing,/2-512-windermere-street-redan-vic-3350-2018157837,437000,is-sold,Sold by private treaty 11 Nov 2022,20221111,2/512 Windermere Street,REDAN,VIC,3350,-37.5721321,143.843613,3,1,1,ApartmentUnitFlat,Apartment / Unit / Flat,False,380,m2,False
2018157886,listing,/16-monteith-place-ballarat-central-vic-3350-2018157886,580000,is-sold,Sold by private treaty 10 Nov 2022,20221110,16 Monteith Place,BALLARAT CENTRAL,VIC,3350,-37.5522881,143.850784,2,1,1,Townhouse,Townhouse,False,0,m2,False
2018157894,listing,/1-quirk-road-lucas-vic-3350-2018157894,625000,is-sold,Sold by private treaty 11 Nov 2022,20221111,1 Quirk Road,LUCAS,VIC,3350,-37.54639,143.769287,3,2,2,House,House,False,507,m2,False
2018158951,listing,/8-cecile-court-ballarat-east-vic-3350-2018158951,547000,is-sold,Sold by private treaty 15 Nov 2022,20221115,8 Cecile Court,BALLARAT EAST,VIC,3350,-37.568718,143.8883,3,2,1,House,House,False,591,m2,False
2018162500,listing,/6-lilley-street-ballarat-north-vic-3350-2018162500,580000,is-sold,Sold by private treaty 11 Nov 2022,20221111,6 Lilley Street,BALLARAT NORTH,VIC,3350,-37.5421638,143.854889,3,1,2,House,House,False,784,m2,False
2018170367,listing,/916-eyre-street-ballarat-central-vic-3350-2018170367,620000,is-sold,Sold by private treaty 15 Nov 2022,20221115,916 Eyre Street,BALLARAT CENTRAL,VIC,3350,-37.5641365,143.840851,3,1,2,House,House,False,508,m2,False
2018183009,listing,/6-209-tinworth-avenue-mount-clear-vic-3350-2018183009,475000,is-sold,Sold by private treaty 10 Nov 2022,20221110,6/209 Tinworth Avenue,MOUNT CLEAR,VIC,3350,-37.5943527,143.865173,3,2,4,Townhouse,Townhouse,False,0,m2,False
2018190822,listing,/5-ascot-street-south-ballarat-central-vic-3350-2018190822,600000,is-sold,Sold by private treaty 14 Nov 2022,20221114,5 Ascot Street South,BALLARAT CENTRAL,VIC,3350,-37.561245,143.844589,4,1,,House,House,False,500,m2,False
2017813794,listing,/99-willoby-drive-alfredton-vic-3350-2017813794,700000,is-sold,Sold by private treaty 07 Nov 2022,20221107,99 Willoby Drive,ALFREDTON,VIC,3350,-37.56433,143.7865,4,2,2,House,House,False,498,m2,False
2017889421,listing,/323-ligar-street-soldiers-hill-vic-3350-2017889421,937500,is-sold,Sold by private treaty 07 Nov 2022,20221107,323 Ligar Street,SOLDIERS HILL,VIC,3350,-37.5543938,143.861481,4,1,1,House,House,False,511,m2,False
2017947657,listing,/314-york-street-ballarat-east-vic-3350-2017947657,378000,is-sold,Sold by private treaty 04 Nov 2022,20221104,314 York Street,BALLARAT EAST,VIC,3350,-37.568737,143.878159,3,1,2,House,House,False,733,m2,False
2017993821,listing,/603-urquhart-street-ballarat-central-vic-3350-2017993821,430000,is-sold,Sold by private treaty 08 Nov 2022,20221108,603 Urquhart Street,BALLARAT CENTRAL,VIC,3350,-37.5670738,143.84433,2,1,2,House,House,False,0,m2,False
2018023217,listing,/78-wicklow-drive-invermay-park-vic-3350-2018023217,800000,is-sold,Sold by private treaty 04 Nov 2022,20221104,78 Wicklow Drive,INVERMAY PARK,VIC,3350,-37.524025,143.853989,4,2,4,House,House,False,879,m2,False
2018031830,listing,/7-sheehan-court-ballarat-east-vic-3350-2018031830,495000,is-sold,Sold by private treaty 08 Nov 2022,20221108,7 Sheehan Court,BALLARAT EAST,VIC,3350,-37.5687943,143.884186,3,2,2,House,House,False,0,m2,False
2018037065,listing,/3-320-humffray-street-north-brown-hill-vic-3350-2018037065,420000,is-sold,Sold by private treaty 09 Nov 2022,20221109,3/320 Humffray Street North,BROWN HILL,VIC,3350,-37.55357,143.8981,3,2,1,House,House,False,362,m2,False
2018039556,listing,/9-clayton-park-drive-canadian-vic-3350-2018039556,617000,is-sold,Sold by private treaty 09 Nov 2022,20221109,9 Clayton Park Drive,CANADIAN,VIC,3350,-37.5783119,143.88092,3,2,2,House,House,False,642,m2,False
2018065716,listing,/307-kline-street-ballarat-east-vic-3350-2018065716,460000,is-sold,Sold by private treaty 05 Nov 2022,20221105,307 Kline Street,BALLARAT EAST,VIC,3350,-37.5707436,143.885284,3,1,2,House,House,False,688,m2,False
2018068505,listing,/5-kevlar-close-canadian-vic-3350-2018068505,545000,is-sold,Sold by private treaty 04 Nov 2022,20221104,5 Kevlar Close,CANADIAN,VIC,3350,-37.57453,143.878891,3,2,2,House,House,False,211,m2,False
2018072453,listing,/317-tinworth-avenue-mount-clear-vic-3350-2018072453,550000,is-sold,Sold by private treaty 07 Nov 2022,20221107,317 Tinworth Avenue,MOUNT CLEAR,VIC,3350,-37.59653,143.863586,3,2,2,House,House,False,668,m2,False
2018095990,listing,/910-ligar-street-ballarat-north-vic-3350-2018095990,667000,is-sold,Sold by private treaty 08 Nov 2022,20221108,910 Ligar Street,BALLARAT NORTH,VIC,3350,-37.5429955,143.8645,3,2,2,House,House,False,0,m2,False
2018110835,listing,/10-hutchinson-drive-lucas-vic-3350-2018110835,800000,is-sold,Sold by private treaty 09 Nov 2022,20221109,10 Hutchinson Drive,LUCAS,VIC,3350,-37.553875,143.781815,4,2,2,House,House,False,630,m2,False
2018129767,listing,/6-ritchie-street-brown-hill-vic-3350-2018129767,420000,is-sold,Sold by private treaty 05 Nov 2022,20221105,6 Ritchie Street,BROWN HILL,VIC,3350,-37.5566635,143.898926,3,1,4,House,House,False,605,m2,False
2018141518,listing,/10-karol-street-alfredton-vic-3350-2018141518,710000,is-sold,Sold by private treaty 08 Nov 2022,20221108,10 Karol Street,ALFREDTON,VIC,3350,-37.5599861,143.785889,4,2,2,House,House,False,534,m2,False
2018144105,listing,/614-howitt-street-ballarat-north-vic-3350-2018144105,520000,is-sold,Sold by private treaty 04 Nov 2022,20221104,614 Howitt Street,BALLARAT NORTH,VIC,3350,-37.54271,143.8541,3,2,2,House,House,False,577,m2,False
2018158624,listing,/8-margaret-avenue-ballarat-north-vic-3350-2018158624,545000,is-sold,Sold by private treaty 04 Nov 2022,20221104,8 Margaret Avenue,BALLARAT NORTH,VIC,3350,-37.5427475,143.87561,3,1,2,House,House,False,641,m2,False
2018158698,listing,/1-daylesford-road-brown-hill-vic-3350-2018158698,505000,is-sold,Sold by private treaty 05 Nov 2022,20221105,1 Daylesford Road,BROWN HILL,VIC,3350,-37.5504265,143.904816,3,2,2,House,House,False,721,m2,False
2018159743,listing,/107-urquhart-street-ballarat-central-vic-3350-2018159743,1005000,is-sold,Sold by private treaty 04 Nov 2022,20221104,107 Urquhart Street,BALLARAT CENTRAL,VIC,3350,-37.5679741,143.851364,4,2,1,House,House,False,697,m2,False
2018176929,listing,/603a-howard-street-soldiers-hill-vic-3350-2018176929,655000,is-sold,Sold by private treaty 09 Nov 2022,20221109,603A Howard Street,SOLDIERS HILL,VIC,3350,-37.54628,143.855148,3,1,2,House,House,False,511,m2,False
2017763377,listing,/19a-talbot-street-south-ballarat-central-vic-3350-2017763377,675000,is-sold,Sold by private treaty 31 Oct 2022,20221031,19A Talbot Street South,BALLARAT CENTRAL,VIC,3350,-37.56173,143.842911,3,2,1,Townhouse,Townhouse,False,253,m2,False
2017769352,listing,/1778-sturt-street-alfredton-vic-3350-2017769352,1515000,is-sold,Sold by private treaty 31 Oct 2022,20221031,1778 Sturt Street,ALFREDTON,VIC,3350,-37.5492,143.804779,4,3,3,House,House,False,653,m2,False
2017894795,listing,/24-hollioake-drive-lucas-vic-3350-2017894795,365000,is-sold,Sold by private treaty 03 Nov 2022,20221103,24 Hollioake Drive,LUCAS,VIC,3350,-37.55543,143.783081,,,,VacantLand,Vacant land,False,761,m2,False
2018009892,listing,/42-roscommon-avenue-alfredton-vic-3350-2018009892,602000,is-sold,Sold by private treaty 03 Nov 2022,20221103,42 Roscommon Avenue,ALFREDTON,VIC,3350,-37.56568,143.796646,4,2,2,House,House,False,420,m2,False
2018018167,listing,/102-macarthur-street-soldiers-hill-vic-3350-2018018167,960000,is-sold,Sold by private treaty 04 Nov 2022,20221104,102 Macarthur Street,SOLDIERS HILL,VIC,3350,-37.5510826,143.862137,3,1,2,House,House,False,577,m2,False
2018024230,listing,/16-watson-drive-mount-pleasant-vic-3350-2018024230,580000,is-sold,Sold by private treaty 31 Oct 2022,20221031,16 Watson Drive,MOUNT PLEASANT,VIC,3350,-37.5826149,143.856384,3,2,2,House,House,False,0,m2,False
2018024422,listing,/4-20-gale-street-canadian-vic-3350-2018024422,375000,is-sold,Sold by private treaty 03 Nov 2022,20221103,4/20 Gale Street,CANADIAN,VIC,3350,-37.5802879,143.874084,2,1,1,House,House,False,165,m2,False
2018064249,listing,/421-drummond-street-south-ballarat-central-vic-3350-2018064249,390000,is-sold,Sold by private treaty 02 Nov 2022,20221102,421 Drummond Street South,BALLARAT CENTRAL,VIC,3350,-37.57096,143.845856,2,1,1,ApartmentUnitFlat,Apartment / Unit / Flat,False,189,m2,False
2018096427,listing,/120-howitt-street-ballarat-north-vic-3350-2018096427,590000,is-sold,Sold by private treaty 03 Nov 2022,20221103,120 Howitt Street,BALLARAT NORTH,VIC,3350,-37.5439644,143.8646,3,1,3,House,House,False,767,m2,False
2018097152,listing,/1-740-geelong-road-canadian-vic-3350-2018097152,450000,is-sold,Sold by private treaty 03 Nov 2022,20221103,1/740 Geelong Road,CANADIAN,VIC,3350,-37.5854,143.867157,3,2,2,Townhouse,Townhouse,False,0,m2,False
2018106496,listing,/24-alfred-street-south-newington-vic-3350-2018106496,2000000,is-sold,Sold by private treaty 04 Nov 2022,20221104,24 Alfred Street South,NEWINGTON,VIC,3350,-37.56115,143.828949,4,4,2,House,House,False,840,m2,False
2018110788,listing,/426-cobden-street-mount-pleasant-vic-3350-2018110788,460000,is-sold,Sold by private treaty 04 Nov 2022,20221104,426 Cobden Street,MOUNT PLEASANT,VIC,3350,-37.5796051,143.858551,2,1,2,House,House,False,845,m2,False
2018110795,listing,/403-bradshaw-street-golden-point-vic-3350-2018110795,510000,is-sold,Sold by private treaty 31 Oct 2022,20221031,403 Bradshaw Street,GOLDEN POINT,VIC,3350,-37.5732574,143.8628,3,1,1,House,House,False,709,m2,False
2018113893,listing,/1-801-ripon-street-south-redan-vic-3350-2018113893,395000,is-sold,Sold by private treaty 03 Nov 2022,20221103,1/801 Ripon Street South,REDAN,VIC,3350,-37.5773125,143.838608,2,1,1,House,House,False,270,m2,False
2018122682,listing,/137-moola-street-ballarat-north-vic-3350-2018122682,765000,is-sold,Sold by private treaty 01 Nov 2022,20221101,137 Moola Street,BALLARAT NORTH,VIC,3350,-37.5397568,143.877579,3,2,2,House,House,False,1086,m2,False
2018124657,listing,/705b-sebastopol-street-ballarat-central-vic-3350-2018124657,520000,is-sold,Sold by private treaty 03 Nov 2022,20221103,705b Sebastopol Street,BALLARAT CENTRAL,VIC,3350,-37.5710144,143.841614,1,1,1,House,House,False,292,m2,False
2018146504,listing,/14-hutchinson-drive-lucas-vic-3350-2018146504,697500,is-sold,Sold by private treaty 04 Nov 2022,20221104,14 Hutchinson Drive,LUCAS,VIC,3350,-37.5526,143.782959,4,2,2,House,House,False,560,m2,False
2018146850,listing,/108-alfredton-drive-alfredton-vic-3350-2018146850,600000,is-sold,Sold by private treaty 03 Nov 2022,20221103,108 Alfredton Drive,ALFREDTON,VIC,3350,-37.5609665,143.800049,3,2,4,House,House,False,663,m2,False
2018172896,listing,/17-10-bells-lane-brown-hill-vic-3350-2018172896,500000,is-sold,Sold by private treaty 02 Nov 2022,20221102,17/10 Bells Lane,BROWN HILL,VIC,3350,-37.5523834,143.8875,3,2,2,Townhouse,Townhouse,False,0,m2,False
2018198430,listing,/3-belfast-road-alfredton-vic-3350-2018198430,595000,is-sold,Sold by private treaty 03 Nov 2022,20221103,3 Belfast Road,ALFREDTON,VIC,3350,-37.5624275,143.801208,3,2,2,House,House,False,0,m2,False
2017836026,listing,/4-tennis-street-lake-wendouree-vic-3350-2017836026,680000,is-sold,Sold by private treaty 30 Oct 2022,20221030,4 Tennis Street,LAKE WENDOUREE,VIC,3350,-37.5583534,143.836182,2,1,,House,House,False,357,m2,False
2017888462,listing,/13-stockade-street-ballarat-east-vic-3350-2017888462,575000,is-sold,Sold by private treaty 27 Oct 2022,20221027,13 Stockade Street,BALLARAT EAST,VIC,3350,-37.5695648,143.895432,4,2,2,House,House,False,568,m2,False
2017950706,listing,/42-creekstone-drive-alfredton-vic-3350-2017950706,525000,is-sold,Sold by private treaty 27 Oct 2022,20221027,42 Creekstone Drive,ALFREDTON,VIC,3350,-37.5574036,143.789871,4,2,2,House,House,False,0,m2,False
2017956513,listing,/18-christine-avenue-alfredton-vic-3350-2017956513,495000,is-sold,Sold by private treaty 28 Oct 2022,20221028,18 Christine Avenue,ALFREDTON,VIC,3350,-37.5506744,143.801834,3,1,2,House,House,False,789,m2,False
2017982102,listing,/2-rundell-place-alfredton-vic-3350-2017982102,660000,is-sold,Sold by private treaty 28 Oct 2022,20221028,2 Rundell Place,ALFREDTON,VIC,3350,-37.55615,143.785873,4,2,2,House,House,False,595,m2,False
2018003562,listing,/17-service-street-lake-wendouree-vic-3350-2018003562,1950000,is-sold,Sold by private treaty 28 Oct 2022,20221028,17 Service Street,LAKE WENDOUREE,VIC,3350,-37.55705,143.832352,4,2,4,House,House,False,423,m2,False
2018015018,listing,/10-rundell-place-alfredton-vic-3350-2018015018,650000,is-sold,Sold by private treaty 28 Oct 2022,20221028,10 Rundell Place,ALFREDTON,VIC,3350,-37.5562325,143.786713,4,2,2,House,House,False,600,m2,False
2018029148,listing,/lot-264-66-cuzens-road-alfredton-vic-3350-2018029148,360000,is-sold,Sold by private treaty 28 Oct 2022,20221028,Lot 264/66 Cuzens Road,ALFREDTON,VIC,3350,-37.559906,143.790192,,,,VacantLand,Vacant land,False,751,m2,False
2018067374,listing,/70-wexford-street-alfredton-vic-3350-2018067374,640000,is-sold,Sold by private treaty 28 Oct 2022,20221028,70 Wexford Street,ALFREDTON,VIC,3350,-37.5614281,143.798721,4,2,2,House,House,False,571,m2,False
2018067400,listing,/31-galway-drive-alfredton-vic-3350-2018067400,600000,is-sold,Sold by private treaty 26 Oct 2022,20221026,31 Galway Drive,ALFREDTON,VIC,3350,-37.5660477,143.794388,4,2,2,House,House,False,447,m2,False
2018069741,listing,/604-armstrong-street-soldiers-hill-vic-3350-2018069741,425000,is-sold,Sold by private treaty 27 Oct 2022,20221027,604 Armstrong Street,SOLDIERS HILL,VIC,3350,-37.548275,143.859055,2,1,1,House,House,False,258,m2,False
2018079947,listing,/2-146-mansfield-avenue-mount-clear-vic-3350-2018079947,475000,is-sold,Sold by private treaty 28 Oct 2022,20221028,2/146 Mansfield Avenue,MOUNT CLEAR,VIC,3350,-37.60044,143.866043,3,2,2,ApartmentUnitFlat,Apartment / Unit / Flat,False,331,m2,False
