id,listingType,url,price,tagClassName,tagText,date,street,suburb,state,postcode,lat,lng,beds,baths,parking,propertyType,propertyTypeFormatted,isRural,landSize,landUnit,isRetirement
2018320046,listing,/112-loch-street-maryborough-vic-3465-2018320046,350000,is-sold,Sold by private treaty 28 Feb 2023,20230228,112 Loch Street,MARYBOROUGH,VIC,3465,-37.0577126,143.745239,3,3,3,House,House,False,750,m2,False
2018206267,listing,/110-inkerman-street-maryborough-vic-3465-2018206267,375000,is-sold,Sold by private treaty 27 Feb 2023,20230227,110 Inkerman Street,MARYBOROUGH,VIC,3465,-37.0430069,143.730362,4,4,4,House,House,False,0,m2,False
2018116916,listing,/54-golden-wattle-drive-maryborough-vic-3465-2018116916,355000,is-sold,Sold by private treaty 01 Mar 2023,20230301,54 Golden Wattle Drive,MARYBOROUGH,VIC,3465,-37.0433922,143.7474,3,3,3,House,House,False,0,m2,False
2018209617,listing,/37-pekin-road-maryborough-vic-3465-2018209617,315000,is-sold,Sold by private treaty 06 Mar 2023,20230306,37 Pekin Road,MARYBOROUGH,VIC,3465,-37.0380249,143.727524,2,1,,House,House,False,412,m2,False
2018356061,listing,/81-griffiths-street-maryborough-vic-3465-2018356061,445000,is-sold,Sold by private treaty 06 Mar 2023,20230306,81 Griffiths Street,MARYBOROUGH,VIC,3465,-37.02563,143.745926,3,1,2,House,House,False,652,m2,False
2018243020,listing,/15-hughes-street-maryborough-vic-3465-2018243020,,is-sold,Sold by private treaty 08 Mar 2023,20230308,15 Hughes Street,MARYBOROUGH,VIC,3465,-37.03325,143.733978,4,2,3,House,House,False,828,m2,False
2018195914,listing,/562-timor-road-bowenvale-vic-3465-2018195914,135000,is-sold,Sold by private treaty 07 Mar 2023,20230307,562 Timor Road,BOWENVALE,VIC,3465,-36.9868622,143.709976,,,,VacantLand,Vacant land,False,0,m2,False
2018330324,listing,/5-kennedy-street-maryborough-vic-3465-2018330324,465000,is-sold,Sold by private treaty 09 Mar 2023,20230309,5 Kennedy Street,MARYBOROUGH,VIC,3465,-37.0477448,143.749756,4,1,3,House,House,False,1321,m2,False
2018386147,listing,/1207-dunolly-timor-road-timor-vic-3465-2018386147,74000,is-sold,Sold by private treaty 10 Mar 2023,20230310,1207 Dunolly- Timor Road,TIMOR,VIC,3465,-36.97704,143.710587,,,,VacantLand,Vacant land,False,5100,m2,False
2017916438,listing,/lot-80-9-calista-drive-maryborough-vic-3465-2017916438,545000,is-sold,Sold by private treaty 02 Feb 2023,20230202,Lot 80/9 Calista Drive,MARYBOROUGH,VIC,3465,-37.0483475,143.735367,4,2,2,House,House,False,612,m2,False
2018056201,listing,/6-churchill-court-daisy-hill-vic-3465-2018056201,270000,is-sold,Sold by private treaty 15 Feb 2023,20230215,6 Churchill Court,DAISY HILL,VIC,3465,-37.1027222,143.730423,,,2,VacantLand,Vacant land,True,2.2,ha,False
2018153473,listing,/1-6-brown-street-maryborough-vic-3465-2018153473,270000,is-sold,Sold by private treaty 03 Feb 2023,20230203,1/6 Brown Street,MARYBOROUGH,VIC,3465,-37.0583,143.726273,2,1,1,ApartmentUnitFlat,Apartment / Unit / Flat,False,0,m2,False
2018181032,listing,/5-newton-street-maryborough-vic-3465-2018181032,657500,is-sold,Sold by private treaty 15 Feb 2023,20230215,5 Newton Street,MARYBOROUGH,VIC,3465,-37.0436554,143.736557,3,2,3,House,House,False,0,m2,False
2018201289,listing,/19-william-street-majorca-vic-3465-2018201289,150000,is-sold,Sold by private treaty 09 Feb 2023,20230209,19 William Street,MAJORCA,VIC,3465,-37.11222,143.8018,,,,VacantLand,Vacant land,True,2.34,ha,False
2018207061,listing,/23-fraser-street-maryborough-vic-3465-2018207061,410000,is-sold,Sold by private treaty 16 Feb 2023,20230216,23 Fraser Street,MARYBOROUGH,VIC,3465,-37.0505867,143.74762,3,1,1,House,House,False,1011,m2,False
2018217397,listing,/8-hughes-street-maryborough-vic-3465-2018217397,572000,is-sold,Sold by private treaty 02 Feb 2023,20230202,8 Hughes Street,MARYBOROUGH,VIC,3465,-37.03458,143.732376,4,2,2,House,House,False,738,m2,False
2018250286,listing,/62-golden-wattle-drive-maryborough-vic-3465-2018250286,,is-sold,Sold by private treaty 02 Mar 2023,20230302,62 Golden Wattle Drive,MARYBOROUGH,VIC,3465,-37.0434952,143.748627,3,1,2,House,House,False,1943,m2,False
2018301042,listing,/3-8-pekin-road-maryborough-vic-3465-2018301042,277500,is-sold,Sold by private treaty 03 Feb 2023,20230203,3/8 Pekin Road,MARYBOROUGH,VIC,3465,-37.0403328,143.728943,2,1,1,ApartmentUnitFlat,Apartment / Unit / Flat,False,249,m2,False
2018311687,listing,/54-dundas-road-maryborough-vic-3465-2018311687,465000,is-sold,Sold by private treaty 07 Feb 2023,20230207,54 Dundas Road,MARYBOROUGH,VIC,3465,-37.0357933,143.735291,3,1,4,House,House,False,861,m2,False
2018317524,listing,/27-palmer-road-simson-vic-3465-2018317524,350000,is-sold,Sold by private treaty 08 Feb 2023,20230208,27 Palmer Road,SIMSON,VIC,3465,-36.9934921,143.773376,2,1,4,House,House,True,2.02,ha,False
2017803608,listing,/lot-48-harrison-street-maryborough-vic-3465-2017803608,,is-sold,Sold by private treaty 10 Jan 2023,20230110,Lot/48 Harrison Street,MARYBOROUGH,VIC,3465,-37.0373955,143.738342,,,,VacantLand,Vacant land,False,604,m2,False
2017811144,listing,/48-griffiths-street-maryborough-vic-3465-2017811144,,is-sold,Sold by private treaty 23 Jan 2023,20230123,48 Griffiths Street,MARYBOROUGH,VIC,3465,-37.02544,143.743713,,,,VacantLand,Vacant land,True,6.07,ha,False
2017911258,listing,/1-18-hope-street-maryborough-vic-3465-2017911258,290000,is-sold,Sold by private treaty 09 Jan 2023,20230109,1/18 Hope Street,MARYBOROUGH,VIC,3465,-37.0413933,143.732712,2,1,1,ApartmentUnitFlat,Apartment / Unit / Flat,False,0,m2,False
2017974717,listing,/232-high-street-maryborough-vic-3465-2017974717,,is-sold,Sold by private treaty 23 Jan 2023,20230123,232 High Street,MARYBOROUGH,VIC,3465,-37.045372,143.739883,2,1,1,Rural,Rural,True,520,m2,False
2018034020,listing,/40-palmerston-street-maryborough-vic-3465-2018034020,500000,is-sold,Sold by private treaty 06 Jan 2023,20230106,40 Palmerston Street,MARYBOROUGH,VIC,3465,-37.04367,143.737534,3,1,2,House,House,False,0,m2,False
2018065276,listing,/4-lovett-court-maryborough-vic-3465-2018065276,177500,is-sold,Sold by private treaty 06 Jan 2023,20230106,4 Lovett Court,MARYBOROUGH,VIC,3465,-37.0483475,143.735367,,,,VacantLand,Vacant land,False,642,m2,False
2018094003,listing,/38-mariners-reef-road-maryborough-vic-3465-2018094003,345000,is-sold,Sold by private treaty 25 Jan 2023,20230125,38 Mariners Reef Road,MARYBOROUGH,VIC,3465,-37.0583572,143.73465,3,1,2,House,House,False,920,m2,False
2018095970,listing,/2-backway-court-maryborough-vic-3465-2018095970,400000,is-sold,Sold by private treaty 20 Dec 2022,20221220,2 Backway Court,MARYBOROUGH,VIC,3465,-37.03531,143.741943,2,1,1,House,House,False,385,m2,False
2018108394,listing,/28-123-logan-road-alma-vic-3465-2018108394,190000,is-sold,Sold by private treaty 12 Jan 2023,20230112,28/123 Logan Road,ALMA,VIC,3465,-37.0186234,143.70462,,,,VacantLand,Vacant land,True,7.69,ha,False
2018110519,listing,/113-queens-avenue-maryborough-vic-3465-2018110519,450000,is-sold,Sold by private treaty 05 Jan 2023,20230105,113 Queens Avenue,MARYBOROUGH,VIC,3465,-37.0606346,143.743591,3,1,6,House,House,False,1269,m2,False
2018140032,listing,/90-golden-wattle-drive-maryborough-vic-3465-2018140032,300000,is-sold,Sold by private treaty 03 Jan 2023,20230103,90 Golden Wattle Drive,MARYBOROUGH,VIC,3465,-37.0423126,143.7516,3,1,1,House,House,False,593,m2,False
2018155921,listing,/42-derby-road-maryborough-vic-3465-2018155921,305000,is-sold,Sold by private treaty 21 Dec 2022,20221221,42 Derby Road,MARYBOROUGH,VIC,3465,-37.0579567,143.728714,2,1,1,House,House,False,966,m2,False
2018174324,listing,/29-harkin-court-alma-vic-3465-2018174324,480000,is-sold,Sold by private treaty 31 Jan 2023,20230131,29 Harkin Court,ALMA,VIC,3465,-37.03211,143.676453,3,1,4,House,House,True,2.02,ha,False
2018197581,listing,/3-woodlands-court-maryborough-vic-3465-2018197581,400000,is-sold,Sold by private treaty 21 Dec 2022,20221221,3 Woodlands Court,MARYBOROUGH,VIC,3465,-37.0330734,143.732956,2,1,1,House,House,False,0,m2,False
2018218427,listing,/1201-landrigan-road-daisy-hill-vic-3465-2018218427,380000,is-sold,Sold by private treaty 12 Jan 2023,20230112,1201 Landrigan Road,DAISY HILL,VIC,3465,-37.1221924,143.725952,,,,VacantLand,Vacant land,False,0,m2,False
2018228482,listing,/22-gearing-street-maryborough-vic-3465-2018228482,350000,is-sold,Sold by private treaty 24 Jan 2023,20230124,22 Gearing Street,MARYBOROUGH,VIC,3465,-37.0511742,143.750748,3,1,4,House,House,False,0,m2,False
2018234028,listing,/25-rinford-street-maryborough-vic-3465-2018234028,350000,is-sold,Sold by private treaty 12 Jan 2023,20230112,25 Rinford Street,MARYBOROUGH,VIC,3465,-37.03796,143.731888,2,1,3,House,House,False,694,m2,False
2018235603,listing,/3-outen-street-maryborough-vic-3465-2018235603,620000,is-sold,Sold by private treaty 16 Jan 2023,20230116,3 Outen Street,MARYBOROUGH,VIC,3465,-37.03653,143.728668,4,2,4,House,House,False,805,m2,False
2018263086,listing,/ca1-353-alma-bowenvale-road-bowenvale-vic-3465-2018263086,185000,is-sold,Sold by private treaty 29 Dec 2022,20221229,CA1/353 Alma-Bowenvale Road,BOWENVALE,VIC,3465,-37.0124474,143.697876,,,,Rural,Rural,True,7.69,ha,False
2018285533,listing,/4896-pyrenees-highway-maryborough-vic-3465-2018285533,,is-sold,Sold by private treaty 25 Jan 2023,20230125,4896 Pyrenees Highway,MARYBOROUGH,VIC,3465,-37.05284,143.707031,3,2,10,AcreageSemiRural,Acreage / Semi-Rural,True,9866,m2,False
2017443579,listing,/1345-landrigan-road-daisy-hill-vic-3465-2017443579,550000,is-sold,Sold by private treaty 25 Nov 2022,20221125,1345 Landrigan Road,DAISY HILL,VIC,3465,-37.128418,143.7139,3,1,4,House,House,False,165921,m2,False
2017501538,listing,/539-timor-rd-bowenvale-via-road-bowenvale-vic-3465-2017501538,75000,is-sold,Sold by private treaty 10 Dec 2022,20221210,539 Timor Rd Bowenvale Via Road,BOWENVALE,VIC,3465,-36.98881,143.709808,,,,VacantLand,Vacant land,False,737,m2,False
2017891545,listing,/50-tipperary-lane-alma-vic-3465-2017891545,799000,is-sold,Sold by private treaty 25 Nov 2022,20221125,50 Tipperary Lane,ALMA,VIC,3465,-37.03366,143.6935,4,2,5,House,House,False,0,m2,False
2017981459,listing,/9-bristol-court-maryborough-vic-3465-2017981459,670000,is-sold,Sold by private treaty 12 Dec 2022,20221212,9 Bristol Court,MARYBOROUGH,VIC,3465,-37.0436935,143.728745,4,2,2,House,House,False,960,m2,False
2018007749,listing,/91-gillies-street-maryborough-vic-3465-2018007749,380000,is-sold,Sold by private treaty 05 Dec 2022,20221205,91 Gillies Street,MARYBOROUGH,VIC,3465,-37.0497856,143.74762,3,1,5,House,House,False,829,m2,False
2018035260,listing,/229-dehnerts-road-daisy-hill-vic-3465-2018035260,830000,is-sold,Sold by private treaty 30 Nov 2022,20221130,229 Dehnerts Road,DAISY HILL,VIC,3465,-37.114418,143.74527,6,4,5,House,House,False,20234,m2,False
2018067388,listing,/27-hosken-street-maryborough-vic-3465-2018067388,486000,is-sold,Sold by private treaty 09 Dec 2022,20221209,27 Hosken Street,MARYBOROUGH,VIC,3465,-37.0230942,143.747528,4,2,2,House,House,False,1278,m2,False
2018082864,listing,/27-marshall-street-maryborough-vic-3465-2018082864,310000,is-sold,Sold by private treaty 05 Dec 2022,20221205,27 Marshall Street,MARYBOROUGH,VIC,3465,-37.0577431,143.74704,3,1,3,House,House,False,688,m2,False
2018082868,listing,/1-26-hope-street-maryborough-vic-3465-2018082868,317000,is-sold,Sold by private treaty 08 Dec 2022,20221208,1/26 Hope Street,MARYBOROUGH,VIC,3465,-37.0410767,143.7332,2,1,1,ApartmentUnitFlat,Apartment / Unit / Flat,False,289,m2,False
2018108395,listing,/30-123-logan-road-alma-vic-3465-2018108395,,is-sold,Sold by private treaty 17 Dec 2022,20221217,30/123 Logan Road,ALMA,VIC,3465,-37.0186234,143.70462,,,,VacantLand,Vacant land,True,9.71,ha,False
2018108396,listing,/31-123-logan-road-alma-vic-3465-2018108396,,is-sold,Sold by private treaty 17 Dec 2022,20221217,31/123 Logan Road,ALMA,VIC,3465,-37.0186234,143.70462,,,,VacantLand,Vacant land,True,7.69,ha,False
2018133815,listing,/35-hilton-street-maryborough-vic-3465-2018133815,375000,is-sold,Sold by private treaty 15 Dec 2022,20221215,35 Hilton Street,MARYBOROUGH,VIC,3465,-37.0550423,143.732925,2,1,1,ApartmentUnitFlat,Apartment / Unit / Flat,False,0,m2,False
2018159734,listing,/5-quinn-street-maryborough-vic-3465-2018159734,500000,is-sold,Sold by private treaty 28 Nov 2022,20221128,5 Quinn Street,MARYBOROUGH,VIC,3465,-37.0239,143.7461,4,2,2,House,House,False,606,m2,False
2018163005,listing,/353-alma-bowenvale-road-bowenvale-vic-3465-2018163005,,is-sold,Sold by private treaty 30 Nov 2022,20221130,353 Alma-Bowenvale Road,BOWENVALE,VIC,3465,-36.9982338,143.702072,,,,Rural,Rural,True,37.06,ha,False
2018171911,listing,/27-kennedy-street-maryborough-vic-3465-2018171911,335000,is-sold,Sold by private treaty 10 Dec 2022,20221210,27 Kennedy Street,MARYBOROUGH,VIC,3465,-37.0450745,143.750259,3,1,5,House,House,False,0,m2,False
2018183478,listing,/2-99-clarendon-street-maryborough-vic-3465-2018183478,320000,is-sold,Sold by private treaty 28 Nov 2022,20221128,2/99 Clarendon Street,MARYBOROUGH,VIC,3465,-37.0426369,143.739151,2,1,1,ApartmentUnitFlat,Apartment / Unit / Flat,False,159,m2,False
2018188390,listing,/22-george-cook-drive-daisy-hill-vic-3465-2018188390,535000,is-sold,Sold by private treaty 18 Nov 2022,20221118,22 George Cook Drive,DAISY HILL,VIC,3465,-37.0960579,143.731277,3,1,5,House,House,False,20000,m2,False
2018190883,listing,/14-franklin-street-maryborough-vic-3465-2018190883,460000,is-sold,Sold by private treaty 15 Dec 2022,20221215,14 Franklin Street,MARYBOROUGH,VIC,3465,-37.03485,143.737778,3,2,2,House,House,False,850,m2,False
2018197771,listing,/15-19-carrick-street-maryborough-vic-3465-2018197771,505000,is-sold,Sold by private treaty 19 Dec 2022,20221219,15-19 Carrick Street,MARYBOROUGH,VIC,3465,-37.0544,143.747589,3,2,2,House,House,False,0,m2,False
2018234781,listing,/30-inkerman-street-maryborough-vic-3465-2018234781,560000,is-sold,Sold by private treaty 19 Dec 2022,20221219,30 Inkerman Street,MARYBOROUGH,VIC,3465,-37.0510559,143.738434,4,2,1,House,House,False,1019,m2,False
2017686400,listing,/212-railway-street-maryborough-vic-3465-2017686400,230000,is-sold,Sold by private treaty 02 Nov 2022,20221102,212 Railway Street,MARYBOROUGH,VIC,3465,-37.05041,143.7442,3,1,,House,House,False,0,m2,False
2017768992,listing,/14-marshall-street-maryborough-vic-3465-2017768992,490000,is-sold,Sold by private treaty 15 Nov 2022,20221115,14 Marshall Street,MARYBOROUGH,VIC,3465,-37.05858,143.745682,3,2,4,House,House,False,1640,m2,False
2017857588,listing,/247-gladstone-street-maryborough-vic-3465-2017857588,330000,is-sold,Sold by private treaty 17 Nov 2022,20221117,247 Gladstone Street,MARYBOROUGH,VIC,3465,-37.0384865,143.733078,3,1,4,House,House,False,0,m2,False
2017905253,listing,/169-balaclava-road-maryborough-vic-3465-2017905253,,is-sold,Sold by private treaty 20 Oct 2022,20221020,169 Balaclava Road,MARYBOROUGH,VIC,3465,-37.0431442,143.722549,4,2,2,House,House,False,4500,m2,False
2017962781,listing,/1-charlotte-court-maryborough-vic-3465-2017962781,,is-sold,Sold by private treaty 04 Nov 2022,20221104,1 Charlotte Court,MARYBOROUGH,VIC,3465,-37.05342,143.747223,2,1,1,House,House,False,0,m2,False
2017980499,listing,/16-golden-wattle-drive-maryborough-vic-3465-2017980499,271000,is-sold,Sold by private treaty 18 Oct 2022,20221018,16 Golden Wattle Drive,MARYBOROUGH,VIC,3465,-37.0466042,143.746475,3,1,1,House,House,False,609,m2,False
2017994867,listing,/3-41-burke-street-maryborough-vic-3465-2017994867,320000,is-sold,Sold by private treaty 20 Oct 2022,20221020,3/41 Burke Street,MARYBOROUGH,VIC,3465,-37.05282,143.734055,2,1,1,ApartmentUnitFlat,Apartment / Unit / Flat,False,0,m2,False
2018003447,listing,/140-gibbs-road-majorca-vic-3465-2018003447,738000,is-sold,Sold by private treaty 09 Nov 2022,20221109,140 Gibbs Road,MAJORCA,VIC,3465,-37.11993,143.8052,6,3,4,Rural,Rural,True,2.43,ha,False
2018011301,listing,/41-victoria-street-maryborough-vic-3465-2018011301,395000,is-sold,Sold by private treaty 21 Oct 2022,20221021,41 Victoria Street,MARYBOROUGH,VIC,3465,-37.0518036,143.7398,3,1,4,House,House,False,1011,m2,False
2018033499,listing,/76-goldsmith-street-maryborough-vic-3465-2018033499,630000,is-sold,Sold by private treaty 02 Nov 2022,20221102,76 Goldsmith Street,MARYBOROUGH,VIC,3465,-37.03957,143.737549,4,2,7,House,House,False,1240,m2,False
2018053781,listing,/31-logan-street-maryborough-vic-3465-2018053781,460000,is-sold,Sold by private treaty 18 Oct 2022,20221018,31 Logan Street,MARYBOROUGH,VIC,3465,-37.0519524,143.7445,3,1,3,House,House,False,953,m2,False
2018067332,listing,/51-goldsmith-street-maryborough-vic-3465-2018067332,305000,is-sold,Sold by private treaty 11 Nov 2022,20221111,51 Goldsmith Street,MARYBOROUGH,VIC,3465,-37.0412254,143.734009,2,1,1,House,House,False,484,m2,False
2018068338,listing,/61-taggart-drive-daisy-hill-vic-3465-2018068338,750000,is-sold,Sold by private treaty 17 Oct 2022,20221017,61 Taggart Drive,DAISY HILL,VIC,3465,-37.11,143.71376,4,2,8,House,House,True,8.09,ha,False
2018105137,listing,/120-sutton-road-flagstaff-vic-3465-2018105137,400000,is-sold,Sold by private treaty 19 Oct 2022,20221019,120 Sutton Road,FLAGSTAFF,VIC,3465,-37.049263,143.768723,3,1,4,Rural,Rural,True,1134,m2,False
2018106236,listing,/4-8-havelock-street-maryborough-vic-3465-2018106236,270000,is-sold,Sold by private treaty 14 Nov 2022,20221114,4/8 Havelock Street,MARYBOROUGH,VIC,3465,-37.0455,143.735825,2,1,1,ApartmentUnitFlat,Apartment / Unit / Flat,False,151,m2,False
2018107332,listing,/29-123-logan-road-alma-vic-3465-2018107332,,is-sold,Sold by private treaty 17 Nov 2022,20221117,29/123 Logan Road,ALMA,VIC,3465,-37.0186234,143.70462,,,,VacantLand,Vacant land,True,8.09,ha,False
2018110450,listing,/11-cameron-street-maryborough-vic-3465-2018110450,330000,is-sold,Sold by private treaty 20 Oct 2022,20221020,11 Cameron Street,MARYBOROUGH,VIC,3465,-37.0448647,143.752823,2,1,4,House,House,False,0,m2,False
2018133884,listing,/4-6-high-street-maryborough-vic-3465-2018133884,455000,is-sold,Sold by private treaty 17 Nov 2022,20221117,4/6 High Street,MARYBOROUGH,VIC,3465,-37.05158,143.730774,3,2,2,Townhouse,Townhouse,False,0,m2,False
2018140025,listing,/2-arthur-avenue-maryborough-vic-3465-2018140025,360000,is-sold,Sold by private treaty 10 Nov 2022,20221110,2 Arthur Avenue,MARYBOROUGH,VIC,3465,-37.0388565,143.729813,3,1,,House,House,False,600,m2,False
2018158517,listing,/44-menzies-drive-daisy-hill-vic-3465-2018158517,471000,is-sold,Sold by private treaty 08 Nov 2022,20221108,44 Menzies Drive,DAISY HILL,VIC,3465,-37.1069145,143.741943,2,1,4,AcreageSemiRural,Acreage / Semi-Rural,True,2.02,ha,False
2017724830,listing,/lot-81-calista-drive-maryborough-vic-3465-2017724830,135000,is-sold,Sold by private treaty 06 Sep 2022,20220906,Lot/81 Calista Drive,MARYBOROUGH,VIC,3465,-37.0483475,143.735367,,,,VacantLand,Vacant land,False,0,m2,False
2017744273,listing,/2-rogers-street-maryborough-vic-3465-2017744273,350000,is-sold,Sold by private treaty 12 Oct 2022,20221012,2 Rogers Street,MARYBOROUGH,VIC,3465,-37.0567436,143.740326,5,2,1,House,House,False,0,m2,False
2017789359,listing,/12-hosken-street-maryborough-vic-3465-2017789359,605000,is-sold,Sold by private treaty 05 Sep 2022,20220905,12 Hosken Street,MARYBOROUGH,VIC,3465,-37.0232468,143.7488,3,2,3,House,House,False,652,m2,False
2017809508,listing,/190-railway-street-maryborough-vic-3465-2017809508,325000,is-sold,Sold by private treaty 10 Oct 2022,20221010,190 Railway Street,MARYBOROUGH,VIC,3465,-37.0525322,143.743088,3,1,2,House,House,False,1219,m2,False
2017831591,listing,/34-majorca-road-maryborough-vic-3465-2017831591,432500,is-sold,Sold by private treaty 09 Sep 2022,20220909,34 Majorca Road,MARYBOROUGH,VIC,3465,-37.0572,143.742874,4,1,4,House,House,False,0,m2,False
2017874864,listing,/24-kars-street-maryborough-vic-3465-2017874864,600000,is-sold,Sold by private treaty 15 Sep 2022,20220915,24 Kars Street,MARYBOROUGH,VIC,3465,-37.05128,143.735352,3,2,3,House,House,False,0,m2,False
2017892383,listing,/94-nolan-street-maryborough-vic-3465-2017892383,320000,is-sold,Sold by private treaty 09 Sep 2022,20220909,94 Nolan Street,MARYBOROUGH,VIC,3465,-37.0475769,143.738388,3,1,,House,House,False,269,m2,False
2017919387,listing,/1-8-mcpherson-avenue-maryborough-vic-3465-2017919387,265000,is-sold,Sold by private treaty 04 Oct 2022,20221004,1/8 McPherson Avenue,MARYBOROUGH,VIC,3465,-37.05011,143.751923,2,1,1,ApartmentUnitFlat,Apartment / Unit / Flat,False,0,m2,False
2017950605,listing,/11-newton-street-maryborough-vic-3465-2017950605,465000,is-sold,Sold by private treaty 01 Sep 2022,20220901,11 Newton Street,MARYBOROUGH,VIC,3465,-37.0430679,143.736,3,2,1,House,House,False,0,m2,False
2017974443,listing,/43-goldsmith-street-maryborough-vic-3465-2017974443,340000,is-sold,Sold by private treaty 29 Sep 2022,20220929,43 Goldsmith. Street,MARYBOROUGH,VIC,3465,-37.0417252,143.733246,3,1,1,House,House,False,1006,m2,False
2017980269,listing,/58-goldsmith-street-maryborough-vic-3465-2017980269,400000,is-sold,Sold by private treaty 25 Aug 2022,20220825,58 Goldsmith Street,MARYBOROUGH,VIC,3465,-37.04093,143.73584,3,1,1,House,House,False,1527,m2,False
2018007323,listing,/18-victoria-street-maryborough-vic-3465-2018007323,340000,is-sold,Sold by private treaty 14 Oct 2022,20221014,18 Victoria Street,MARYBOROUGH,VIC,3465,-37.0534554,143.738251,3,1,2,House,House,False,0,m2,False
2018011828,listing,/136-gillies-street-maryborough-vic-3465-2018011828,337500,is-sold,Sold by private treaty 30 Sep 2022,20220930,136 Gillies Street,MARYBOROUGH,VIC,3465,-37.0458031,143.749268,3,1,2,House,House,False,0,m2,False
2018021077,listing,/20-golden-wattle-drive-maryborough-vic-3465-2018021077,275000,is-sold,Sold by private treaty 26 Sep 2022,20220926,20 Golden Wattle Drive,MARYBOROUGH,VIC,3465,-37.04633,143.7465,3,1,,House,House,False,1400,m2,False
2018037455,listing,/6-bristol-court-maryborough-vic-3465-2018037455,580000,is-sold,Sold by private treaty 21 Sep 2022,20220921,6 Bristol Court,MARYBOROUGH,VIC,3465,-37.04375,143.729477,3,2,3,House,House,False,0,m2,False
2018048932,listing,/3-casey-street-maryborough-vic-3465-2018048932,335000,is-sold,Sold by private treaty 06 Oct 2022,20221006,3 Casey Street,MARYBOROUGH,VIC,3465,-37.0476723,143.7466,2,1,3,House,House,False,0,m2,False
2018060762,listing,/90-inkerman-street-maryborough-vic-3465-2018060762,386000,is-sold,Sold by private treaty 07 Oct 2022,20221007,90 Inkerman Street,MARYBOROUGH,VIC,3465,-37.044857,143.732239,3,1,,House,House,False,0,m2,False
2018075014,listing,/1-albert-street-maryborough-vic-3465-2018075014,498750,is-sold,Sold by private treaty 12 Oct 2022,20221012,1 Albert Street,MARYBOROUGH,VIC,3465,-37.054966,143.735489,3,2,2,House,House,False,0,m2,False
2018076170,listing,/75-inkerman-street-maryborough-vic-3465-2018076170,407500,is-sold,Sold by private treaty 27 Sep 2022,20220927,75 Inkerman Street,MARYBOROUGH,VIC,3465,-37.0461235,143.732788,2,1,1,House,House,False,0,m2,False
2018155353,listing,/3-103-inkerman-street-maryborough-vic-3465-2018155353,305000,is-sold,Sold by private treaty 15 Sep 2022,20220915,3/103 Inkerman Street,MARYBOROUGH,VIC,3465,-37.0438728,143.730042,2,1,1,ApartmentUnitFlat,Apartment / Unit / Flat,False,0,m2,False
2017564619,listing,/74-dead-horse-lane-bowenvale-vic-3465-2017564619,160000,is-sold,Sold by private treaty 05 Aug 2022,20220805,74 Dead horse Lane,BOWENVALE,VIC,3465,-36.9881821,143.6712,,,,Rural,Rural,True,7,ha,False
2017601991,listing,/ca-5-1137-landrigan-road-daisy-hill-via-maryborough-vic-3465-2017601991,160000,is-sold,Sold by private treaty 28 Jul 2022,20220728,CA 5/1137 Landrigan Road Daisy Hill Via,MARYBOROUGH,VIC,3465,-37.0483475,143.735367,,,,VacantLand,Vacant land,True,8.5,ha,False
2017687218,listing,/25-andersons-rd-bowenvale-via-maryborough-vic-3465-2017687218,180000,is-sold,Sold by private treaty 10 Aug 2022,20220810,25 Andersons Rd Bowenvale Via,MARYBOROUGH,VIC,3465,-37.0053139,143.714066,,,,VacantLand,Vacant land,False,0,m2,False
2017690727,listing,/40-sutton-road-maryborough-vic-3465-2017690727,407500,is-sold,Sold by private treaty 29 Jul 2022,20220729,"40 Sutton Road,",MARYBOROUGH,VIC,3465,-37.0487671,143.749176,3,2,,House,House,False,771,m2,False
2017702922,listing,/9-tobruk-avenue-maryborough-vic-3465-2017702922,305000,is-sold,Sold by private treaty 05 Aug 2022,20220805,"9 Tobruk Avenue,",MARYBOROUGH,VIC,3465,-37.0505447,143.751877,3,1,2,House,House,False,604,m2,False
2017723396,listing,/92-burns-street-maryborough-vic-3465-2017723396,371000,is-sold,Sold by private treaty 24 Aug 2022,20220824,92 Burns Street,MARYBOROUGH,VIC,3465,-37.04644,143.744919,5,1,4,House,House,False,724,m2,False
2017755232,listing,/3-rogers-street-maryborough-vic-3465-2017755232,330000,is-sold,Sold by private treaty 11 Aug 2022,20220811,3 Rogers Street,MARYBOROUGH,VIC,3465,-37.05653,143.740753,3,1,3,House,House,False,826,m2,False
2017801779,listing,/3-116-gillies-street-maryborough-vic-3465-2017801779,375000,is-sold,Sold by private treaty 10 Aug 2022,20220810,3/116 Gillies Street,MARYBOROUGH,VIC,3465,-37.0474663,143.749054,3,1,2,Townhouse,Townhouse,False,0,m2,False
2017845099,listing,/45-burke-street-maryborough-vic-3465-2017845099,300000,is-sold,Sold by private treaty 25 Aug 2022,20220825,45 Burke Street,MARYBOROUGH,VIC,3465,-37.05257,143.73439,3,1,3,House,House,False,0,m2,False
2017853126,listing,/184-possum-gully-road-adelaide-lead-vic-3465-2017853126,552500,is-sold,Sold by private treaty 29 Jul 2022,20220729,184 Possum Gully Road,ADELAIDE LEAD,VIC,3465,-37.07024,143.676544,4,1,4,AcreageSemiRural,Acreage / Semi-Rural,True,2.47,ha,False
2017858432,listing,/116-inkerman-street-maryborough-vic-3465-2017858432,260000,is-sold,Sold by private treaty 29 Jul 2022,20220729,116 Inkerman Street,MARYBOROUGH,VIC,3465,-37.0424232,143.729645,3,1,,House,House,False,600,m2,False
2017872671,listing,/lot-5-dairy-crescent-maryborough-vic-3465-2017872671,127000,is-sold,Sold by private treaty 01 Aug 2022,20220801,Lot/5 Dairy Crescent,MARYBOROUGH,VIC,3465,-37.0483475,143.735367,,,,VacantLand,Vacant land,False,416,m2,False
2017872790,listing,/lot-49-harrison-street-maryborough-vic-3465-2017872790,153000,is-sold,Sold by private treaty 24 Aug 2022,20220824,lot/49 Harrison Street,MARYBOROUGH,VIC,3465,-37.0373955,143.738342,,,,VacantLand,Vacant land,False,531,m2,False
2017878503,listing,/82-golden-wattle-drive-maryborough-vic-3465-2017878503,252000,is-sold,Sold by private treaty 05 Aug 2022,20220805,82 Golden Wattle Drive,MARYBOROUGH,VIC,3465,-37.0422325,143.750656,,,,VacantLand,Vacant land,False,2080,m2,False
2017890415,listing,/176-dehnerts-road-daisy-hill-vic-3465-2017890415,449000,is-sold,Sold by private treaty 28 Jul 2022,20220728,176 Dehnerts Road,DAISY HILL,VIC,3465,-37.110836,143.741257,3,1,3,House,House,True,2.02,ha,False
2017920215,listing,/195-mosquito-road-maryborough-vic-3465-2017920215,610000,is-sold,Sold by private treaty 12 Aug 2022,20220812,195 Mosquito Road,MARYBOROUGH,VIC,3465,-37.0732727,143.765717,4,2,2,House,House,False,60702,m2,False
2017927090,listing,/15-hope-street-maryborough-vic-3465-2017927090,350000,is-sold,Sold by private treaty 06 Aug 2022,20220806,15 Hope Street,MARYBOROUGH,VIC,3465,-37.0418167,143.731339,3,1,4,Rural,Rural,True,573,m2,False
2017945292,listing,/ca22c-22d-pyrenees-highway-bung-bong-vic-3465-2017945292,,is-sold,Sold by private treaty 02 Aug 2022,20220802,"CA22C,22D, Pyrenees Highway",BUNG BONG,VIC,3465,-37.07799,143.5855,,,,Rural,Rural,True,71.22,ha,False
2017960751,listing,/65-palmerston-street-maryborough-vic-3465-2017960751,320000,is-sold,Sold by private treaty 16 Aug 2022,20220816,"65 Palmerston Street,",MARYBOROUGH,VIC,3465,-37.0414543,143.7388,2,1,1,House,House,False,1268,m2,False
2017981557,listing,/317-gladstone-street-maryborough-vic-3465-2017981557,576000,is-sold,Sold by private treaty 23 Aug 2022,20220823,317 Gladstone Street,MARYBOROUGH,VIC,3465,-37.03359,143.7425,3,2,2,House,House,False,801,m2,False
2017502599,listing,/46-whirrakee-drive-maryborough-vic-3465-2017502599,722975,is-sold,Sold by private treaty 12 Jul 2022,20220712,46 Whirrakee Drive,MARYBOROUGH,VIC,3465,-37.0226746,143.74559,4,2,2,House,House,False,1000,m2,False
2017633553,listing,/87-dundas-road-maryborough-vic-3465-2017633553,575000,is-sold,Sold by private treaty 06 Jul 2022,20220706,87 Dundas Road,MARYBOROUGH,VIC,3465,-37.033905,143.73262,4,2,5,House,House,False,1046,m2,False
2017703409,listing,/2-62-gillies-street-maryborough-vic-3465-2017703409,,is-sold,Sold by private treaty 15 Jul 2022,20220715,2/62 Gillies Street,MARYBOROUGH,VIC,3465,-37.05317,143.747,2,1,1,Townhouse,Townhouse,False,0,m2,False
2017758721,listing,/214-park-road-maryborough-vic-3465-2017758721,230000,is-sold,Sold by private treaty 08 Jul 2022,20220708,"214 Park Road,",MARYBOROUGH,VIC,3465,-37.0251236,143.7497,2,1,1,House,House,False,821,m2,False
2017800117,listing,/93-griffiths-street-maryborough-vic-3465-2017800117,465000,is-sold,Sold by private treaty 18 Jul 2022,20220718,93 Griffiths Street,MARYBOROUGH,VIC,3465,-37.0259972,143.74707,3,1,2,House,House,False,719,m2,False
2017825849,listing,/54-trickeys-road-moonlight-flat-vic-3465-2017825849,240000,is-sold,Sold by private treaty 21 Jul 2022,20220721,54 Trickeys Road,MOONLIGHT FLAT,VIC,3465,-37.051178,143.684448,,,,VacantLand,Vacant land,False,20000,m2,False
2017826616,listing,/70-quarry-road-bowenvale-vic-3465-2017826616,372000,is-sold,Sold by private treaty 11 Jul 2022,20220711,70 Quarry Road,BOWENVALE,VIC,3465,-36.9905357,143.715714,3,1,6,Rural,Rural,True,4629,m2,False
2017837094,listing,/26-logan-street-maryborough-vic-3465-2017837094,365000,is-sold,Sold by private treaty 15 Jul 2022,20220715,26 Logan Street,MARYBOROUGH,VIC,3465,-37.0536232,143.7438,2,1,1,House,House,False,465,m2,False
2017838920,listing,/105-107-gertrude-street-maryborough-vic-3465-2017838920,435000,is-sold,Sold by private treaty 12 Jul 2022,20220712,105-107 Gertrude Street,MARYBOROUGH,VIC,3465,-37.0351944,143.72963,3,1,3,House,House,False,957,m2,False
2017849024,listing,/295-rodborough-road-majorca-vic-3465-2017849024,290000,is-sold,Sold by private treaty 26 Jul 2022,20220726,295 Rodborough Road,MAJORCA,VIC,3465,-37.09789,143.827667,2,1,,House,House,True,2.02,ha,False
2017856165,listing,/3-112-114-park-road-maryborough-vic-3465-2017856165,317500,is-sold,Sold by private treaty 12 Jul 2022,20220712,3/112-114 Park Road,MARYBOROUGH,VIC,3465,-37.0342331,143.744888,2,1,2,Rural,Rural,True,0,m2,False
2017857098,listing,/52-derby-road-maryborough-vic-3465-2017857098,350000,is-sold,Sold by private treaty 04 Jul 2022,20220704,52 Derby Road,MARYBOROUGH,VIC,3465,-37.0588951,143.728622,3,1,4,House,House,False,930,m2,False
2017861029,listing,/40-argyle-road-maryborough-vic-3465-2017861029,395000,is-sold,Sold by private treaty 15 Jul 2022,20220715,40 Argyle Road,MARYBOROUGH,VIC,3465,-37.0519524,143.746719,3,1,1,House,House,False,1200,m2,False
2017861278,listing,/10-forest-view-drive-maryborough-vic-3465-2017861278,420000,is-sold,Sold by private treaty 18 Jul 2022,20220718,10 Forest View Drive,MARYBOROUGH,VIC,3465,-37.02406,143.744843,3,2,2,House,House,False,423,m2,False
2017871907,listing,/5-whittaker-street-maryborough-vic-3465-2017871907,370000,is-sold,Sold by private treaty 11 Jul 2022,20220711,5 Whittaker Street,MARYBOROUGH,VIC,3465,-37.0518074,143.749527,3,1,2,House,House,False,668,m2,False
2017874996,listing,/99-gillies-street-maryborough-vic-3465-2017874996,335000,is-sold,Sold by private treaty 15 Jul 2022,20220715,99 Gillies Street,MARYBOROUGH,VIC,3465,-37.04825,143.7482,3,1,2,House,House,False,723,m2,False
2017891678,listing,/30-alma-street-maryborough-vic-3465-2017891678,345000,is-sold,Sold by private treaty 15 Jul 2022,20220715,30 Alma Street,MARYBOROUGH,VIC,3465,-37.0509758,143.733078,3,1,1,House,House,False,400,m2,False
2017919308,listing,/51-clarke-street-maryborough-vic-3465-2017919308,335000,is-sold,Sold by private treaty 22 Jul 2022,20220722,51 Clarke Street,MARYBOROUGH,VIC,3465,-37.0525856,143.728333,3,1,4,House,House,False,674,m2,False
2017933867,listing,/9-hibbert-street-maryborough-vic-3465-2017933867,402500,is-sold,Sold by private treaty 26 Jul 2022,20220726,9 Hibbert Street,MARYBOROUGH,VIC,3465,-37.04076,143.727112,2,1,4,House,House,False,870,m2,False
2017949977,listing,/8-barr-street-maryborough-vic-3465-2017949977,320000,is-sold,Sold by private treaty 26 Jul 2022,20220726,8 Barr Street,MARYBOROUGH,VIC,3465,-37.05136,143.74939,3,1,1,House,House,False,669,m2,False
2017569560,listing,/12-carrick-street-maryborough-vic-3465-2017569560,280000,is-sold,Sold by private treaty 16 Jun 2022,20220616,12 Carrick Street,MARYBOROUGH,VIC,3465,-37.05377,143.744522,3,1,1,House,House,False,0,m2,False
2017669245,listing,/27-barr-street-maryborough-vic-3465-2017669245,319000,is-sold,Sold by private treaty 29 Jun 2022,20220629,27 Barr Street,MARYBOROUGH,VIC,3465,-37.05137,143.751587,3,1,1,House,House,False,0,m2,False
2017670414,listing,/23-burke-street-maryborough-vic-3465-2017670414,550000,is-sold,Sold by private treaty 21 Jun 2022,20220621,23 Burke Street,MARYBOROUGH,VIC,3465,-37.0540924,143.731979,4,3,2,House,House,False,1012,m2,False
2017686664,listing,/48-churchill-court-daisy-hill-maryborough-vic-3465-2017686664,635000,is-sold,Sold by private treaty 02 Jun 2022,20220602,48 Churchill Court Daisy Hill,MARYBOROUGH,VIC,3465,-37.0995941,143.732147,3,1,4,House,House,True,2.02,ha,False
2017717323,listing,/124-railway-street-maryborough-vic-3465-2017717323,380000,is-sold,Sold by private treaty 02 Jun 2022,20220602,124 Railway Street,MARYBOROUGH,VIC,3465,-37.0585632,143.73793,4,2,3,House,House,False,1038,m2,False
2017722153,listing,/10-elgin-road-maryborough-vic-3465-2017722153,420000,is-sold,Sold by private treaty 04 Jun 2022,20220604,10 Elgin Road,MARYBOROUGH,VIC,3465,-37.0514374,143.729156,3,1,3,House,House,False,973,m2,False
2017743727,listing,/16-clarke-street-maryborough-vic-3465-2017743727,250000,is-sold,Sold by private treaty 30 May 2022,20220530,16 Clarke Street,MARYBOROUGH,VIC,3465,-37.0553665,143.731552,2,1,,House,House,False,370,m2,False
2017782234,listing,/1-marshall-street-maryborough-vic-3465-2017782234,382000,is-sold,Sold by private treaty 17 Jun 2022,20220617,1 Marshall Street,MARYBOROUGH,VIC,3465,-37.05844,143.744522,3,1,3,House,House,False,689,m2,False
2017800336,listing,/37-burns-street-maryborough-vic-3465-2017800336,825000,is-sold,Sold by private treaty 20 Jun 2022,20220620,37 Burns Street,MARYBOROUGH,VIC,3465,-37.050724,143.738892,4,3,6,House,House,False,0,m2,False
2017801579,listing,/10-henry-street-maryborough-vic-3465-2017801579,430000,is-sold,Sold by private treaty 31 May 2022,20220531,10 Henry Street,MARYBOROUGH,VIC,3465,-37.0408859,143.727356,3,1,4,House,House,False,1011,m2,False
2017803272,listing,/25-pidgeon-gully-road-maryborough-vic-3465-2017803272,350000,is-sold,Sold by private treaty 30 May 2022,20220530,25 Pidgeon Gully Road,MARYBOROUGH,VIC,3465,-37.0122681,143.7665,,,,Rural,Rural,True,4.45,ha,False
2017810505,listing,/280-gladstone-street-maryborough-vic-3465-2017810505,545000,is-sold,Sold by private treaty 07 Jun 2022,20220607,280 Gladstone Street,MARYBOROUGH,VIC,3465,-37.03554,143.738144,4,2,4,House,House,False,1124,m2,False
2017814306,listing,/6-hosken-street-maryborough-vic-3465-2017814306,512000,is-sold,Sold by private treaty 19 Jun 2022,20220619,6 Hosken Street,MARYBOROUGH,VIC,3465,-37.0237,143.748489,4,2,2,House,House,False,595,m2,False
2017815459,listing,/21-forest-view-drive-maryborough-vic-3465-2017815459,880000,is-sold,Sold by private treaty 22 Jun 2022,20220622,21 Forest View Drive,MARYBOROUGH,VIC,3465,-37.02349,143.743744,4,2,2,House,House,False,1395,m2,False
2017831998,listing,/20-burke-street-maryborough-vic-3465-2017831998,382000,is-sold,Sold by private treaty 11 Jun 2022,20220611,20 Burke Street,MARYBOROUGH,VIC,3465,-37.05469,143.732025,3,1,1,House,House,False,1019,m2,False
2017833927,listing,/crown-allot-6-section-g-waterloo-flat-road-maryborough-vic-3465-2017833927,149000,is-sold,Sold by private treaty 15 Jun 2022,20220615,Crown Allot 6 Section G Waterloo Flat Road,MARYBOROUGH,VIC,3465,-37.0483475,143.735367,,,,VacantLand,Vacant land,False,0,m2,False
2017857903,listing,/1-9-ironbark-drive-maryborough-vic-3465-2017857903,280000,is-sold,Sold by private treaty 29 Jun 2022,20220629,1/9 Ironbark Drive,MARYBOROUGH,VIC,3465,-37.05401,143.726334,2,1,1,House,House,False,0,m2,False
2017868559,listing,/ca-30c-44-sims-lane-homebush-vic-3465-2017868559,,is-sold,Sold by private treaty 24 Jun 2022,20220624,"CA 30C, 44 Sims Lane",HOMEBUSH,VIC,3465,-37.0670242,143.535,,,,Rural,Rural,True,3.04,ha,False
2017874405,listing,/58-gillies-street-maryborough-vic-3465-2017874405,440000,is-sold,Sold by private treaty 24 Jun 2022,20220624,58 Gillies Street,MARYBOROUGH,VIC,3465,-37.05396,143.745575,3,1,2,House,House,False,1200,m2,False
2017887737,listing,/lot-4-dairy-crescent-maryborough-vic-3465-2017887737,158000,is-sold,Sold by private treaty 30 Jun 2022,20220630,Lot/4 Dairy Crescent,MARYBOROUGH,VIC,3465,-37.0483475,143.735367,,,,VacantLand,Vacant land,False,576,m2,False
2017462298,listing,/2781-maryborough-st-arnaud-road-natte-yallock-vic-3465-2017462298,330000,is-sold,Sold by private treaty 12 May 2022,20220512,2781 Maryborough-St Arnaud Road,NATTE YALLOCK,VIC,3465,-36.94157,143.468964,4,1,2,House,House,False,4075,m2,False
2017519940,listing,/26-sutton-road-maryborough-vic-3465-2017519940,391000,is-sold,Sold by private treaty 10 May 2022,20220510,26 Sutton Road,MARYBOROUGH,VIC,3465,-37.049,143.747375,4,1,2,House,House,False,0,m2,False
2017558038,listing,/7-joseph-court-maryborough-vic-3465-2017558038,620000,is-sold,Sold by private treaty 09 May 2022,20220509,7 Joseph Court,MARYBOROUGH,VIC,3465,-37.0371,143.726715,4,2,4,House,House,False,899,m2,False
2017561708,listing,/32-newton-street-maryborough-vic-3465-2017561708,403000,is-sold,Sold by private treaty 12 May 2022,20220512,32 Newton Street,MARYBOROUGH,VIC,3465,-37.0408134,143.73439,3,1,2,House,House,False,800,m2,False
2017601992,listing,/92-nolan-street-maryborough-vic-3465-2017601992,250000,is-sold,Sold by private treaty 25 May 2022,20220525,"92 Nolan Street,",MARYBOROUGH,VIC,3465,-37.0476151,143.738434,1,1,,House,House,False,0,m2,False
2017619656,listing,/26-tullaroop-road-maryborough-vic-3465-2017619656,275000,is-sold,Sold by private treaty 06 May 2022,20220506,26. Tullaroop Road,MARYBOROUGH,VIC,3465,-37.03396,143.748932,3,1,1,House,House,False,1012,m2,False
2017685773,listing,/55-holmes-road-majorca-vic-3465-2017685773,253000,is-sold,Sold by private treaty 10 May 2022,20220510,55 Holmes Road,MAJORCA,VIC,3465,-37.1307449,143.796509,,,,VacantLand,Vacant land,True,8.08,ha,False
2017701499,listing,/9-nolan-street-maryborough-vic-3465-2017701499,350000,is-sold,Sold by private treaty 25 May 2022,20220525,9 Nolan Street,MARYBOROUGH,VIC,3465,-37.0520859,143.7403,3,1,2,House,House,False,0,m2,False
2017722157,listing,/47-kars-street-maryborough-vic-3465-2017722157,310000,is-sold,Sold by private treaty 11 May 2022,20220511,47 Kars Street,MARYBOROUGH,VIC,3465,-37.0502357,143.733536,3,1,1,House,House,False,0,m2,False
2017723228,listing,/2-herring-street-maryborough-vic-3465-2017723228,618000,is-sold,Sold by private treaty 11 May 2022,20220511,2 Herring Street,MARYBOROUGH,VIC,3465,-37.0483475,143.735367,4,2,5,House,House,False,0,m2,False
2017736396,listing,/44-burke-street-maryborough-vic-3465-2017736396,429999,is-sold,Sold by private treaty 17 May 2022,20220517,44 Burke Street,MARYBOROUGH,VIC,3465,-37.0530777,143.73436,3,1,3,House,House,False,706,m2,False
2017736400,listing,/41-victoria-street-maryborough-vic-3465-2017736400,395000,is-sold,Sold by private treaty 13 May 2022,20220513,41 Victoria Street,MARYBOROUGH,VIC,3465,-37.0518036,143.7398,3,1,4,House,House,False,1020,m2,False
2017742618,listing,/153-railway-street-maryborough-vic-3465-2017742618,310000,is-sold,Sold by private treaty 20 May 2022,20220520,153 Railway Street,MARYBOROUGH,VIC,3465,-37.0564423,143.73941,3,1,3,House,House,False,1346,m2,False
2017742661,listing,/109-brassey-street-maryborough-vic-3465-2017742661,432500,is-sold,Sold by private treaty 11 May 2022,20220511,109 Brassey Street,MARYBOROUGH,VIC,3465,-37.0375824,143.72876,3,2,3,Rural,Rural,True,1011,m2,False
2017751068,listing,/12-kennedy-street-maryborough-vic-3465-2017751068,330000,is-sold,Sold by private treaty 10 May 2022,20220510,12 Kennedy Street,MARYBOROUGH,VIC,3465,-37.04724,143.750458,3,1,2,Rural,Rural,True,1011,m2,False
2017764102,listing,/107-loch-street-maryborough-vic-3465-2017764102,348000,is-sold,Sold by private treaty 12 May 2022,20220512,107 Loch Street,MARYBOROUGH,VIC,3465,-37.0573654,143.744781,2,1,2,House,House,False,809,m2,False
2017775379,listing,/31-adelaide-lead-alma-road-moonlight-flat-maryborough-vic-3465-2017775379,875000,is-sold,Sold by private treaty 17 May 2022,20220517,"31 Adelaide Lead-Alma Road, Moonlight Flat",MARYBOROUGH,VIC,3465,-37.0459175,143.687546,4,2,6,House,House,True,2.31,ha,False
2017780635,listing,/18-maryborough-dunolly-road-maryborough-vic-3465-2017780635,350000,is-sold,Sold by private treaty 20 May 2022,20220520,18 Maryborough-Dunolly Road,MARYBOROUGH,VIC,3465,-37.02203,143.75119,3,1,1,House,House,True,1.21,ha,False
2017799941,listing,/2-75-gillies-street-maryborough-vic-3465-2017799941,350000,is-sold,Sold by private treaty 17 May 2022,20220517,2/75 Gillies Street,MARYBOROUGH,VIC,3465,-37.05187,143.74762,2,1,1,House,House,False,0,m2,False
2017803591,listing,/lot-3-dairy-crescent-maryborough-vic-3465-2017803591,150000,is-sold,Sold by private treaty 20 May 2022,20220520,Lot/3 Dairy Crescent,MARYBOROUGH,VIC,3465,-37.0483475,143.735367,,,,VacantLand,Vacant land,False,544,m2,False
2016894701,listing,/25-margaret-avenue-maryborough-vic-3465-2016894701,350000,is-sold,Sold by private treaty 12 Apr 2022,20220412,25 Margaret Avenue,MARYBOROUGH,VIC,3465,-37.05078,143.753952,,,,VacantLand,Vacant land,False,0,m2,False
2017339928,listing,/228-moonlight-road-moonlight-flat-vic-3465-2017339928,355000,is-sold,Sold by private treaty 20 Apr 2022,20220420,228 Moonlight Road,MOONLIGHT FLAT,VIC,3465,-37.0521,143.676392,,,,VacantLand,Vacant land,True,4.05,ha,False
2017423843,listing,/50-dundas-road-maryborough-vic-3465-2017423843,415000,is-sold,Sold by private treaty 13 Apr 2022,20220413,50 Dundas Road,MARYBOROUGH,VIC,3465,-37.03605,143.735428,3,1,3,House,House,False,861,m2,False
2017432205,listing,/31-franklin-street-maryborough-vic-3465-2017432205,445000,is-sold,Sold by private treaty 14 Apr 2022,20220414,31 Franklin Street,MARYBOROUGH,VIC,3465,-37.03332,143.737549,3,1,1,House,House,False,910,m2,False
2017484711,listing,/27-brougham-street-maryborough-vic-3465-2017484711,316000,is-sold,Sold by private treaty 07 Apr 2022,20220407,27 Brougham Street,MARYBOROUGH,VIC,3465,-37.05216,143.732864,2,1,1,House,House,False,0,m2,False
2017567970,listing,/4-page-street-maryborough-vic-3465-2017567970,125000,is-sold,Sold by private treaty 06 May 2022,20220506,4 Page Street,MARYBOROUGH,VIC,3465,-37.04733,143.744614,3,2,2,House,House,False,418,m2,False
2017597480,listing,/17-logan-street-maryborough-vic-3465-2017597480,310000,is-sold,Sold by private treaty 13 Apr 2022,20220413,17 Logan Street,MARYBOROUGH,VIC,3465,-37.05347,143.743378,3,1,3,House,House,False,1041,m2,False
2017598122,listing,/39-41-inkerman-street-maryborough-vic-3465-2017598122,420000,is-sold,Sold by private treaty 08 Apr 2022,20220408,39-41 Inkerman Street,MARYBOROUGH,VIC,3465,-37.05039,143.737183,4,1,2,House,House,False,1017,m2,False
2017601698,listing,/14-spring-street-maryborough-vic-3465-2017601698,337500,is-sold,Sold by private treaty 04 May 2022,20220504,14 Spring Street,MARYBOROUGH,VIC,3465,-37.0438347,143.750168,2,1,2,House,House,False,367,m2,False
2017603223,listing,/31-nolan-street-maryborough-vic-3465-2017603223,490000,is-sold,Sold by private treaty 06 Apr 2022,20220406,31 Nolan Street,MARYBOROUGH,VIC,3465,-37.0497742,143.739655,3,1,1,House,House,False,513,m2,False
2017614892,listing,/53-derby-road-maryborough-vic-3465-2017614892,385000,is-sold,Sold by private treaty 24 Apr 2022,20220424,53 Derby Road,MARYBOROUGH,VIC,3465,-37.0592232,143.729858,3,1,2,House,House,False,1023,m2,False
2017618382,listing,/2-94-burns-street-maryborough-vic-3465-2017618382,350000,is-sold,Sold by private treaty 03 May 2022,20220503,2/94 Burns Street,MARYBOROUGH,VIC,3465,-37.046196,143.744629,2,1,3,ApartmentUnitFlat,Apartment / Unit / Flat,False,0,m2,False
2017670495,listing,/19-wills-street-maryborough-vic-3465-2017670495,327000,is-sold,Sold by private treaty 06 Apr 2022,20220406,19 Wills Street,MARYBOROUGH,VIC,3465,-37.0403862,143.736588,3,1,1,House,House,False,1011,m2,False
2017687302,listing,/9-palmerston-street-maryborough-vic-3465-2017687302,470000,is-sold,Sold by private treaty 24 Apr 2022,20220424,9 Palmerston Street,MARYBOROUGH,VIC,3465,-37.04675,143.731918,3,1,2,House,House,False,901,m2,False
2017701665,listing,/24-goldsmith-street-maryborough-vic-3465-2017701665,372000,is-sold,Sold by private treaty 19 Apr 2022,20220419,24 Goldsmith Street,MARYBOROUGH,VIC,3465,-37.0432167,143.731842,3,1,1,House,House,False,0,m2,False
2017701707,listing,/65-park-road-maryborough-vic-3465-2017701707,390000,is-sold,Sold by private treaty 28 Apr 2022,20220428,65 Park Road,MARYBOROUGH,VIC,3465,-37.0376625,143.741486,4,2,4,House,House,False,0,m2,False
2017722134,listing,/8-gillies-street-maryborough-vic-3465-2017722134,480000,is-sold,Sold by private treaty 20 Apr 2022,20220420,8 Gillies Street,MARYBOROUGH,VIC,3465,-37.0575523,143.73967,3,1,2,House,House,False,724,m2,False
2017723230,listing,/21-grace-street-maryborough-vic-3465-2017723230,85000,is-sold,Sold by private treaty 15 Apr 2022,20220415,21 Grace Street,MARYBOROUGH,VIC,3465,-37.0463562,143.745316,,,,VacantLand,Vacant land,False,0,m2,False
2017724776,listing,/lot-68-barabara-court-maryborough-vic-3465-2017724776,192500,is-sold,Sold by private treaty 25 Apr 2022,20220425,Lot/68 Barabara Court,MARYBOROUGH,VIC,3465,-37.0483475,143.735367,,,,VacantLand,Vacant land,False,0,m2,False
2017749479,listing,/22-hilton-street-maryborough-vic-3465-2017749479,285000,is-sold,Sold by private treaty 28 Apr 2022,20220428,22 Hilton Street,MARYBOROUGH,VIC,3465,-37.0544167,143.733414,1,1,2,House,House,False,900,m2,False
2017352625,listing,/84-park-road-maryborough-vic-3465-2017352625,327000,is-sold,Sold by private treaty 09 Mar 2022,20220309,84 Park Road,MARYBOROUGH,VIC,3465,-37.0362,143.743,3,1,2,House,House,False,697,m2,False
2017423845,listing,/3-flynn-court-maryborough-vic-3465-2017423845,329000,is-sold,Sold by private treaty 28 Mar 2022,20220328,3 Flynn Court,MARYBOROUGH,VIC,3465,-37.05371,143.746124,2,1,1,Townhouse,Townhouse,False,166,m2,False
2017473890,listing,/17-higham-street-maryborough-vic-3465-2017473890,275000,is-sold,Sold by private treaty 04 Apr 2022,20220404,"17, Higham Street",MARYBOROUGH,VIC,3465,-37.05243,143.7458,3,1,1,House,House,False,668,m2,False
2017521638,listing,/4-moondarra-court-maryborough-vic-3465-2017521638,460000,is-sold,Sold by private treaty 04 Mar 2022,20220304,4 Moondarra Court,MARYBOROUGH,VIC,3465,-37.0337219,143.731888,3,1,2,House,House,False,991,m2,False
2017541031,listing,/12-mason-road-craigie-vic-3465-2017541031,500000,is-sold,Sold by private treaty 25 Mar 2022,20220325,12 Mason Road,CRAIGIE,VIC,3465,-37.09555,143.785172,3,1,2,House,House,True,2.83,ha,False
2017550198,listing,/109-queens-avenue-maryborough-vic-3465-2017550198,410000,is-sold,Sold by private treaty 11 Mar 2022,20220311,109 Queens Avenue,MARYBOROUGH,VIC,3465,-37.0602074,143.743423,3,1,3,House,House,False,892,m2,False
2017551891,listing,/71-dundas-road-maryborough-vic-3465-2017551891,305100,is-sold,Sold by private treaty 28 Mar 2022,20220328,71 Dundas Road,MARYBOROUGH,VIC,3465,-37.0351143,143.733932,2,1,6,House,House,False,2035,m2,False
2017554309,listing,/377-old-avoca-road-adelaide-lead-vic-3465-2017554309,280000,is-sold,Sold by private treaty 24 Mar 2022,20220324,377 Old Avoca Road,ADELAIDE LEAD,VIC,3465,-37.0839043,143.665878,,,,VacantLand,Vacant land,False,30000,m2,False
2017567472,listing,/15-hope-street-maryborough-vic-3465-2017567472,370000,is-sold,Sold by private treaty 15 Mar 2022,20220315,15 Hope Street,MARYBOROUGH,VIC,3465,-37.0418854,143.731354,3,1,2,House,House,False,0,m2,False
2017588067,listing,/7-outen-street-maryborough-vic-3465-2017588067,345000,is-sold,Sold by private treaty 01 Mar 2022,20220301,7. Outen Street,MARYBOROUGH,VIC,3465,-37.03614,143.72847,2,1,2,House,House,False,805,m2,False
2017593942,listing,/9-clarendon-street-maryborough-vic-3465-2017593942,429000,is-sold,Sold by private treaty 02 Mar 2022,20220302,9 Clarendon Street,MARYBOROUGH,VIC,3465,-37.05044,143.730545,2,1,3,House,House,False,714,m2,False
2017617137,listing,/c42c106105106b-long-gully-road-natte-yallock-vic-3465-2017617137,,is-sold,Sold by private treaty 31 Mar 2022,20220331,C42C106105106B Long Gully Road,NATTE YALLOCK,VIC,3465,-36.9426537,143.469162,,,,Farm,Farm,True,204.37,ha,False
2017618185,listing,/8-victoria-street-maryborough-vic-3465-2017618185,320000,is-sold,Sold by private treaty 24 Mar 2022,20220324,8 Victoria Street,MARYBOROUGH,VIC,3465,-37.05432,143.736771,2,1,2,House,House,False,971,m2,False
2017620055,listing,/28-kars-street-maryborough-vic-3465-2017620055,403500,is-sold,Sold by private treaty 29 Mar 2022,20220329,28 Kars Street,MARYBOROUGH,VIC,3465,-37.0508156,143.734619,3,1,1,House,House,False,0,m2,False
2017648874,listing,/2-worrall-court-maryborough-vic-3465-2017648874,135000,is-sold,Sold by private treaty 27 Mar 2022,20220327,2 Worrall Court,MARYBOROUGH,VIC,3465,-37.04661,143.736526,,,,VacantLand,Vacant land,False,552,m2,False
2017655207,listing,/34-kars-street-maryborough-vic-3465-2017655207,480000,is-sold,Sold by private treaty 18 Mar 2022,20220318,34 Kars Street,MARYBOROUGH,VIC,3465,-37.0503159,143.734116,4,2,,House,House,False,623,m2,False
2017656391,listing,/12-dundas-road-maryborough-vic-3465-2017656391,340000,is-sold,Sold by private treaty 11 Mar 2022,20220311,12 Dundas Road,MARYBOROUGH,VIC,3465,-37.0394058,143.738586,3,1,1,House,House,False,0,m2,False
2017682071,listing,/49-palmerston-street-maryborough-vic-3465-2017682071,705000,is-sold,Sold by private treaty 22 Mar 2022,20220322,49 Palmerston Street,MARYBOROUGH,VIC,3465,-37.0428276,143.737534,4,1,7,House,House,False,0,m2,False
2017682761,listing,/30-forest-view-drive-maryborough-vic-3465-2017682761,468000,is-sold,Sold by private treaty 31 Mar 2022,20220331,30 Forest View Drive,MARYBOROUGH,VIC,3465,-37.0226936,143.743484,3,2,2,House,House,False,660,m2,False
2017686426,listing,/4-pascoe-avenue-maryborough-vic-3465-2017686426,320000,is-sold,Sold by private treaty 05 Apr 2022,20220405,4 Pascoe Avenue,MARYBOROUGH,VIC,3465,-37.0371132,143.743073,3,1,2,House,House,False,762,m2,False
2017335661,listing,/1-3-dodds-street-maryborough-vic-3465-2017335661,720000,is-sold,Sold by private treaty 30 Jan 2022,20220130,1-3 Dodds Street,MARYBOROUGH,VIC,3465,-37.0525742,143.726547,5,2,5,House,House,False,1532,m2,False
2017343123,listing,/78-gillies-street-maryborough-vic-3465-2017343123,300000,is-sold,Sold by private treaty 26 Feb 2022,20220226,78 Gillies Street,MARYBOROUGH,VIC,3465,-37.0511971,143.748215,3,1,1,House,House,False,0,m2,False
2017397502,listing,/12-burke-street-maryborough-vic-3465-2017397502,440000,is-sold,Sold by private treaty 14 Feb 2022,20220214,12 Burke Street,MARYBOROUGH,VIC,3465,-37.0551033,143.731277,3,1,4,House,House,False,0,m2,False
2017408781,listing,/30-32-leeway-lane-daisy-hill-vic-3465-2017408781,590000,is-sold,Sold by private treaty 11 Feb 2022,20220211,30 & 32 Leeway Lane,DAISY HILL,VIC,3465,-37.11819,143.720383,4,2,5,House,House,True,6.15,ha,False
2017415440,listing,/46-majorca-road-maryborough-vic-3465-2017415440,299000,is-sold,Sold by private treaty 17 Feb 2022,20220217,46. Majorca Road,MARYBOROUGH,VIC,3465,-37.0582352,143.743423,3,1,1,House,House,False,643,m2,False
2017436823,listing,/219-wareek-homebush-road-wareek-vic-3465-2017436823,475000,is-sold,Sold by private treaty 08 Feb 2022,20220208,219 Wareek-Homebush Road,WAREEK,VIC,3465,-37.0102043,143.60878,3,2,6,House,House,True,3.98,ha,False
2017469862,listing,/128-gillies-street-maryborough-vic-3465-2017469862,410000,is-sold,Sold by private treaty 27 Jan 2022,20220127,128 Gillies Street,MARYBOROUGH,VIC,3465,-37.0464821,143.749069,4,2,1,House,House,False,1012,m2,False
2017488473,listing,/131-timor-road-bowenvale-vic-3465-2017488473,189000,is-sold,Sold by private treaty 22 Feb 2022,20220222,131 Timor Road,BOWENVALE,VIC,3465,-37.0235062,143.71933,,,,VacantLand,Vacant land,True,2.02,ha,False
2017489427,listing,/61-arcadia-court-simson-vic-3465-2017489427,754000,is-sold,Sold by private treaty 28 Jan 2022,20220128,61 Arcadia Court,SIMSON,VIC,3465,-36.99972,143.774231,4,2,2,House,House,True,2.02,ha,False
2017514292,listing,/118-high-street-maryborough-vic-3465-2017514292,275500,is-sold,Sold by private treaty 24 Feb 2022,20220224,118. High Street,MARYBOROUGH,VIC,3465,-37.0475769,143.7371,1,1,,House,House,False,321,m2,False
2017518536,listing,/34-gearing-street-maryborough-vic-3465-2017518536,330000,is-sold,Sold by private treaty 18 Feb 2022,20220218,34 Gearing Street,MARYBOROUGH,VIC,3465,-37.050087,143.750961,3,1,2,House,House,False,0,m2,False
2017521908,listing,/6207-ballarat-maryborough-rd-daisy-hill-maryborough-vic-3465-2017521908,725000,is-sold,Sold by private treaty 26 Feb 2022,20220226,6207 Ballarat - Maryborough Rd Daisy Hill,MARYBOROUGH,VIC,3465,-37.0856361,143.724579,4,1,4,House,House,False,0,m2,False
2017522559,listing,/18-albert-street-maryborough-vic-3465-2017522559,470000,is-sold,Sold by private treaty 07 Feb 2022,20220207,18 Albert Street,MARYBOROUGH,VIC,3465,-37.0551872,143.737366,3,1,4,House,House,False,865,m2,False
2017531198,listing,/171-park-road-maryborough-vic-3465-2017531198,365000,is-sold,Sold by private treaty 18 Feb 2022,20220218,171. Park Road,MARYBOROUGH,VIC,3465,-37.0284538,143.747375,3,1,1,House,House,False,645,m2,False
2017536794,listing,/3-daly-street-maryborough-vic-3465-2017536794,345000,is-sold,Sold by private treaty 07 Feb 2022,20220207,3 Daly Street,MARYBOROUGH,VIC,3465,-37.0383148,143.732269,3,2,1,House,House,False,0,m2,False
2017559393,listing,/1-6-lowery-court-maryborough-vic-3465-2017559393,408000,is-sold,Sold by private treaty 15 Feb 2022,20220215,1/6 Lowery Court,MARYBOROUGH,VIC,3465,-37.0247726,143.7452,3,1,2,House,House,False,334,m2,False
2017567868,listing,/188-railway-street-maryborough-vic-3465-2017567868,320000,is-sold,Sold by private treaty 16 Feb 2022,20220216,188 Railway Street,MARYBOROUGH,VIC,3465,-37.0526276,143.7429,3,1,1,House,House,False,0,m2,False
2017577228,listing,/5-wills-street-maryborough-vic-3465-2017577228,425000,is-sold,Sold by private treaty 25 Feb 2022,20220225,5 Wills Street,MARYBOROUGH,VIC,3465,-37.04183,143.7382,3,2,3,House,House,False,560,m2,False
2017601398,listing,/101-burke-street-maryborough-vic-3465-2017601398,170000,is-sold,Sold by private treaty 16 Feb 2022,20220216,101 Burke Street,MARYBOROUGH,VIC,3465,-37.04815,143.74115,,,,VacantLand,Vacant land,False,698,m2,False
2017608148,listing,/76-12-barbara-court-maryborough-vic-3465-2017608148,,is-sold,Sold by private treaty 21 Feb 2022,20220221,76/12 Barbara Court,MARYBOROUGH,VIC,3465,-37.04661,143.736526,,,,VacantLand,Vacant land,False,612,m2,False
2017163946,listing,/82-napier-street-maryborough-vic-3465-2017163946,580000,is-sold,Sold by private treaty 18 Jan 2022,20220118,82 Napier Street,MARYBOROUGH,VIC,3465,-37.04909,143.738464,4,3,2,House,House,False,0,m2,False
2017309222,listing,/6-rogers-street-maryborough-vic-3465-2017309222,345000,is-sold,Sold by private treaty 12 Jan 2022,20220112,6 Rogers Street,MARYBOROUGH,VIC,3465,-37.0570869,143.740524,4,1,2,House,House,False,668,m2,False
2017403921,listing,/14-dundas-road-maryborough-vic-3465-2017403921,330000,is-sold,Sold by private treaty 17 Jan 2022,20220117,14 Dundas Road,MARYBOROUGH,VIC,3465,-37.03916,143.738617,3,1,2,House,House,False,0,m2,False
2017404845,listing,/197-dehnerts-road-daisy-hill-vic-3465-2017404845,620000,is-sold,Sold by private treaty 25 Jan 2022,20220125,197 Dehnerts Road,DAISY HILL,VIC,3465,-37.11197,143.743118,3,1,5,House,House,True,2.02,ha,False
2017422581,listing,/20-taylor-street-maryborough-vic-3465-2017422581,260000,is-sold,Sold by private treaty 04 Jan 2022,20220104,20 Taylor Street,MARYBOROUGH,VIC,3465,-37.04572,143.750076,2,1,1,House,House,False,600,m2,False
2017443384,listing,/222-park-road-maryborough-vic-3465-2017443384,375000,is-sold,Sold by private treaty 23 Dec 2021,20211223,222 Park Road,MARYBOROUGH,VIC,3465,-37.0246544,143.750229,3,2,3,House,House,False,0,m2,False
2017461665,listing,/87-park-road-maryborough-vic-3465-2017461665,406000,is-sold,Sold by private treaty 14 Jan 2022,20220114,87 Park Road,MARYBOROUGH,VIC,3465,-37.0360451,143.742584,3,1,5,House,House,False,687,m2,False
2017461667,listing,/20-kennedy-street-maryborough-vic-3465-2017461667,350000,is-sold,Sold by private treaty 21 Dec 2021,20211221,20 Kennedy Street,MARYBOROUGH,VIC,3465,-37.046505,143.750534,3,1,5,House,House,False,1030,m2,False
2017466759,listing,/19-rinford-street-maryborough-vic-3465-2017466759,361150,is-sold,Sold by private treaty 23 Dec 2021,20211223,19 Rinford Street,MARYBOROUGH,VIC,3465,-37.0382652,143.7314,3,1,2,House,House,False,0,m2,False
2017468988,listing,/lot-36-6-page-street-maryborough-vic-3465-2017468988,108000,is-sold,Sold by private treaty 18 Jan 2022,20220118,Lot  36// 6 Page Street,MARYBOROUGH,VIC,3465,-37.0473633,143.736679,,,,VacantLand,Vacant land,False,385,m2,False
2017471889,listing,/9-marshall-street-maryborough-vic-3465-2017471889,385000,is-sold,Sold by private treaty 24 Jan 2022,20220124,9 Marshall Street,MARYBOROUGH,VIC,3465,-37.0582237,143.745239,4,1,3,House,House,False,689,m2,False
2017472584,listing,/1-8-mcpherson-avenue-maryborough-vic-3465-2017472584,220000,is-sold,Sold by private treaty 13 Jan 2022,20220113,1/8 McPherson Avenue,MARYBOROUGH,VIC,3465,-37.05011,143.751923,2,1,1,ApartmentUnitFlat,Apartment / Unit / Flat,False,228,m2,False
2017474173,listing,/70-majorca-road-maryborough-vic-3465-2017474173,395000,is-sold,Sold by private treaty 14 Jan 2022,20220114,"70, Majorca Road",MARYBOROUGH,VIC,3465,-37.06043,143.744354,3,1,2,House,House,False,1260,m2,False
2017475477,listing,/14-elgin-road-maryborough-vic-3465-2017475477,399000,is-sold,Sold by private treaty 25 Dec 2021,20211225,14 Elgin Road,MARYBOROUGH,VIC,3465,-37.051342,143.728714,4,2,5,House,House,False,970,m2,False
2017476823,listing,/19-barr-street-maryborough-vic-3465-2017476823,400000,is-sold,Sold by private treaty 23 Dec 2021,20211223,19 Barr Street,MARYBOROUGH,VIC,3465,-37.051075,143.75029,3,1,2,House,House,False,0,m2,False
2017497368,listing,/6-golden-wattle-drive-maryborough-vic-3465-2017497368,370000,is-sold,Sold by private treaty 21 Jan 2022,20220121,6 Golden Wattle Drive,MARYBOROUGH,VIC,3465,-37.04766,143.746048,3,1,1,House,House,False,791,m2,False
2017499534,listing,/8-wellington-street-maryborough-vic-3465-2017499534,200000,is-sold,Sold by private treaty 26 Jan 2022,20220126,8 Wellington Street,MARYBOROUGH,VIC,3465,-37.0501251,143.72998,,,,VacantLand,Vacant land,False,900,m2,False
2017506304,listing,/224-gladstone-street-maryborough-vic-3465-2017506304,380000,is-sold,Sold by private treaty 13 Jan 2022,20220113,224 Gladstone Street,MARYBOROUGH,VIC,3465,-37.0400963,143.73143,3,1,1,House,House,False,858,m2,False
2017529997,listing,/11-fraser-street-maryborough-vic-3465-2017529997,425000,is-sold,Sold by private treaty 19 Jan 2022,20220119,11 Fraser Street,MARYBOROUGH,VIC,3465,-37.0498047,143.746643,3,1,5,House,House,False,988,m2,False
2017535478,listing,/34-barkly-street-maryborough-vic-3465-2017535478,510000,is-sold,Sold by private treaty 19 Jan 2022,20220119,34 Barkly Street,MARYBOROUGH,VIC,3465,-37.04424,143.733215,3,1,,House,House,False,0,m2,False
2017073774,listing,/7-newton-street-maryborough-vic-3465-2017073774,375000,is-sold,Sold by private treaty 01 Dec 2021,20211201,7 Newton Street,MARYBOROUGH,VIC,3465,-37.0435066,143.736526,3,1,2,House,House,False,402,m2,False
2017146815,listing,/30-whirrakee-drive-maryborough-vic-3465-2017146815,,is-sold,Sold by private treaty 25 Nov 2021,20211125,30 Whirrakee Drive,MARYBOROUGH,VIC,3465,-37.02261,143.745544,4,2,2,House,House,False,704,m2,False
2017147389,listing,/83-inkerman-street-maryborough-vic-3465-2017147389,305000,is-sold,Sold by private treaty 20 Dec 2021,20211220,83 Inkerman Street,MARYBOROUGH,VIC,3465,-37.0455742,143.732269,2,1,2,House,House,False,0,m2,False
2017259662,listing,/6-hope-street-maryborough-vic-3465-2017259662,391000,is-sold,Sold by private treaty 02 Dec 2021,20211202,6 Hope Street,MARYBOROUGH,VIC,3465,-37.0426979,143.730835,3,1,2,House,House,False,0,m2,False
2017275353,listing,/12-barr-street-maryborough-vic-3465-2017275353,322000,is-sold,Sold by private treaty 20 Dec 2021,20211220,12 Barr Street,MARYBOROUGH,VIC,3465,-37.0514374,143.749817,3,1,2,House,House,False,0,m2,False
2017288402,listing,/34-burns-street-maryborough-vic-3465-2017288402,380000,is-sold,Sold by private treaty 22 Nov 2021,20211122,34. Burns Street,MARYBOROUGH,VIC,3465,-37.0521545,143.738266,4,1,1,House,House,False,1012,m2,False
2017338758,listing,/16-dodds-street-maryborough-vic-3465-2017338758,296000,is-sold,Sold by private treaty 17 Dec 2021,20211217,16 Dodds Street,MARYBOROUGH,VIC,3465,-37.05184,143.7285,3,1,1,House,House,False,589,m2,False
2017362533,listing,/13-laidlaw-street-maryborough-vic-3465-2017362533,250000,is-sold,Sold by private treaty 06 Dec 2021,20211206,13 Laidlaw Street,MARYBOROUGH,VIC,3465,-37.0494957,143.749908,3,1,3,House,House,False,691,m2,False
2017363947,listing,/81-burns-street-maryborough-vic-3465-2017363947,270000,is-sold,Sold by private treaty 25 Nov 2021,20211125,81 Burns Street,MARYBOROUGH,VIC,3465,-37.0468864,143.744156,2,1,2,House,House,False,0,m2,False
2017383125,listing,/56-mole-road-alma-vic-3465-2017383125,512000,is-sold,Sold by private treaty 23 Nov 2021,20211123,56 Mole Road,ALMA,VIC,3465,-37.0423851,143.685181,3,1,6,House,House,True,2.02,ha,False
2017401614,listing,/2-11-victoria-street-maryborough-vic-3465-2017401614,275000,is-sold,Sold by private treaty 23 Nov 2021,20211123,2/11 Victoria Street,MARYBOROUGH,VIC,3465,-37.05397,143.736984,2,1,1,ApartmentUnitFlat,Apartment / Unit / Flat,False,0,m2,False
2017401872,listing,/45-galloways-road-majorca-vic-3465-2017401872,350000,is-sold,Sold by private treaty 03 Dec 2021,20211203,45 Galloways Road,MAJORCA,VIC,3465,-37.1149368,143.801956,2,1,1,House,House,False,8000,m2,False
2017402851,listing,/12-newton-street-maryborough-vic-3465-2017402851,730000,is-sold,Sold by private treaty 30 Nov 2021,20211130,12 Newton Street,MARYBOROUGH,VIC,3465,-37.0424767,143.736023,4,2,4,House,House,False,816,m2,False
2017412255,listing,/19-brougham-street-maryborough-vic-3465-2017412255,360000,is-sold,Sold by private treaty 07 Dec 2021,20211207,19 Brougham Street,MARYBOROUGH,VIC,3465,-37.0530243,143.733734,3,1,2,House,House,False,570,m2,False
2017416863,listing,/ca27-ca48c-three-chain-rd-natte-yallock-vic-3465-2017416863,,is-sold,Sold at auction 16 Dec 2021,20211216,"CA27 & CA48C Three Chain Rd,",NATTE YALLOCK,VIC,3465,-36.9810333,143.455612,,,,Rural,Rural,True,178.87,ha,False
2017432190,listing,/64-mariners-reef-rd-maryborough-vic-3465-2017432190,500000,is-sold,Sold by private treaty 26 Nov 2021,20211126,64 Mariners Reef Rd,MARYBOROUGH,VIC,3465,-37.06069,143.734558,4,2,9,House,House,False,1266,m2,False
2017441940,listing,/4-ironbark-drive-maryborough-vic-3465-2017441940,465000,is-sold,Sold by private treaty 20 Dec 2021,20211220,4 Ironbark Drive,MARYBOROUGH,VIC,3465,-37.0540962,143.725372,3,2,2,House,House,False,0,m2,False
2017446311,listing,/2-8-napier-street-maryborough-vic-3465-2017446311,301750,is-sold,Sold by private treaty 14 Dec 2021,20211214,2/8 Napier Street,MARYBOROUGH,VIC,3465,-37.0540276,143.731232,2,1,2,Townhouse,Townhouse,False,276,m2,False
2017461295,listing,/2-25-high-street-maryborough-vic-3465-2017461295,390000,is-sold,Sold by private treaty 10 Dec 2021,20211210,2/25 High Street,MARYBOROUGH,VIC,3465,-37.04996,143.732681,2,1,1,Townhouse,Townhouse,False,291,m2,False
2017461831,listing,/3-26-clarendon-street-maryborough-vic-3465-2017461831,350000,is-sold,Sold by private treaty 09 Dec 2021,20211209,3/26 Clarendon Street,MARYBOROUGH,VIC,3465,-37.04972,143.732437,2,1,1,Townhouse,Townhouse,False,0,m2,False
2017121484,listing,/58-palmerston-street-maryborough-vic-3465-2017121484,645000,is-sold,Sold by private treaty 07 Nov 2021,20211107,58 Palmerston Street,MARYBOROUGH,VIC,3465,-37.0421371,143.738815,3,2,1,House,House,False,873,m2,False
2017134808,listing,/36-alma-street-maryborough-vic-3465-2017134808,510000,is-sold,Sold by private treaty 03 Nov 2021,20211103,36 Alma Street,MARYBOROUGH,VIC,3465,-37.05015,143.7343,3,2,2,House,House,False,0,m2,False
2017237904,listing,/42-harkin-court-alma-via-maryborough-vic-3465-2017237904,535000,is-sold,Sold by private treaty 02 Nov 2021,20211102,42 Harkin Court Alma via,MARYBOROUGH,VIC,3465,-37.0431328,143.7389,4,1,7,Rural,Rural,True,2.02,ha,False
2017244908,listing,/15-nesbit-road-majorca-vic-3465-2017244908,307500,is-sold,Sold by private treaty 27 Oct 2021,20211027,15 Nesbit Road,MAJORCA,VIC,3465,-37.1360931,143.783325,,,,VacantLand,Vacant land,True,7.49,ha,False
2017247429,listing,/3-54-burke-street-maryborough-vic-3465-2017247429,246000,is-sold,Sold by private treaty 27 Oct 2021,20211027,3/54. Burke Street,MARYBOROUGH,VIC,3465,-37.0527344,143.735443,2,1,1,ApartmentUnitFlat,Apartment / Unit / Flat,False,330,m2,False
2017259089,listing,/47-crystal-lane-wareek-vic-3465-2017259089,710000,is-sold,Sold by private treaty 19 Nov 2021,20211119,47 Crystal Lane,WAREEK,VIC,3465,-37.00791,143.615051,4,2,6,House,House,True,6.64,ha,False
2017273497,listing,/ca-2a-17-church-court-timor-vic-3465-2017273497,628000,is-sold,Sold by private treaty 11 Nov 2021,20211111,CA 2A 17 Church Court,TIMOR,VIC,3465,-36.98255,143.707214,3,2,2,House,House,False,12140,m2,False
2017282367,listing,/22-wellington-street-maryborough-vic-3465-2017282367,395000,is-sold,Sold by private treaty 22 Nov 2021,20211122,22 Wellington Street,MARYBOROUGH,VIC,3465,-37.049305,143.731339,3,1,2,House,House,False,0,m2,False
2017289107,listing,/23-arthur-avenue-maryborough-vic-3465-2017289107,350000,is-sold,Sold by private treaty 17 Nov 2021,20211117,23 Arthur Avenue,MARYBOROUGH,VIC,3465,-37.0370674,143.731644,3,1,2,House,House,False,664,m2,False
2017298569,listing,/32-inkerman-street-maryborough-vic-3465-2017298569,469000,is-sold,Sold by private treaty 09 Nov 2021,20211109,32 Inkerman Street,MARYBOROUGH,VIC,3465,-37.0508652,143.738312,3,1,3,House,House,False,1019,m2,False
2017306925,listing,/25-rinford-street-maryborough-vic-3465-2017306925,310000,is-sold,Sold by private treaty 03 Nov 2021,20211103,25 Rinford Street,MARYBOROUGH,VIC,3465,-37.03798,143.731934,2,1,3,House,House,False,694,m2,False
2017333443,listing,/502-bet-bet-creek-road-timor-vic-3465-2017333443,200000,is-sold,Sold by private treaty 28 Oct 2021,20211028,502 Bet Bet Creek Road,TIMOR,VIC,3465,-36.9794579,143.721512,,,,VacantLand,Vacant land,True,8.5,ha,False
2017365929,listing,/10-hubble-street-maryborough-vic-3465-2017365929,360000,is-sold,Sold by private treaty 11 Nov 2021,20211111,10 Hubble Street,MARYBOROUGH,VIC,3465,-37.0541725,143.748459,3,1,,House,House,False,0,m2,False
2017391706,listing,/lot-43-east-field-street-maryborough-vic-3465-2017391706,110000,is-sold,Sold by private treaty 27 Oct 2021,20211027,lot/43 East field Street,MARYBOROUGH,VIC,3465,-37.0354843,143.74176,,,,VacantLand,Vacant land,False,0,m2,False
2017391741,listing,/lot-44-east-field-street-maryborough-vic-3465-2017391741,99000,is-sold,Sold by private treaty 27 Oct 2021,20211027,lot/44 East field Street,MARYBOROUGH,VIC,3465,-37.0354843,143.74176,,,,VacantLand,Vacant land,False,0,m2,False
2017394007,listing,/41-6-lovett-court-maryborough-vic-3465-2017394007,,is-sold,Sold by private treaty 09 Nov 2021,20211109,41/6 Lovett Court,MARYBOROUGH,VIC,3465,-37.04733,143.744614,,,,VacantLand,Vacant land,False,623,m2,False
2017394086,listing,/36-15-lovett-court-maryborough-vic-3465-2017394086,,is-sold,Sold by private treaty 09 Nov 2021,20211109,36/15 Lovett Court,MARYBOROUGH,VIC,3465,-37.04733,143.744614,,,,VacantLand,Vacant land,False,920,m2,False
2017394159,listing,/32-7-lovett-court-maryborough-vic-3465-2017394159,,is-sold,Sold by private treaty 09 Nov 2021,20211109,32/7 Lovett Court,MARYBOROUGH,VIC,3465,-37.04733,143.744614,,,,VacantLand,Vacant land,False,570,m2,False
2017395174,listing,/29-21-east-field-street-maryborough-vic-3465-2017395174,,is-sold,Sold by private treaty 09 Nov 2021,20211109,29/21 East Field Street,MARYBOROUGH,VIC,3465,-37.0353279,143.740738,,,,VacantLand,Vacant land,False,636,m2,False
2017401659,listing,/32-outtrim-street-maryborough-vic-3465-2017401659,205000,is-sold,Sold by private treaty 20 Nov 2021,20211120,32 Outtrim Street,MARYBOROUGH,VIC,3465,-37.0443649,143.748245,3,1,2,House,House,False,611,m2,False
2016505303,listing,/70-inkerman-street-maryborough-vic-3465-2016505303,275000,is-sold,Sold by private treaty 26 Oct 2021,20211026,70 Inkerman Street,MARYBOROUGH,VIC,3465,-37.04657,143.73381,2,1,1,House,House,False,269,m2,False
2016505318,listing,/20-palmerston-street-maryborough-vic-3465-2016505318,550000,is-sold,Sold by private treaty 26 Oct 2021,20211026,20 Palmerston Street,MARYBOROUGH,VIC,3465,-37.0463638,143.7336,4,4,2,House,House,False,459,m2,False
2016829855,listing,/lot-29-chisholm-street-maryborough-vic-3465-2016829855,379000,is-sold,Sold by private treaty 25 Oct 2021,20211025,Lot/29 Chisholm Street,MARYBOROUGH,VIC,3465,-37.04733,143.744614,4,2,2,House,House,False,396,m2,False
2017180513,listing,/11-barr-street-maryborough-vic-3465-2017180513,300000,is-sold,Sold by private treaty 21 Oct 2021,20211021,11 Barr Street,MARYBOROUGH,VIC,3465,-37.0510178,143.749557,3,1,3,House,House,False,571,m2,False
2017251557,listing,/57-palmerston-street-maryborough-vic-3465-2017251557,400000,is-sold,Sold by private treaty 21 Oct 2021,20211021,57 Palmerston Street,MARYBOROUGH,VIC,3465,-37.0422821,143.738037,4,1,2,House,House,False,0,m2,False
2017252100,listing,/ca-41-43-sims-lane-homebush-vic-3465-2017252100,110000,is-sold,Sold by private treaty 22 Oct 2021,20211022,CA 41 & 43 Sims Lane,HOMEBUSH,VIC,3465,-37.0670242,143.535,,,,AcreageSemiRural,Acreage / Semi-Rural,True,3.63,ha,False
2017260101,listing,/34-outtrim-street-maryborough-vic-3465-2017260101,387000,is-sold,Sold by private treaty 25 Oct 2021,20211025,34 Outtrim Street,MARYBOROUGH,VIC,3465,-37.0443077,143.748337,3,2,2,House,House,False,471,m2,False
2017263640,listing,/43-churchill-crt-daisy-hill-via-maryborough-vic-3465-2017263640,625000,is-sold,Sold by private treaty 19 Oct 2021,20211019,43 Churchill Crt Daisy Hill Via,MARYBOROUGH,VIC,3465,-37.04733,143.744614,3,1,1,AcreageSemiRural,Acreage / Semi-Rural,True,4.05,ha,False
2017263766,listing,/33-nicholls-road-daisy-hill-via-maryborough-vic-3465-2017263766,460000,is-sold,Sold by private treaty 20 Oct 2021,20211020,33 Nicholls Road - Daisy Hill - Via,MARYBOROUGH,VIC,3465,-37.1012268,143.727188,3,1,4,House,House,True,2.02,ha,False
2017273799,listing,/12-victoria-street-maryborough-vic-3465-2017273799,280500,is-sold,Sold by private treaty 22 Oct 2021,20211022,12 Victoria Street,MARYBOROUGH,VIC,3465,-37.0537224,143.737625,3,1,,House,House,False,0,m2,False
2017286210,listing,/5-kars-street-maryborough-vic-3465-2017286210,415000,is-sold,Sold by private treaty 25 Oct 2021,20211025,5. Kars Street,MARYBOROUGH,VIC,3465,-37.0548172,143.73819,3,2,2,House,House,False,388,m2,False
2017312704,listing,/26-pekin-road-maryborough-vic-3465-2017312704,285000,is-sold,Sold by private treaty 22 Oct 2021,20211022,26 Pekin Road,MARYBOROUGH,VIC,3465,-37.0389977,143.728455,2,1,1,ApartmentUnitFlat,Apartment / Unit / Flat,False,0,m2,False
2017343122,listing,/25-peel-street-maryborough-vic-3465-2017343122,455000,is-sold,Sold by private treaty 27 Oct 2021,20211027,25 Peel Street,MARYBOROUGH,VIC,3465,-37.04172,143.731171,4,1,5,House,House,False,1147,m2,False
2017363399,listing,/maryborough-vic-3465-2017363399,,is-sold,Sold by private treaty 25 Oct 2021,20211025,,MARYBOROUGH,VIC,3465,-37.04733,143.744614,,,,VacantLand,Vacant land,False,0,m2,False
2017363731,listing,/lot-35-lovett-court-maryborough-vic-3465-2017363731,,is-sold,Sold by private treaty 26 Oct 2021,20211026,lot/35 lovett Court,MARYBOROUGH,VIC,3465,-37.04733,143.744614,,,,VacantLand,Vacant land,False,0,m2,False
2017363844,listing,/lot-34-lovett-court-maryborough-vic-3465-2017363844,,is-sold,Sold by private treaty 26 Oct 2021,20211026,Lot/34 Lovett Court,MARYBOROUGH,VIC,3465,-37.04733,143.744614,,,,VacantLand,Vacant land,False,0,m2,False
2017365194,listing,/4168-417-pyrenees-highway-flagstaff-vic-3465-2017365194,290000,is-sold,Sold by private treaty 20 Oct 2021,20211020,4168 & 417 Pyrenees Highway,FLAGSTAFF,VIC,3465,-37.0478554,143.783524,3,1,1,House,House,False,4128,m2,False
2017365196,listing,/ca-4-1137-landrigan-road-daisy-hill-via-maryborough-vic-3465-2017365196,150000,is-sold,Sold by private treaty 21 Oct 2021,20211021,CA 4/1137 Landrigan Road Daisy Hill Via,MARYBOROUGH,VIC,3465,-37.11323,143.72612,,,,VacantLand,Vacant land,True,8.09,ha,False
2017391690,listing,/lot-38-lovett-court-maryborough-vic-3465-2017391690,125000,is-sold,Sold by private treaty 26 Oct 2021,20211026,lot/38 lovett Court,MARYBOROUGH,VIC,3465,-37.04733,143.744614,,,,VacantLand,Vacant land,False,0,m2,False
2016231726,listing,/lot-33-chisholm-street-maryborough-vic-3465-2016231726,,is-sold,Sold by private treaty 27 Sep 2021,20210927,Lot/33 Chisholm Street,MARYBOROUGH,VIC,3465,-37.04733,143.744614,,,,VacantLand,Vacant land,False,396,m2,False
2016524093,listing,/12-ironbark-drive-maryborough-vic-3465-2016524093,455000,is-sold,Sold by private treaty 01 Oct 2021,20211001,12 Ironbark Drive,MARYBOROUGH,VIC,3465,-37.0545464,143.7257,3,2,3,House,House,False,895,m2,False
2016599138,listing,/c-a-3c-section-1-commercial-road-majorca-vic-3465-2016599138,,is-sold,Sold by private treaty 29 Sep 2021,20210929,C/A 3C Section 1 Commercial Road,MAJORCA,VIC,3465,-37.104557,143.793686,,,,VacantLand,Vacant land,True,8.09,ha,False
2017106871,listing,/128-inkerman-street-maryborough-vic-3465-2017106871,250000,is-sold,Sold by private treaty 05 Oct 2021,20211005,128 Inkerman Street,MARYBOROUGH,VIC,3465,-37.04159,143.72876,3,1,1,House,House,False,0,m2,False
2017188105,listing,/259-timor-road-bowenvale-vic-3465-2017188105,420000,is-sold,Sold by private treaty 07 Oct 2021,20211007,259 Timor Road,BOWENVALE,VIC,3465,-37.01243,143.716049,2,1,1,House,House,True,2.02,ha,False
2017248090,listing,/209-gladstone-street-maryborough-vic-3465-2017248090,210000,is-sold,Sold by private treaty 06 Oct 2021,20211006,"209 Gladstone Street,",MARYBOROUGH,VIC,3465,-37.040947,143.729446,2,1,1,House,House,False,0,m2,False
2017250036,listing,/20-du-bourg-road-bowenvale-vic-3465-2017250036,170000,is-sold,Sold by private treaty 12 Oct 2021,20211012,20 Du Bourg Road,BOWENVALE,VIC,3465,-36.9888268,143.708252,,,,VacantLand,Vacant land,True,3.12,ha,False
2017250099,listing,/13-rowles-drive-maryborough-vic-3465-2017250099,553000,is-sold,Sold by private treaty 14 Oct 2021,20211014,13 Rowles Drive,MARYBOROUGH,VIC,3465,-37.02782,143.747009,3,2,3,House,House,False,770,m2,False
2017270998,listing,/3-6-high-street-maryborough-vic-3465-2017270998,450000,is-sold,Sold by private treaty 11 Oct 2021,20211011,3/6 High Street,MARYBOROUGH,VIC,3465,-37.0516052,143.730728,3,2,2,House,House,False,253,m2,False
2017274294,listing,/10-albert-street-majorca-vic-3465-2017274294,506000,is-sold,Sold by private treaty 13 Oct 2021,20211013,10 Albert Street,MAJORCA,VIC,3465,-37.1164551,143.797272,3,2,6,House,House,False,0,m2,False
2017275422,listing,/2-8-virtue-street-maryborough-vic-3465-2017275422,325000,is-sold,Sold by private treaty 13 Oct 2021,20211013,2/8 Virtue Street,MARYBOROUGH,VIC,3465,-37.0337067,143.736359,3,1,2,ApartmentUnitFlat,Apartment / Unit / Flat,False,0,m2,False
2017281445,listing,/10-victoria-street-maryborough-vic-3465-2017281445,380000,is-sold,Sold by private treaty 18 Oct 2021,20211018,10 Victoria Street,MARYBOROUGH,VIC,3465,-37.0541153,143.737045,5,2,4,House,House,False,634,m2,False
2017290954,listing,/246-tullaroop-road-maryborough-vic-3465-2017290954,620000,is-sold,Sold by private treaty 11 Oct 2021,20211011,246 Tullaroop Road,MARYBOROUGH,VIC,3465,-37.0371742,143.772,5,2,6,House,House,True,2.71,ha,False
2017308775,listing,/majorca-vic-3465-2017308775,120000,is-sold,Sold by private treaty 08 Oct 2021,20211008,,MAJORCA,VIC,3465,-37.12836,143.7905,,,,VacantLand,Vacant land,True,2,ha,False
2017365192,listing,/175-balaclava-road-maryborough-vic-3465-2017365192,868000,is-sold,Sold by private treaty 14 Oct 2021,20211014,175 Balaclava Road,MARYBOROUGH,VIC,3465,-37.0428848,143.724136,7,2,5,House,House,False,6894,m2,False
2017365197,listing,/575-timor-rd-bowenvale-via-maryborough-vic-3465-2017365197,132000,is-sold,Sold by private treaty 08 Oct 2021,20211008,575 Timor Rd Bowenvale - Via,MARYBOROUGH,VIC,3465,-36.9841652,143.709167,,,,VacantLand,Vacant land,False,3053,m2,False
2017365198,listing,/56-dehnerts-road-daisy-hill-via-maryborough-vic-3465-2017365198,700000,is-sold,Sold by private treaty 30 Sep 2021,20210930,56 Dehnerts Road Daisy Hill Via,MARYBOROUGH,VIC,3465,-37.1012268,143.727188,3,2,4,House,House,False,0,m2,False
2017377355,listing,/75-majorca-road-maryborough-vic-3465-2017377355,333000,is-sold,Sold by private treaty 12 Oct 2021,20211012,75 Majorca Road,MARYBOROUGH,VIC,3465,-37.06184,143.745667,3,1,4,House,House,False,0,m2,False
2017401660,listing,/77-burns-street-maryborough-vic-3465-2017401660,270000,is-sold,Sold by private treaty 15 Oct 2021,20211015,77 Burns Street,MARYBOROUGH,VIC,3465,-37.0473442,143.744019,3,1,,House,House,False,1142,m2,False
2017673571,listing,/12-central-court-maryborough-vic-3465-2017673571,,is-sold,Sold by private treaty 01 Oct 2021,20211001,12 central Court,MARYBOROUGH,VIC,3465,-37.0231171,143.745087,3,1,2,House,House,False,0,m2,False
2016336510,listing,/31-forest-view-drive-maryborough-vic-3465-2016336510,750000,is-sold,Sold by private treaty 13 Sep 2021,20210913,31 Forest View Drive,MARYBOROUGH,VIC,3465,-37.022747,143.743073,4,2,4,House,House,False,1374,m2,False
2017060674,listing,/6-sutton-road-maryborough-vic-3465-2017060674,290000,is-sold,Sold by private treaty 20 Sep 2021,20210920,6 Sutton Road,MARYBOROUGH,VIC,3465,-37.0494423,143.745392,3,1,1,House,House,False,546,m2,False
2017139729,listing,/lot-8-grace-street-maryborough-vic-3465-2017139729,407512,is-sold,Sold by private treaty 13 Sep 2021,20210913,LOT 8 Grace Street,MARYBOROUGH,VIC,3465,-37.04599,143.745087,4,2,2,House,House,False,0,m2,False
2017140273,listing,/ca-2-1137-landrigan-road-daisy-hill-via-maryborough-vic-3465-2017140273,175000,is-sold,Sold by private treaty 02 Sep 2021,20210902,CA 2/1137 Landrigan Road Daisy Hill Via,MARYBOROUGH,VIC,3465,-37.04733,143.744614,,,,VacantLand,Vacant land,False,0,m2,False
2017146822,listing,/59-barkly-street-maryborough-vic-3465-2017146822,385000,is-sold,Sold by private treaty 20 Sep 2021,20210920,59 Barkly Street,MARYBOROUGH,VIC,3465,-37.041275,143.736588,3,1,2,House,House,False,1018,m2,False
2017155132,listing,/ca-5-1137-landrigan-road-daisy-hill-via-maryborough-vic-3465-2017155132,178000,is-sold,Sold by private treaty 02 Sep 2021,20210902,CA 5/1137 Landrigan Road Daisy Hill Via,MARYBOROUGH,VIC,3465,-37.11323,143.72612,,,,VacantLand,Vacant land,False,0,m2,False
2017163120,listing,/15-churchill-court-daisy-hill-maryborough-vic-3465-2017163120,405000,is-sold,Sold by private treaty 31 Aug 2021,20210831,15 Churchill Court Daisy Hill,MARYBOROUGH,VIC,3465,-37.10182,143.73,3,1,2,House,House,True,2.02,ha,False
2017173976,listing,/10-high-street-maryborough-vic-3465-2017173976,315000,is-sold,Sold by private treaty 02 Sep 2021,20210902,"10 High, Street",MARYBOROUGH,VIC,3465,-37.05147,143.730911,3,1,4,House,House,False,504,m2,False
2017191593,listing,/2-20-east-field-street-maryborough-vic-3465-2017191593,330000,is-sold,Sold by private treaty 01 Sep 2021,20210901,2/20 East Field Street,MARYBOROUGH,VIC,3465,-37.03517,143.740875,3,1,1,House,House,False,470,m2,False
2017195677,listing,/40-high-street-maryborough-vic-3465-2017195677,400000,is-sold,Sold by private treaty 15 Sep 2021,20210915,40 High Street,MARYBOROUGH,VIC,3465,-37.04978,143.733612,3,1,1,House,House,False,662,m2,False
2017203047,listing,/44-napier-street-maryborough-vic-3465-2017203047,335000,is-sold,Sold by private treaty 06 Sep 2021,20210906,44 Napier Street,MARYBOROUGH,VIC,3465,-37.0515556,143.734528,3,1,1,House,House,False,516,m2,False
2017203174,listing,/18-high-street-maryborough-vic-3465-2017203174,440000,is-sold,Sold by private treaty 01 Sep 2021,20210901,18 High Street,MARYBOROUGH,VIC,3465,-37.0511665,143.731491,3,1,3,House,House,False,917,m2,False
2017203386,listing,/65-william-street-majorca-vic-3465-2017203386,187500,is-sold,Sold by private treaty 10 Sep 2021,20210910,65 William Street,MAJORCA,VIC,3465,-37.1162529,143.801147,,,,VacantLand,Vacant land,False,20234,m2,False
2017211165,listing,/2-7-crimea-street-maryborough-vic-3465-2017211165,320000,is-sold,Sold by private treaty 06 Sep 2021,20210906,2/7 Crimea Street,MARYBOROUGH,VIC,3465,-37.0522232,143.726318,2,1,1,ApartmentUnitFlat,Apartment / Unit / Flat,False,396,m2,False
2017216806,listing,/2-majorca-road-maryborough-vic-3465-2017216806,380000,is-sold,Sold by private treaty 06 Sep 2021,20210906,2 Majorca Road,MARYBOROUGH,VIC,3465,-37.054718,143.741348,3,2,2,House,House,False,649,m2,False
2017241631,listing,/152-gillies-street-maryborough-vic-3465-2017241631,360000,is-sold,Sold by private treaty 13 Sep 2021,20210913,152 Gillies Street,MARYBOROUGH,VIC,3465,-37.04377,143.749573,3,1,2,House,House,False,842,m2,False
2017249233,listing,/maryborough-vic-3465-2017249233,380000,is-sold,Sold by private treaty 12 Sep 2021,20210912,,MARYBOROUGH,VIC,3465,-37.04733,143.744614,3,1,2,House,House,False,0,m2,False
2017249583,listing,/lot-8-grace-street-maryborough-vic-3465-2017249583,407512,is-sold,Sold by private treaty 13 Sep 2021,20210913,LOT 8 Grace Street,MARYBOROUGH,VIC,3465,-37.04599,143.745087,4,2,2,House,House,False,0,m2,False
2017250842,listing,/101-hickeys-road-bowenvale-vic-3465-2017250842,175000,is-sold,Sold by private treaty 23 Sep 2021,20210923,101 Hickeys Road,BOWENVALE,VIC,3465,-36.9915123,143.691574,,,,VacantLand,Vacant land,True,3.24,ha,False
2017259664,listing,/11-arthur-avenue-maryborough-vic-3465-2017259664,175000,is-sold,Sold by private treaty 23 Sep 2021,20210923,11 Arthur Avenue,MARYBOROUGH,VIC,3465,-37.0378723,143.730484,2,1,1,House,House,False,0,m2,False
2015500918,listing,/49-burns-street-maryborough-vic-3465-2015500918,115000,is-sold,Sold by private treaty 02 Aug 2021,20210802,49 Burns Street,MARYBOROUGH,VIC,3465,-37.0498734,143.7407,,,,VacantLand,Vacant land,False,1052,m2,False
2016990475,listing,/43-pidgeon-gully-road-maryborough-vic-3465-2016990475,699000,is-sold,Sold by private treaty 11 Aug 2021,20210811,43 Pidgeon Gully Road,MARYBOROUGH,VIC,3465,-37.0126343,143.7682,3,1,,AcreageSemiRural,Acreage / Semi-Rural,True,5.26,ha,False
2016991719,listing,/1-26-hope-street-maryborough-vic-3465-2016991719,310000,is-sold,Sold by private treaty 02 Aug 2021,20210802,1/26 Hope Street,MARYBOROUGH,VIC,3465,-37.0410767,143.7332,2,1,2,House,House,False,288,m2,False
2017106485,listing,/55-parkers-lane-adelaide-lead-vic-3465-2017106485,215000,is-sold,Sold by private treaty 04 Aug 2021,20210804,55 Parkers Lane,ADELAIDE LEAD,VIC,3465,-37.0846176,143.68428,,,,VacantLand,Vacant land,True,11.74,ha,False
2017106890,listing,/99-nelson-street-maryborough-vic-3465-2017106890,350000,is-sold,Sold by private treaty 10 Aug 2021,20210810,99 Nelson Street,MARYBOROUGH,VIC,3465,-37.0609245,143.744064,3,1,3,House,House,False,0,m2,False
2017109709,listing,/108-loch-street-maryborough-vic-3465-2017109709,265000,is-sold,Sold by private treaty 18 Aug 2021,20210818,108 Loch Street,MARYBOROUGH,VIC,3465,-37.0578079,143.744858,3,1,2,Rural,Rural,True,0,m2,False
2017120054,listing,/256-gladstone-street-maryborough-vic-3465-2017120054,320000,is-sold,Sold by private treaty 27 Aug 2021,20210827,"256, Gladstone Street",MARYBOROUGH,VIC,3465,-37.03857,143.734421,3,1,2,House,House,False,1000,m2,False
2017120858,listing,/67-park-road-maryborough-vic-3465-2017120858,290000,is-sold,Sold by private treaty 30 Aug 2021,20210830,67 Park Road,MARYBOROUGH,VIC,3465,-37.03748,143.741516,3,1,2,House,House,False,1011,m2,False
2017122477,listing,/25-majorca-road-maryborough-vic-3465-2017122477,385000,is-sold,Sold by private treaty 03 Aug 2021,20210803,25 Majorca Road,MARYBOROUGH,VIC,3465,-37.057373,143.743576,3,2,3,House,House,False,813,m2,False
2017145905,listing,/3-sydney-avenue-maryborough-vic-3465-2017145905,348000,is-sold,Sold by private treaty 05 Aug 2021,20210805,3 Sydney Avenue,MARYBOROUGH,VIC,3465,-37.0378036,143.732483,3,1,2,House,House,False,796,m2,False
2017154142,listing,/47-majorca-road-maryborough-vic-3465-2017154142,340000,is-sold,Sold by private treaty 03 Aug 2021,20210803,47 Majorca Road,MARYBOROUGH,VIC,3465,-37.05962,143.744629,3,1,2,Rural,Rural,True,2024,m2,False
2017158997,listing,/ca-1-1137-landrigan-rd-daisy-hill-via-maryborough-vic-3465-2017158997,165000,is-sold,Sold by private treaty 11 Aug 2021,20210811,CA 1/1137 Landrigan Rd Daisy Hill Via,MARYBOROUGH,VIC,3465,-37.121067,143.73378,,,,VacantLand,Vacant land,True,6.47,ha,False
2017160929,listing,/1-99-clarendon-street-maryborough-vic-3465-2017160929,295000,is-sold,Sold by private treaty 27 Aug 2021,20210827,1/99 Clarendon Street,MARYBOROUGH,VIC,3465,-37.04263,143.738953,2,1,1,ApartmentUnitFlat,Apartment / Unit / Flat,False,271,m2,False
2017164105,listing,/25b-outtrim-street-maryborough-vic-3465-2017164105,99000,is-sold,Sold by private treaty 20 Aug 2021,20210820,25B Outtrim Street,MARYBOROUGH,VIC,3465,-37.04453,143.747589,,,,VacantLand,Vacant land,False,845,m2,False
2017173144,listing,/2-26-hope-street-maryborough-vic-3465-2017173144,300000,is-sold,Sold by private treaty 25 Aug 2021,20210825,2/26 Hope Street,MARYBOROUGH,VIC,3465,-37.04102,143.733292,2,1,1,ApartmentUnitFlat,Apartment / Unit / Flat,False,330,m2,False
2017176216,listing,/21-derby-road-maryborough-vic-3465-2017176216,350000,is-sold,Sold by private treaty 26 Aug 2021,20210826,21 Derby Road,MARYBOROUGH,VIC,3465,-37.05541,143.729813,3,1,1,House,House,False,1197,m2,False
2017176456,listing,/308-gladstone-street-maryborough-vic-3465-2017176456,450000,is-sold,Sold by private treaty 18 Aug 2021,20210818,308 Gladstone Street,MARYBOROUGH,VIC,3465,-37.03438,143.74231,3,1,3,House,House,False,1032,m2,False
2017192773,listing,/19-william-street-majorca-vic-3465-2017192773,150500,is-sold,Sold by private treaty 21 Aug 2021,20210821,19 William Street,MAJORCA,VIC,3465,-37.11222,143.8018,,,,VacantLand,Vacant land,True,2.3,ha,False
2017197417,listing,/38-primrose-street-maryborough-vic-3465-2017197417,102000,is-sold,Sold by private treaty 25 Aug 2021,20210825,38 Primrose Street,MARYBOROUGH,VIC,3465,-37.04417,143.7524,,,,VacantLand,Vacant land,False,770,m2,False
2017377083,listing,/ca-1-1137-landrigan-rd-daisy-hill-via-maryborough-vic-3465-2017377083,165000,is-sold,Sold by private treaty 11 Aug 2021,20210811,CA 1/1137 Landrigan Rd Daisy Hill Via,MARYBOROUGH,VIC,3465,-37.121067,143.73378,,,,VacantLand,Vacant land,True,6.47,ha,False
2016249010,listing,/78a-goldsmith-street-maryborough-vic-3465-2016249010,100000,is-sold,Sold by private treaty 02 Jul 2021,20210702,78A Goldsmith Street,MARYBOROUGH,VIC,3465,-37.03898,143.738922,,,,VacantLand,Vacant land,False,419,m2,False
2016508006,listing,/13-grace-street-maryborough-vic-3465-2016508006,72000,is-sold,Sold by private treaty 16 Jul 2021,20210716,13 Grace Street,MARYBOROUGH,VIC,3465,-37.04599,143.745087,,,,VacantLand,Vacant land,False,314,m2,False
2016577282,listing,/721-maryborough-dunolly-rd-havelock-via-maryborough-vic-3465-2016577282,780000,is-sold,Sold by private treaty 21 Jul 2021,20210721,721 Maryborough -Dunolly Rd Havelock Via,MARYBOROUGH,VIC,3465,-37.04733,143.744614,3,1,,House,House,True,80.94,ha,False
2016856641,listing,/56-nicholls-road-daisy-hill-vic-3465-2016856641,515000,is-sold,Sold by private treaty 31 Jul 2021,20210731,56 Nicholls Road,DAISY HILL,VIC,3465,-37.110817,143.731384,3,2,5,House,House,True,2.02,ha,False
2016899071,listing,/149-nelson-street-maryborough-vic-3465-2016899071,300000,is-sold,Sold by private treaty 08 Jul 2021,20210708,149 Nelson Street,MARYBOROUGH,VIC,3465,-37.0594063,143.749008,3,1,6,House,House,False,3500,m2,False
2016926736,listing,/lot-34-page-street-maryborough-vic-3465-2016926736,402000,is-sold,Sold by private treaty 30 Jul 2021,20210730,Lot/34 Page Street,MARYBOROUGH,VIC,3465,-37.04636,143.737488,4,2,2,House,House,False,396,m2,False
2016986981,listing,/30-napier-street-maryborough-vic-3465-2016986981,490000,is-sold,Sold by private treaty 22 Jul 2021,20210722,30 Napier Street,MARYBOROUGH,VIC,3465,-37.0522232,143.733459,3,2,1,House,House,False,0,m2,False
2017016752,listing,/5-bristol-court-maryborough-vic-3465-2017016752,510000,is-sold,Sold by private treaty 23 Jul 2021,20210723,5 Bristol Court,MARYBOROUGH,VIC,3465,-37.04398,143.729111,4,2,2,House,House,False,0,m2,False
2017018298,listing,/8-coobah-court-maryborough-vic-3465-2017018298,445000,is-sold,Sold by private treaty 15 Jul 2021,20210715,8 Coobah Court,MARYBOROUGH,VIC,3465,-37.0530663,143.7248,4,2,2,House,House,False,0,m2,False
2017074983,listing,/53-barkly-street-maryborough-vic-3465-2017074983,318000,is-sold,Sold by private treaty 16 Jul 2021,20210716,53 Barkly Street,MARYBOROUGH,VIC,3465,-37.04156,143.736008,3,1,3,House,House,False,0,m2,False
2017076444,listing,/128-loch-street-maryborough-vic-3465-2017076444,300000,is-sold,Sold by private treaty 13 Jul 2021,20210713,128 Loch Street,MARYBOROUGH,VIC,3465,-37.0572777,143.746811,3,1,2,House,House,False,0,m2,False
2017077649,listing,/5-nolan-street-maryborough-vic-3465-2017077649,249000,is-sold,Sold by private treaty 09 Jul 2021,20210709,5 Nolan Street,MARYBOROUGH,VIC,3465,-37.0524368,143.740387,3,1,1,House,House,False,428,m2,False
2017100539,listing,/21-albert-street-maryborough-vic-3465-2017100539,310000,is-sold,Sold by private treaty 14 Jul 2021,20210714,21 Albert Street,MARYBOROUGH,VIC,3465,-37.0538559,143.738922,4,1,2,House,House,False,0,m2,False
2017106211,listing,/8-hope-street-maryborough-vic-3465-2017106211,370000,is-sold,Sold by private treaty 28 Jul 2021,20210728,8 Hope Street,MARYBOROUGH,VIC,3465,-37.0425377,143.730972,3,1,1,House,House,False,750,m2,False
2017106310,listing,/2-47-clarendon-street-maryborough-vic-3465-2017106310,441500,is-sold,Sold by private treaty 23 Jul 2021,20210723,2/47 Clarendon Street,MARYBOROUGH,VIC,3465,-37.0480156,143.73407,3,3,2,Villa,Villa,False,0,m2,False
2017106313,listing,/1137-landrigan-road-daisy-hill-via-maryborough-vic-3465-2017106313,350000,is-sold,Sold by private treaty 09 Jul 2021,20210709,1137 Landrigan Road Daisy Hill Via,MARYBOROUGH,VIC,3465,-37.11323,143.72612,,,,VacantLand,Vacant land,False,0,m2,False
2017106348,listing,/56-sutton-road-maryborough-vic-3465-2017106348,250000,is-sold,Sold by private treaty 15 Jul 2021,20210715,56 Sutton Road,MARYBOROUGH,VIC,3465,-37.04855,143.751373,2,1,1,House,House,False,0,m2,False
2017108341,listing,/20-harkness-street-maryborough-vic-3465-2017108341,100000,is-sold,Sold by private treaty 02 Aug 2021,20210802,20 Harkness Street,MARYBOROUGH,VIC,3465,-37.03895,143.743057,,,,VacantLand,Vacant land,False,301,m2,False
2017120859,listing,/5-victor-court-maryborough-vic-3465-2017120859,380000,is-sold,Sold by private treaty 21 Jul 2021,20210721,5 Victor Court,MARYBOROUGH,VIC,3465,-37.03903,143.7275,3,1,1,House,House,False,700,m2,False
2017281314,listing,/15-spring-street-maryborough-vic-3465-2017281314,310000,is-sold,Sold by private treaty 19 Jul 2021,20210719,15 Spring Street,MARYBOROUGH,VIC,3465,-37.04353,143.7504,3,1,4,House,House,False,674,m2,False
2016485267,listing,/11-grace-street-maryborough-vic-3465-2016485267,72000,is-sold,Sold by private treaty 29 Jun 2021,20210629,11 Grace Street,MARYBOROUGH,VIC,3465,-37.045845,143.745514,,,,VacantLand,Vacant land,False,311,m2,False
2016529546,listing,/lot-1-175a-park-road-maryborough-vic-3465-2016529546,,is-sold,Sold by private treaty 22 Jun 2021,20210622,"Lot 1, 175A Park Road",MARYBOROUGH,VIC,3465,-37.0344276,143.7439,3,2,1,House,House,False,321,m2,False
2016590431,listing,/c-a-6-section-8a-56-commercial-road-majorca-vic-3465-2016590431,155000,is-sold,Sold by private treaty 20 Jun 2021,20210620,"C/A 6 Section 8A, 56 Commercial Road",MAJORCA,VIC,3465,-37.104557,143.793686,,,,Rural,Rural,True,8.09,ha,False
2016598309,listing,/c-a-3b-section-1-commercial-road-majorca-vic-3465-2016598309,155000,is-sold,Sold by private treaty 28 Jun 2021,20210628,C/A 3B Section 1 Commercial Road,MAJORCA,VIC,3465,-37.104557,143.793686,,,,VacantLand,Vacant land,True,8.09,ha,False
2016708973,listing,/3-earl-street-maryborough-vic-3465-2016708973,890000,is-sold,Sold by private treaty 17 Jun 2021,20210617,3 Earl Street,MARYBOROUGH,VIC,3465,-37.04571,143.74147,5,4,2,House,House,False,0,m2,False
2016810162,listing,/27-pekin-road-maryborough-vic-3465-2016810162,340000,is-sold,Sold by private treaty 18 Jun 2021,20210618,"27 Pekin Road,",MARYBOROUGH,VIC,3465,-37.03893,143.7279,3,2,1,House,House,False,599,m2,False
2016839019,listing,/lot-31-chisholm-street-maryborough-vic-3465-2016839019,366000,is-sold,Sold by private treaty 23 Jun 2021,20210623,Lot/31 Chisholm Street,MARYBOROUGH,VIC,3465,-37.04733,143.744614,3,2,2,House,House,False,396,m2,False
2016861537,listing,/6-6-brown-street-maryborough-vic-3465-2016861537,230000,is-sold,Sold by private treaty 17 Jun 2021,20210617,6/6 Brown Street,MARYBOROUGH,VIC,3465,-37.0580978,143.726212,2,1,1,ApartmentUnitFlat,Apartment / Unit / Flat,False,0,m2,False
2016953688,listing,/226-maryborough-st-arnaud-road-alma-vic-3465-2016953688,650000,is-sold,Sold by private treaty 07 Jun 2021,20210607,226 Maryborough - St Arnaud Road,ALMA,VIC,3465,-37.03349,143.690262,4,2,9,House,House,False,8576,m2,False
2016954750,listing,/34-george-cook-drive-daisy-hill-vic-3465-2016954750,475000,is-sold,Sold by private treaty 11 Jun 2021,20210611,34 George Cook Drive,DAISY HILL,VIC,3465,-37.09648,143.731445,3,1,3,House,House,False,0,m2,False
2016982498,listing,/1-chisholm-street-maryborough-vic-3465-2016982498,337500,is-sold,Sold by private treaty 23 Jun 2021,20210623,1 Chisholm Street,MARYBOROUGH,VIC,3465,-37.02292,143.74614,2,2,1,House,House,False,424,m2,False
2017010700,listing,/1-grace-street-maryborough-vic-3465-2017010700,385000,is-sold,Sold by private treaty 02 Jul 2021,20210702,1 Grace Street,MARYBOROUGH,VIC,3465,-37.0451775,143.7456,4,2,2,House,House,False,0,m2,False
2017015503,listing,/21-hosken-street-maryborough-vic-3465-2017015503,385000,is-sold,Sold by private treaty 11 Jun 2021,20210611,21 Hosken Street,MARYBOROUGH,VIC,3465,-37.02269,143.747971,4,2,2,House,House,False,800,m2,False
2017025841,listing,/1-20-east-field-street-maryborough-vic-3465-2017025841,310000,is-sold,Sold by private treaty 24 Jun 2021,20210624,1/20 East Field Street,MARYBOROUGH,VIC,3465,-37.035183,143.740952,3,1,1,ApartmentUnitFlat,Apartment / Unit / Flat,False,255,m2,False
2017030948,listing,/2-fraser-street-maryborough-vic-3465-2017030948,330000,is-sold,Sold by private treaty 21 Jun 2021,20210621,2 Fraser Street,MARYBOROUGH,VIC,3465,-37.0486259,143.7457,3,1,2,House,House,False,614,m2,False
2017036287,listing,/29-lyle-lead-road-moonlight-flat-vic-3465-2017036287,205000,is-sold,Sold by private treaty 18 Jun 2021,20210618,29 Lyle Lead Road,MOONLIGHT FLAT,VIC,3465,-37.04844,143.672058,,,,VacantLand,Vacant land,True,4.05,ha,False
2017050801,listing,/105-field-street-maryborough-vic-3465-2017050801,465000,is-sold,Sold by private treaty 14 Jun 2021,20210614,105 Field Street,MARYBOROUGH,VIC,3465,-37.03456,143.736374,4,2,2,House,House,False,0,m2,False
2017056623,listing,/9-porter-avenue-maryborough-vic-3465-2017056623,230000,is-sold,Sold by private treaty 16 Jun 2021,20210616,9 Porter Avenue,MARYBOROUGH,VIC,3465,-37.04296,143.752548,3,1,,House,House,False,651,m2,False
2017077992,listing,/107-park-road-maryborough-vic-3465-2017077992,275000,is-sold,Sold by private treaty 26 Jun 2021,20210626,107 Park Road,MARYBOROUGH,VIC,3465,-37.03448,143.743576,3,1,2,House,House,False,699,m2,False
2017163055,listing,/72-dehnerts-road-daisy-hill-vic-3465-2017163055,449000,is-sold,Sold by private treaty 01 Jul 2021,20210701,72 Dehnerts Road,DAISY HILL,VIC,3465,-37.10617,143.7312,4,2,4,House,House,True,1.99,ha,False
2016045222,listing,/2-henry-street-maryborough-vic-3465-2016045222,125000,is-sold,Sold by private treaty 31 May 2021,20210531,2 Henry Street,MARYBOROUGH,VIC,3465,-37.0416031,143.727356,,,,VacantLand,Vacant land,False,745,m2,False
2016286725,listing,/431-bet-bet-creek-road-timor-vic-3465-2016286725,130000,is-sold,Sold by private treaty 04 Jun 2021,20210604,431 Bet Bet Creek Road,TIMOR,VIC,3465,-36.98288,143.716064,,,,VacantLand,Vacant land,True,2.83,ha,False
2016530491,listing,/lot-2-175a-park-road-maryborough-vic-3465-2016530491,395000,is-sold,Sold by private treaty 20 May 2021,20210520,"Lot 2, 175A Park Road",MARYBOROUGH,VIC,3465,-37.0344276,143.7439,3,2,1,House,House,False,280,m2,False
2016713440,listing,/ca15-andersons-road-bowenvale-vic-3465-2016713440,,is-sold,Sold by private treaty 31 May 2021,20210531,CA15 Andersons Road,BOWENVALE,VIC,3465,-37.00808,143.704086,,,,VacantLand,Vacant land,True,20.23,ha,False
2016749205,listing,/maryborough-vic-3465-2016749205,540000,is-sold,Sold by private treaty 17 May 2021,20210517,,MARYBOROUGH,VIC,3465,-37.04733,143.744614,3,2,6,AcreageSemiRural,Acreage / Semi-Rural,True,6.9,ha,False
2016812431,listing,/1-194-gladstone-street-maryborough-vic-3465-2016812431,285000,is-sold,Sold by private treaty 07 Jun 2021,20210607,"1/194 Gladstone Street,",MARYBOROUGH,VIC,3465,-37.0422668,143.72757,2,1,1,ApartmentUnitFlat,Apartment / Unit / Flat,False,319,m2,False
2016907163,listing,/171-park-road-maryborough-vic-3465-2016907163,330000,is-sold,Sold by private treaty 19 May 2021,20210519,171 Park Road,MARYBOROUGH,VIC,3465,-37.0284538,143.747375,3,1,1,House,House,False,645,m2,False
2016914104,listing,/34-argyle-road-maryborough-vic-3465-2016914104,335000,is-sold,Sold by private treaty 02 Jun 2021,20210602,"34, Argyle Road",MARYBOROUGH,VIC,3465,-37.0516,143.746338,3,2,3,House,House,False,658,m2,False
2016926711,listing,/lot-30-chisholm-street-maryborough-vic-3465-2016926711,402000,is-sold,Sold by private treaty 07 Jun 2021,20210607,Lot/30 Chisholm Street,MARYBOROUGH,VIC,3465,-37.0473633,143.736679,4,2,2,House,House,False,396,m2,False
2016936516,listing,/81-dundas-road-maryborough-vic-3465-2016936516,335000,is-sold,Sold at auction 15 May 2021,20210515,81 Dundas Road,MARYBOROUGH,VIC,3465,-37.0343628,143.733276,3,2,1,House,House,False,700,m2,False
2016950854,listing,/1-2-8-cadle-street-maryborough-vic-3465-2016950854,345000,is-sold,Sold by private treaty 04 Jun 2021,20210604,1 & 2/8 Cadle Street,MARYBOROUGH,VIC,3465,-37.0564575,143.745468,4,2,2,ApartmentUnitFlat,Apartment / Unit / Flat,False,0,m2,False
2016956366,listing,/35-wills-street-maryborough-vic-3465-2016956366,290000,is-sold,Sold by private treaty 25 May 2021,20210525,35 Wills Street,MARYBOROUGH,VIC,3465,-37.0389328,143.735077,3,1,2,House,House,False,0,m2,False
2016968667,listing,/6-barkly-street-maryborough-vic-3465-2016968667,317000,is-sold,Sold by private treaty 21 May 2021,20210521,6 Barkly Street,MARYBOROUGH,VIC,3465,-37.04595,143.730331,3,1,2,House,House,False,1017,m2,False
2016984145,listing,/72-golden-wattle-drive-maryborough-vic-3465-2016984145,216000,is-sold,Sold by private treaty 04 Jun 2021,20210604,72 Golden Wattle Drive,MARYBOROUGH,VIC,3465,-37.04258,143.749359,3,1,1,House,House,False,0,m2,False
