id,listingType,url,price,tagClassName,tagText,date,street,suburb,state,postcode,lat,lng,beds,baths,parking,propertyType,propertyTypeFormatted,isRural,landSize,landUnit,isRetirement
2018320046,listing,/112-loch-street-maryborough-vic-3465-2018320046,350000,is-sold,Sold by private treaty 28 Feb 2023,20230228,112 Loch Street,MARYBOROUGH,VIC,3465,-37.0577126,143.745239,3,3,3,House,House,False,750,m2,False
2018206267,listing,/110-inkerman-street-maryborough-vic-3465-2018206267,375000,is-sold,Sold by private treaty 27 Feb 2023,20230227,110 Inkerman Street,MARYBOROUGH,VIC,3465,-37.0430069,143.730362,4,4,4,House,House,False,0,m2,False
2018116916,listing,/54-golden-wattle-drive-maryborough-vic-3465-2018116916,355000,is-sold,Sold by private treaty 01 Mar 2023,20230301,54 Golden Wattle Drive,MARYBOROUGH,VIC,3465,-37.0433922,143.7474,3,3,3,House,House,False,0,m2,False
2018209617,listing,/37-pekin-road-maryborough-vic-3465-2018209617,315000,is-sold,Sold by private treaty 06 Mar 2023,20230306,37 Pekin Road,MARYBOROUGH,VIC,3465,-37.0380249,143.727524,2,1,,House,House,False,412,m2,False
2018356061,listing,/81-griffiths-street-maryborough-vic-3465-2018356061,445000,is-sold,Sold by private treaty 06 Mar 2023,20230306,81 Griffiths Street,MARYBOROUGH,VIC,3465,-37.02563,143.745926,3,1,2,House,House,False,652,m2,False
2018243020,listing,/15-hughes-street-maryborough-vic-3465-2018243020,,is-sold,Sold by private treaty 08 Mar 2023,20230308,15 Hughes Street,MARYBOROUGH,VIC,3465,-37.03325,143.733978,4,2,3,House,House,False,828,m2,False
2018195914,listing,/562-timor-road-bowenvale-vic-3465-2018195914,135000,is-sold,Sold by private treaty 07 Mar 2023,20230307,562 Timor Road,BOWENVALE,VIC,3465,-36.9868622,143.709976,,,,VacantLand,Vacant land,False,0,m2,False
2018330324,listing,/5-kennedy-street-maryborough-vic-3465-2018330324,465000,is-sold,Sold by private treaty 09 Mar 2023,20230309,5 Kennedy Street,MARYBOROUGH,VIC,3465,-37.0477448,143.749756,4,1,3,House,House,False,1321,m2,False
2018386147,listing,/1207-dunolly-timor-road-timor-vic-3465-2018386147,74000,is-sold,Sold by private treaty 10 Mar 2023,20230310,1207 Dunolly- Timor Road,TIMOR,VIC,3465,-36.97704,143.710587,,,,VacantLand,Vacant land,False,5100,m2,False
