id,listingType,url,price,tagClassName,tagText,date,street,suburb,state,postcode,lat,lng,beds,baths,parking,propertyType,propertyTypeFormatted,isRural,landSize,landUnit,isRetirement
2018194239,listing,/koetong-vic-3704-2018194239,Price Withheld,is-sold,Sold by private treaty 27 Feb 2023,20230227,NaN,KOETONG,VIC,3704,-36.1192,147.530624,3,3,3,AcreageSemiRural,Acreage / Semi-Rural,True,1.21,ha,False
2010936251,listing,/6658-murray-valley-highway-koetong-vic-3704-2010936251,479000,is-sold,Sold by private treaty 29 Aug 2014,20140829,6658 Murray Valley Highway,KOETONG,VIC,3704,-36.1404762,147.445328,3,3,3,Rural,Rural,True,40.47,ha,False
2012422638,listing,/56-keadys-rd-koetong-vic-3704-2012422638,Price Withheld,is-sold,Sold at auction 21 Dec 2015,20151221,56 Keadys Rd,KOETONG,VIC,3704,-36.1236,147.490051,5,5,5,Rural,Rural,True,1016.57,ha,False
2012943844,listing,/6317-murray-valley-highway-koetong-vic-3704-2012943844,299000,is-sold,Sold by private treaty 05 Dec 2016,20161205,6317 Murray Valley Highway,KOETONG,VIC,3704,-36.15258,147.478317,3,3,3,Rural,Rural,True,7.0,ha,False
2013982493,listing,/-murray-valley-highway-koetong-vic-3704-2013982493,Price Withheld,is-sold,Sold by private treaty 30 Mar 2018,20180330,. Murray Valley Highway,KOETONG,VIC,3704,-36.1516762,147.479416,NaN,NaN,NaN,Rural,Rural,True,202.34,ha,False
2014788818,listing,/6193-murray-valley-highway-koetong-vic-3704-2014788818,425000,is-sold,Sold by private treaty 14 Feb 2019,20190214,6193 Murray Valley Highway,KOETONG,VIC,3704,-36.15442,147.489258,4,4,4,Rural,Rural,True,12.0,ha,False
2017883067,listing,/corner-of-bilbrough-road-and-murray-valley-highway-koetong-vic-3704-2017883067,Price Withheld,is-sold,Sold by private treaty 28 Sep 2022,20220928,Corner of Bilbrough Road and Murray Valley Highway,KOETONG,VIC,3704,-36.1526756,147.495956,NaN,NaN,NaN,Rural,Rural,True,0.0,m2,False
