id,listingType,url,price,tagClassName,tagText,date,street,suburb,state,postcode,lat,lng,beds,baths,parking,propertyType,propertyTypeFormatted,isRural,landSize,landUnit,isRetirement
2018311112,listing,/6-lindenell-drive-drouin-vic-3818-2018311112,1150000,is-sold,Sold by private treaty 28 Feb 2023,20230228,6 Lindenell Drive,DROUIN,VIC,3818,-38.10689,145.837357,5,5,5,House,House,False,5510,m2,False
2018332381,listing,/2-alf-court-drouin-vic-3818-2018332381,,is-sold,Sold by private treaty 28 Feb 2023,20230228,2 Alf Court,DROUIN,VIC,3818,-38.13941,145.85144,4,4,4,House,House,False,512,m2,False
2018213417,listing,/22-fairchild-street-drouin-vic-3818-2018213417,632000,is-sold,Sold by private treaty 27 Feb 2023,20230227,22 Fairchild Street,DROUIN,VIC,3818,-38.1446953,145.863037,3,3,3,House,House,False,705,m2,False
2018322283,listing,/21-lampard-road-drouin-vic-3818-2018322283,400000,is-sold,Sold by private treaty 27 Feb 2023,20230227,21 Lampard Road,DROUIN,VIC,3818,-38.13718,145.8521,2,2,2,House,House,False,691,m2,False
2018385170,listing,/181-old-telegraph-road-drouin-west-vic-3818-2018385170,,is-sold,Sold by private treaty 28 Feb 2023,20230228,181 Old Telegraph Road,DROUIN WEST,VIC,3818,-38.07647,145.919312,4,4,4,House,House,False,4006,m2,False
2018280817,listing,/46-fairway-drive-drouin-vic-3818-2018280817,1450000,is-sold,Sold by private treaty 02 Mar 2023,20230302,46 Fairway Drive,DROUIN,VIC,3818,-38.10616,145.825638,5,5,5,House,House,False,6719,m2,False
2018306572,listing,/4-203-princes-way-drouin-vic-3818-2018306572,215000,is-sold,Sold by private treaty 06 Mar 2023,20230306,4/203 Princes Way,DROUIN,VIC,3818,-38.1290779,145.849,1,1,1,ApartmentUnitFlat,Apartment / Unit / Flat,False,55,m2,False
2018004684,listing,/140-clarke-and-barr-road-jindivick-vic-3818-2018004684,1050000,is-sold,Sold by private treaty 17 Feb 2023,20230217,140 Clarke And Barr Road,JINDIVICK,VIC,3818,-38.05407,145.93335,3,1,2,House,House,True,10.12,ha,False
2018050767,listing,/129-gardner-and-holman-road-drouin-vic-3818-2018050767,,is-sold,Sold by private treaty 10 Feb 2023,20230210,129 Gardner And Holman Road,DROUIN,VIC,3818,-38.13224,145.823151,3,1,,AcreageSemiRural,Acreage / Semi-Rural,True,16.19,ha,False
2018071126,listing,/5-archer-court-drouin-vic-3818-2018071126,645000,is-sold,Sold by private treaty 17 Feb 2023,20230217,5 Archer Court,DROUIN,VIC,3818,-38.1338654,145.87204,3,2,2,House,House,False,819,m2,False
2018112255,listing,/84-longwarry-road-drouin-vic-3818-2018112255,587000,is-sold,Sold by private treaty 24 Feb 2023,20230224,84 Longwarry Road,DROUIN,VIC,3818,-38.1261978,145.8391,3,2,2,House,House,False,691,m2,False
2018214594,listing,/25-peachtree-drive-drouin-vic-3818-2018214594,735000,is-sold,Sold by private treaty 09 Feb 2023,20230209,25 Peachtree Drive,DROUIN,VIC,3818,-38.09827,145.825577,4,2,2,House,House,False,566,m2,False
2018251963,listing,/67-buln-buln-road-drouin-vic-3818-2018251963,555000,is-sold,Sold by private treaty 14 Feb 2023,20230214,67 Buln Buln Road,DROUIN,VIC,3818,-38.13539,145.869553,3,1,2,House,House,False,661,m2,False
2018257773,listing,/9-surman-court-drouin-vic-3818-2018257773,960000,is-sold,Sold by private treaty 13 Feb 2023,20230213,9 Surman Court,DROUIN,VIC,3818,-38.1156769,145.858124,3,1,2,House,House,True,1.01,ha,False
2018280675,listing,/3-ronalds-court-drouin-vic-3818-2018280675,470000,is-sold,Sold by private treaty 17 Feb 2023,20230217,3 Ronalds Court,DROUIN,VIC,3818,-38.1439247,145.854034,2,1,1,House,House,False,730,m2,False
2018285247,listing,/13-patison-court-drouin-vic-3818-2018285247,1200000,is-sold,Sold by private treaty 08 Feb 2023,20230208,13 Patison Court,DROUIN,VIC,3818,-38.1140938,145.835175,4,2,6,House,House,False,6487,m2,False
2018287703,listing,/3-33-albert-road-drouin-vic-3818-2018287703,365000,is-sold,Sold by private treaty 17 Feb 2023,20230217,3/33 Albert Road,DROUIN,VIC,3818,-38.1280327,145.855438,2,1,1,ApartmentUnitFlat,Apartment / Unit / Flat,False,0,m2,False
2018308096,listing,/10-eucalypt-court-drouin-vic-3818-2018308096,650000,is-sold,Sold by private treaty 09 Feb 2023,20230209,10 Eucalypt Court,DROUIN,VIC,3818,-38.12296,145.843918,3,2,2,House,House,False,612,m2,False
2018310428,listing,/6-edgar-street-drouin-vic-3818-2018310428,556000,is-sold,Sold by private treaty 23 Feb 2023,20230223,6 Edgar Street,DROUIN,VIC,3818,-38.11976,145.8453,3,1,1,House,House,False,724,m2,False
2018322686,listing,/6-shae-crescent-drouin-vic-3818-2018322686,670000,is-sold,Sold by private treaty 22 Feb 2023,20230222,6 Shae Crescent,DROUIN,VIC,3818,-38.1401672,145.847809,3,2,3,House,House,False,752,m2,False
2017797623,listing,/lot-2-95-binbeal-road-drouin-vic-3818-2017797623,740000,is-sold,Sold by private treaty 06 Feb 2023,20230206,"Lot 2, 95 Binbeal Road",DROUIN,VIC,3818,-38.1263428,145.83551,3,1,4,House,House,False,4000,m2,False
2017885196,listing,/71-church-street-drouin-vic-3818-2017885196,,is-sold,Sold by private treaty 07 Feb 2023,20230207,71 Church Street,DROUIN,VIC,3818,-38.13141,145.8487,4,2,3,House,House,False,640,m2,False
2017888532,listing,/5-72-weebar-road-drouin-vic-3818-2017888532,449000,is-sold,Sold by private treaty 02 Feb 2023,20230202,5/72 Weebar Road,DROUIN,VIC,3818,-38.14857,145.854019,,,,VacantLand,Vacant land,False,895,m2,False
2017947631,listing,/12-6b-hatfield-drive-drouin-vic-3818-2017947631,445000,is-sold,Sold by private treaty 13 Jan 2023,20230113,12/6B Hatfield Drive,DROUIN,VIC,3818,-38.1429367,145.851181,3,1,2,ApartmentUnitFlat,Apartment / Unit / Flat,False,260,m2,False
2018028098,listing,/9-calway-street-drouin-vic-3818-2018028098,475000,is-sold,Sold by private treaty 25 Jan 2023,20230125,9 Calway Street,DROUIN,VIC,3818,-38.14022,145.872559,3,2,1,House,House,False,462,m2,False
2018042097,listing,/59-harmon-drive-drouin-vic-3818-2018042097,242500,is-sold,Sold by private treaty 07 Feb 2023,20230207,59 Harmon Drive,DROUIN,VIC,3818,-38.1301765,145.870316,,,,VacantLand,Vacant land,False,366,m2,False
2018070689,listing,/2-buscombe-crescent-drouin-vic-3818-2018070689,280000,is-sold,Sold by private treaty 03 Feb 2023,20230203,2 Buscombe Crescent,DROUIN,VIC,3818,-38.1293945,145.863632,,,,VacantLand,Vacant land,False,666,m2,False
2018072664,listing,/12-aaron-court-drouin-vic-3818-2018072664,225000,is-sold,Sold by private treaty 06 Feb 2023,20230206,12 Aaron Court,DROUIN,VIC,3818,-38.1435852,145.86319,,,,VacantLand,Vacant land,False,577,m2,False
2018090925,listing,/4-tracie-court-drouin-vic-3818-2018090925,535000,is-sold,Sold by private treaty 07 Feb 2023,20230207,4 Tracie Court,DROUIN,VIC,3818,-38.1387444,145.8703,3,2,3,House,House,False,856,m2,False
2018091707,listing,/11-todman-street-drouin-vic-3818-2018091707,650000,is-sold,Sold by private treaty 31 Jan 2023,20230131,11 Todman Street,DROUIN,VIC,3818,-38.12904,145.864792,4,2,2,House,House,False,666,m2,False
2018133713,listing,/107-north-jindivick-road-jindivick-vic-3818-2018133713,,is-sold,Sold by private treaty 02 Feb 2023,20230202,107 North Jindivick Road,JINDIVICK,VIC,3818,-38.0151863,145.897888,3,1,2,House,House,True,44.52,ha,False
2018145955,listing,/2656-westernport-road-ripplebrook-vic-3818-2018145955,1350000,is-sold,Sold by private treaty 27 Jan 2023,20230127,2656 Westernport Road,RIPPLEBROOK,VIC,3818,-38.1806221,145.784439,5,2,5,AcreageSemiRural,Acreage / Semi-Rural,True,7.22,ha,False
2018155351,listing,/5-fairchild-street-drouin-vic-3818-2018155351,430000,is-sold,Sold by private treaty 07 Feb 2023,20230207,5 Fairchild Street,DROUIN,VIC,3818,-38.14416,145.861649,3,1,2,House,House,False,669,m2,False
2018158272,listing,/9-park-view-road-drouin-vic-3818-2018158272,495000,is-sold,Sold by private treaty 17 Jan 2023,20230117,9 Park View Road,DROUIN,VIC,3818,-38.1403046,145.858826,3,2,2,House,House,False,506,m2,False
2018208071,listing,/7-flax-mill-close-drouin-vic-3818-2018208071,730000,is-sold,Sold by private treaty 27 Jan 2023,20230127,7 Flax Mill Close,DROUIN,VIC,3818,-38.1386681,145.85231,3,2,3,House,House,False,895,m2,False
2018223237,listing,/24-silvertown-road-drouin-vic-3818-2018223237,775000,is-sold,Sold by private treaty 17 Jan 2023,20230117,24 Silvertown Road,DROUIN,VIC,3818,-38.122406,145.860428,4,3,2,House,House,False,692,m2,False
2018240916,listing,/22-hatfield-drive-drouin-vic-3818-2018240916,650000,is-sold,Sold by private treaty 18 Jan 2023,20230118,22 Hatfield Drive,DROUIN,VIC,3818,-38.1423035,145.848068,4,2,2,House,House,False,794,m2,False
2018256027,listing,/16-16-telford-circuit-drouin-vic-3818-2018256027,425000,is-sold,Sold by private treaty 03 Feb 2023,20230203,16/16 Telford Circuit,DROUIN,VIC,3818,-38.1223373,145.849365,2,1,1,ApartmentUnitFlat,Apartment / Unit / Flat,False,0,m2,False
2018273760,listing,/57-buln-buln-road-drouin-vic-3818-2018273760,455000,is-sold,Sold by private treaty 20 Jan 2023,20230120,57 Buln Buln Road,DROUIN,VIC,3818,-38.1357422,145.868561,2,1,1,House,House,False,600,m2,False
2018309797,listing,/16-greenland-drive-drouin-vic-3818-2018309797,1790000,is-sold,Sold by private treaty 08 Feb 2023,20230208,16 Greenland Drive,DROUIN,VIC,3818,-38.1253357,145.870148,5,2,8,House,House,True,1.09,ha,False
2017343918,listing,/25-robin-hood-way-drouin-vic-3818-2017343918,,is-sold,Sold by private treaty 06 Jan 2023,20230106,25 Robin Hood Way,DROUIN,VIC,3818,-38.099987,145.846481,5,2,5,House,House,False,4066,m2,False
2018008983,listing,/73-main-neerim-road-drouin-vic-3818-2018008983,785000,is-sold,Sold by private treaty 29 Dec 2022,20221229,73 Main Neerim Road,DROUIN,VIC,3818,-38.1170044,145.846863,2,1,,House,House,False,4400,m2,False
2018017921,listing,/16-rivendale-crescent-drouin-vic-3818-2018017921,605000,is-sold,Sold by private treaty 06 Jan 2023,20230106,16 Rivendale Crescent,DROUIN,VIC,3818,-38.1253433,145.841644,3,2,2,House,House,False,516,m2,False
2018082651,listing,/13-bushy-park-court-drouin-vic-3818-2018082651,360000,is-sold,Sold by private treaty 09 Jan 2023,20230109,13 Bushy Park Court,DROUIN,VIC,3818,-38.138134,145.880966,,,,VacantLand,Vacant land,False,1058,m2,False
2018099983,listing,/163-princes-way-drouin-vic-3818-2018099983,880000,is-sold,Sold by private treaty 12 Jan 2023,20230112,163 Princes Way,DROUIN,VIC,3818,-38.13208,145.8534,5,3,2,House,House,False,1059,m2,False
2018108902,listing,/24-robin-hood-way-drouin-vic-3818-2018108902,1270000,is-sold,Sold by private treaty 22 Dec 2022,20221222,24 Robin Hood Way,DROUIN,VIC,3818,-38.1003151,145.846756,4,2,3,House,House,False,4046,m2,False
2018126479,listing,/2-water-cress-court-drouin-vic-3818-2018126479,768000,is-sold,Sold by private treaty 11 Jan 2023,20230111,2 Water Cress Court,DROUIN,VIC,3818,-38.13736,145.876923,4,2,4,House,House,False,1116,m2,False
2018134805,listing,/7-mayfair-drive-drouin-vic-3818-2018134805,755000,is-sold,Sold by private treaty 10 Jan 2023,20230110,7 Mayfair Drive,DROUIN,VIC,3818,-38.1465073,145.859634,5,2,4,House,House,False,824,m2,False
2018141323,listing,/90-mcneilly-road-drouin-vic-3818-2018141323,471000,is-sold,Sold by private treaty 22 Dec 2022,20221222,90 McNeilly Road,DROUIN,VIC,3818,-38.1267166,145.858429,2,1,1,House,House,False,639,m2,False
2018176580,listing,/8-12-mckindlay-street-drouin-vic-3818-2018176580,505000,is-sold,Sold by private treaty 19 Dec 2022,20221219,8/12 Mckindlay Street,DROUIN,VIC,3818,-38.14475,145.853149,3,2,2,ApartmentUnitFlat,Apartment / Unit / Flat,False,0,m2,False
2018185531,listing,/5-oddy-street-drouin-vic-3818-2018185531,475000,is-sold,Sold by private treaty 19 Dec 2022,20221219,5 Oddy Street,DROUIN,VIC,3818,-38.1420326,145.861374,3,1,1,House,House,False,677,m2,False
2018192491,listing,/3-king-parrot-boulevard-drouin-vic-3818-2018192491,700000,is-sold,Sold by private treaty 16 Dec 2022,20221216,3 King Parrot Boulevard,DROUIN,VIC,3818,-38.151783,145.854813,4,2,2,House,House,False,519,m2,False
2018211861,listing,/30-pepper-crescent-drouin-vic-3818-2018211861,612500,is-sold,Sold by private treaty 16 Dec 2022,20221216,30 Pepper Crescent,DROUIN,VIC,3818,-38.14052,145.842941,3,2,4,House,House,False,589,m2,False
2018213416,listing,/28-helen-street-drouin-vic-3818-2018213416,551000,is-sold,Sold by private treaty 15 Dec 2022,20221215,28 Helen Street,DROUIN,VIC,3818,-38.1379623,145.847824,3,1,1,House,House,False,677,m2,False
2018220070,listing,/95-harmon-drive-drouin-vic-3818-2018220070,330000,is-sold,Sold by private treaty 20 Dec 2022,20221220,95 Harmon Drive,DROUIN,VIC,3818,-38.1301765,145.870316,,,,VacantLand,Vacant land,False,572,m2,False
2018229478,listing,/55-monica-drive-drouin-vic-3818-2018229478,825000,is-sold,Sold by private treaty 21 Dec 2022,20221221,55 Monica Drive,DROUIN,VIC,3818,-38.12463,145.84993,3,2,4,House,House,False,931,m2,False
2018255149,listing,/3-kingston-heath-drive-drouin-vic-3818-2018255149,940000,is-sold,Sold by private treaty 19 Dec 2022,20221219,3 Kingston Heath Drive,DROUIN,VIC,3818,-37.9558334,145.085831,4,2,2,House,House,False,886,m2,False
2018256930,listing,/1-275a-princes-way-drouin-vic-3818-2018256930,490000,is-sold,Sold by private treaty 23 Dec 2022,20221223,1/275a Princes Way,DROUIN,VIC,3818,-38.1219864,145.844788,3,2,1,Townhouse,Townhouse,False,342,m2,False
2018268850,listing,/1-darnum-street-drouin-vic-3818-2018268850,512999,is-sold,Sold by private treaty 04 Jan 2023,20230104,1 Darnum Street,DROUIN,VIC,3818,-38.13622,145.8653,3,2,2,House,House,False,918,m2,False
2018287114,listing,/2-275a-princes-way-drouin-vic-3818-2018287114,490000,is-sold,Sold by private treaty 20 Dec 2022,20221220,2/275a Princes Way,DROUIN,VIC,3818,-38.1219864,145.844788,3,2,1,Townhouse,Townhouse,False,346,m2,False
2017703462,listing,/4-wallace-crescent-drouin-vic-3818-2017703462,780000,is-sold,Sold by private treaty 24 Nov 2022,20221124,4 Wallace Crescent,DROUIN,VIC,3818,-38.11887,145.849167,3,2,6,House,House,False,890,m2,False
2017948108,listing,/6-king-parrot-boulevard-drouin-vic-3818-2017948108,800000,is-sold,Sold by private treaty 15 Dec 2022,20221215,6 King Parrot Boulevard,DROUIN,VIC,3818,-38.15222,145.854675,4,2,2,House,House,False,612,m2,False
2017983971,listing,/12-rivendale-crescent-drouin-vic-3818-2017983971,535000,is-sold,Sold by private treaty 06 Dec 2022,20221206,12 Rivendale Crescent,DROUIN,VIC,3818,-38.1256676,145.841476,3,2,2,House,House,False,515,m2,False
2017992989,listing,/62-longwarry-road-drouin-vic-3818-2017992989,525000,is-sold,Sold by private treaty 18 Nov 2022,20221118,62 Longwarry Road,DROUIN,VIC,3818,-38.1267624,145.841019,3,1,1,House,House,False,1171,m2,False
2018027953,listing,/5-bonnyview-rise-drouin-vic-3818-2018027953,575000,is-sold,Sold by private treaty 11 Dec 2022,20221211,5 Bonnyview Rise,DROUIN,VIC,3818,-38.11788,145.821442,,,,VacantLand,Vacant land,False,4234,m2,False
2018040346,listing,/39-wiltons-crescent-drouin-vic-3818-2018040346,694000,is-sold,Sold by private treaty 28 Nov 2022,20221128,39 Wiltons Crescent,DROUIN,VIC,3818,-38.1213341,145.8628,4,2,3,House,House,False,779,m2,False
2018080169,listing,/3-11-vivian-court-drouin-vic-3818-2018080169,430000,is-sold,Sold by private treaty 05 Dec 2022,20221205,3/11 Vivian Court,DROUIN,VIC,3818,-38.1428337,145.863892,3,2,2,ApartmentUnitFlat,Apartment / Unit / Flat,False,299,m2,False
2018089423,listing,/3-orchard-court-drouin-vic-3818-2018089423,715000,is-sold,Sold by private treaty 30 Nov 2022,20221130,3 Orchard Court,DROUIN,VIC,3818,-38.1301842,145.860565,4,2,2,House,House,False,709,m2,False
2018139822,listing,/11-main-south-road-drouin-vic-3818-2018139822,620000,is-sold,Sold by private treaty 23 Nov 2022,20221123,11 Main South Road,DROUIN,VIC,3818,-38.1388855,145.854736,5,2,1,House,House,False,796,m2,False
2018144296,listing,/160-princes-way-drouin-vic-3818-2018144296,765000,is-sold,Sold by private treaty 25 Nov 2022,20221125,160 Princes Way,DROUIN,VIC,3818,-38.1317139,145.851929,3,1,2,House,House,False,1791,m2,False
2018151882,listing,/90-kamanari-court-drouin-vic-3818-2018151882,1285000,is-sold,Sold by private treaty 28 Nov 2022,20221128,90 Kamanari Court,DROUIN,VIC,3818,-38.1278877,145.840347,4,2,4,House,House,False,4007,m2,False
2018159992,listing,/31-palladium-boulevard-drouin-vic-3818-2018159992,755000,is-sold,Sold by private treaty 18 Nov 2022,20221118,31 Palladium Boulevard,DROUIN,VIC,3818,-38.1127,145.8393,4,2,2,House,House,False,592,m2,False
2018165309,listing,/4-165-princes-way-drouin-vic-3818-2018165309,500000,is-sold,Sold by private treaty 18 Nov 2022,20221118,4/165 Princes Way,DROUIN,VIC,3818,-38.1315536,145.853867,2,1,1,ApartmentUnitFlat,Apartment / Unit / Flat,False,0,m2,False
2018186498,listing,/6-fuhrmann-court-drouin-vic-3818-2018186498,815000,is-sold,Sold by private treaty 30 Nov 2022,20221130,6 Fuhrmann Court,DROUIN,VIC,3818,-38.133564,145.862839,4,2,2,House,House,False,1160,m2,False
2018195190,listing,/31-king-parrot-boulevard-drouin-vic-3818-2018195190,570000,is-sold,Sold by private treaty 29 Nov 2022,20221129,31 King Parrot Boulevard,DROUIN,VIC,3818,-38.1521378,145.85759,4,2,2,House,House,False,482,m2,False
2018196348,listing,/67-harmon-drive-drouin-vic-3818-2018196348,245000,is-sold,Sold by private treaty 20 Nov 2022,20221120,67 Harmon Drive,DROUIN,VIC,3818,-38.1301765,145.870316,,,,VacantLand,Vacant land,False,338,m2,False
2018206979,listing,/21-rimfire-avenue-drouin-vic-3818-2018206979,560000,is-sold,Sold by private treaty 05 Dec 2022,20221205,21 Rimfire Avenue,DROUIN,VIC,3818,-38.1313629,145.870209,2,2,2,House,House,False,686,m2,False
2018226396,listing,/14-main-neerim-road-drouin-vic-3818-2018226396,510000,is-sold,Sold by private treaty 13 Dec 2022,20221213,14 Main Neerim Road,DROUIN,VIC,3818,-38.1223,145.84613,2,1,1,House,House,False,664,m2,False
2018247136,listing,/14-gary-avenue-drouin-vic-3818-2018247136,778000,is-sold,Sold by private treaty 09 Dec 2022,20221209,14 Gary Avenue,DROUIN,VIC,3818,-38.13984,145.843628,4,3,2,House,House,False,513,m2,False
2017631892,listing,/7-harrods-close-drouin-vic-3818-2017631892,1200000,is-sold,Sold by private treaty 11 Nov 2022,20221111,7 Harrods Close,DROUIN,VIC,3818,-38.1380844,145.855408,4,2,2,House,House,False,1004,m2,False
2017887592,listing,/18-monica-drive-drouin-vic-3818-2017887592,285000,is-sold,Sold by private treaty 11 Nov 2022,20221111,18 Monica Drive,DROUIN,VIC,3818,-38.1226921,145.8513,,,,VacantLand,Vacant land,False,798,m2,False
2017931886,listing,/4-22a-albert-road-drouin-vic-3818-2017931886,427000,is-sold,Sold by private treaty 04 Nov 2022,20221104,4/22A Albert Road,DROUIN,VIC,3818,-38.1296463,145.855682,2,1,1,ApartmentUnitFlat,Apartment / Unit / Flat,False,252,m2,False
2017958852,listing,/3-1-fuhrmann-court-drouin-vic-3818-2017958852,400000,is-sold,Sold by private treaty 04 Nov 2022,20221104,3/1 Fuhrmann Court,DROUIN,VIC,3818,-38.1342163,145.862411,2,1,1,ApartmentUnitFlat,Apartment / Unit / Flat,False,257,m2,False
2017973394,listing,/2-mcdonald-street-drouin-vic-3818-2017973394,590000,is-sold,Sold by private treaty 04 Nov 2022,20221104,2 McDonald Street,DROUIN,VIC,3818,-38.12774,145.847824,4,2,1,House,House,False,553,m2,False
2017975369,listing,/2-emma-close-drouin-vic-3818-2017975369,549000,is-sold,Sold by private treaty 28 Oct 2022,20221028,2 Emma Close,DROUIN,VIC,3818,-38.1393661,145.848083,3,2,2,House,House,False,379,m2,False
2017982597,listing,/23-johnson-avenue-drouin-vic-3818-2017982597,585000,is-sold,Sold by private treaty 17 Nov 2022,20221117,23 Johnson Avenue,DROUIN,VIC,3818,-38.1234,145.847046,4,2,2,House,House,False,772,m2,False
2017990680,listing,/6-holstein-street-drouin-vic-3818-2017990680,275500,is-sold,Sold by private treaty 02 Nov 2022,20221102,6 Holstein Street,DROUIN,VIC,3818,-38.1380844,145.855408,,,,VacantLand,Vacant land,False,400,m2,False
2018031839,listing,/15-springwater-drive-drouin-vic-3818-2018031839,565000,is-sold,Sold by private treaty 25 Oct 2022,20221025,15 Springwater Drive,DROUIN,VIC,3818,-38.13126,145.842529,4,2,2,House,House,False,570,m2,False
2018047825,listing,/114-longwarry-road-drouin-vic-3818-2018047825,517500,is-sold,Sold by private treaty 17 Nov 2022,20221117,114 Longwarry Road,DROUIN,VIC,3818,-38.1250763,145.836288,3,2,4,House,House,False,893,m2,False
2018049700,listing,/13-emma-close-drouin-vic-3818-2018049700,650000,is-sold,Sold by private treaty 03 Nov 2022,20221103,13 Emma Close,DROUIN,VIC,3818,-38.13917,145.8486,3,2,2,House,House,False,615,m2,False
2018059911,listing,/46-norman-road-drouin-vic-3818-2018059911,,is-sold,Sold by private treaty 02 Nov 2022,20221102,46 Norman Road,DROUIN,VIC,3818,-38.147377,145.860611,,,,VacantLand,Vacant land,False,4020,m2,False
2018061071,listing,/94-kingston-heath-drive-drouin-vic-3818-2018061071,1450000,is-sold,Sold by private treaty 03 Nov 2022,20221103,94 Kingston Heath Drive,DROUIN,VIC,3818,-38.1380844,145.855408,3,2,6,House,House,False,2214,m2,False
2018062860,listing,/drouin-vic-3818-2018062860,550000,is-sold,Sold by private treaty 21 Oct 2022,20221021,,DROUIN,VIC,3818,-38.13427,145.847137,3,1,3,House,House,False,680,m2,False
2018071607,listing,/8-pearson-road-drouin-vic-3818-2018071607,552000,is-sold,Sold by private treaty 09 Nov 2022,20221109,8 Pearson Road,DROUIN,VIC,3818,-38.1397,145.8537,3,2,1,House,House,False,360,m2,False
2018089420,listing,/31-buln-buln-road-drouin-vic-3818-2018089420,663000,is-sold,Sold by private treaty 18 Nov 2022,20221118,31 Buln Buln Road,DROUIN,VIC,3818,-38.13701,145.865326,4,2,2,House,House,False,480,m2,False
2018091269,listing,/3-3-lindenell-drive-drouin-vic-3818-2018091269,1200000,is-sold,Sold by private treaty 03 Nov 2022,20221103,3/3 Lindenell Drive,DROUIN,VIC,3818,-38.10774,145.835617,4,2,2,House,House,False,3936,m2,False
2018112753,listing,/1-12-hearn-street-drouin-vic-3818-2018112753,475000,is-sold,Sold by private treaty 12 Nov 2022,20221112,1/12 Hearn Street,DROUIN,VIC,3818,-38.1264954,145.845154,3,1,2,House,House,False,411,m2,False
2018125730,listing,/9-cloverleaf-crescent-drouin-vic-3818-2018125730,640000,is-sold,Sold by private treaty 31 Oct 2022,20221031,9 Cloverleaf Crescent,DROUIN,VIC,3818,-38.15538,145.856064,3,2,2,House,House,False,993,m2,False
2018125876,listing,/5-thames-avenue-drouin-vic-3818-2018125876,710000,is-sold,Sold by private treaty 17 Nov 2022,20221117,5 Thames Avenue,DROUIN,VIC,3818,-38.12043,145.861465,4,2,2,House,House,False,780,m2,False
2017314826,listing,/49-shannon-court-drouin-vic-3818-2017314826,350000,is-sold,Sold by private treaty 18 Oct 2022,20221018,49 Shannon Court,DROUIN,VIC,3818,-38.13039,145.864365,,,,VacantLand,Vacant land,False,836,m2,False
2017314895,listing,/50-shannon-court-drouin-vic-3818-2017314895,370000,is-sold,Sold by private treaty 11 Oct 2022,20221011,50 Shannon Court,DROUIN,VIC,3818,-38.13039,145.864365,,,,VacantLand,Vacant land,False,926,m2,False
2017695159,listing,/54-lot-504-palladium-boulevard-drouin-vic-3818-2017695159,,is-sold,Sold by private treaty 17 Oct 2022,20221017,54 (lot 504) Palladium Boulevard,DROUIN,VIC,3818,-38.1121941,145.838974,,,,VacantLand,Vacant land,False,666,m2,False
2017899720,listing,/40-buln-buln-road-drouin-vic-3818-2017899720,485000,is-sold,Sold by private treaty 10 Oct 2022,20221010,40 Buln Buln Road,DROUIN,VIC,3818,-38.1370621,145.8663,3,1,2,House,House,False,724,m2,False
2017905173,listing,/15-cinnamon-street-drouin-vic-3818-2017905173,667000,is-sold,Sold by private treaty 07 Oct 2022,20221007,15 Cinnamon Street,DROUIN,VIC,3818,-38.1528168,145.855743,4,2,2,House,House,False,512,m2,False
2017906413,listing,/60-bexley-boulevard-drouin-vic-3818-2017906413,325000,is-sold,Sold by private treaty 10 Oct 2022,20221010,60 Bexley Boulevard,DROUIN,VIC,3818,-38.1222038,145.86409,,,,VacantLand,Vacant land,False,828,m2,False
2017945393,listing,/3-4-norman-road-drouin-vic-3818-2017945393,435000,is-sold,Sold by private treaty 07 Oct 2022,20221007,3/4 Norman Road,DROUIN,VIC,3818,-38.14487,145.861191,2,1,1,ApartmentUnitFlat,Apartment / Unit / Flat,False,0,m2,False
2017978704,listing,/3-cycad-street-drouin-vic-3818-2017978704,700000,is-sold,Sold by private treaty 19 Oct 2022,20221019,3 Cycad Street,DROUIN,VIC,3818,-38.1380844,145.855408,4,2,2,House,House,False,0,m2,False
2018019371,listing,/4-7-9-princes-way-drouin-vic-3818-2018019371,395000,is-sold,Sold by private treaty 14 Oct 2022,20221014,4/7-9 Princes Way,DROUIN,VIC,3818,-38.1371231,145.860336,2,1,1,ApartmentUnitFlat,Apartment / Unit / Flat,False,0,m2,False
2018022907,listing,/11-appleporch-way-drouin-vic-3818-2018022907,620000,is-sold,Sold by private treaty 10 Oct 2022,20221010,11 Appleporch Way,DROUIN,VIC,3818,-38.1281624,145.861313,4,2,2,House,House,False,630,m2,False
2018036246,listing,/27-neerim-street-drouin-vic-3818-2018036246,636000,is-sold,Sold by private treaty 14 Oct 2022,20221014,27 Neerim Street,DROUIN,VIC,3818,-38.1334229,145.864471,4,2,1,House,House,False,742,m2,False
2018065409,listing,/6-bambra-court-drouin-vic-3818-2018065409,490000,is-sold,Sold by private treaty 18 Oct 2022,20221018,6 Bambra Court,DROUIN,VIC,3818,-38.1320534,145.846436,2,1,1,House,House,False,900,m2,False
2018066989,listing,/19-sutherland-way-drouin-vic-3818-2018066989,470000,is-sold,Sold by private treaty 14 Oct 2022,20221014,19 Sutherland Way,DROUIN,VIC,3818,-38.12975,145.84166,2,1,1,House,House,False,352,m2,False
2018078003,listing,/93-cook-street-drouin-vic-3818-2018078003,585000,is-sold,Sold by private treaty 17 Oct 2022,20221017,93 Cook Street,DROUIN,VIC,3818,-38.13881,145.843964,2,2,2,House,House,False,662,m2,False
2018084240,listing,/6-7-9-princes-way-drouin-vic-3818-2018084240,375000,is-sold,Sold by private treaty 20 Oct 2022,20221020,6/7-9 Princes Way,DROUIN,VIC,3818,-38.1369,145.860336,2,1,1,House,House,False,187,m2,False
2018089784,listing,/15-aaron-court-drouin-vic-3818-2018089784,667000,is-sold,Sold by private treaty 20 Oct 2022,20221020,15 Aaron Court,DROUIN,VIC,3818,-38.1431961,145.862839,3,2,2,House,House,False,802,m2,False
2018090348,listing,/12-royal-pines-drive-drouin-vic-3818-2018090348,640000,is-sold,Sold by private treaty 21 Oct 2022,20221021,12 Royal Pines Drive,DROUIN,VIC,3818,-38.1380844,145.855408,,,,VacantLand,Vacant land,False,0,m2,False
2018099254,listing,/11-sherwood-court-drouin-vic-3818-2018099254,1155000,is-sold,Sold by private treaty 20 Oct 2022,20221020,11 Sherwood Court,DROUIN,VIC,3818,-38.1037941,145.843018,4,2,6,House,House,False,5043,m2,False
2018114500,listing,/5-94-lampard-road-drouin-vic-3818-2018114500,440000,is-sold,Sold by private treaty 14 Oct 2022,20221014,5/94 Lampard Road,DROUIN,VIC,3818,-38.1371078,145.844574,2,1,1,ApartmentUnitFlat,Apartment / Unit / Flat,False,158,m2,False
2018119552,listing,/44-montague-street-drouin-vic-3818-2018119552,650000,is-sold,Sold by private treaty 21 Oct 2022,20221021,44 Montague Street,DROUIN,VIC,3818,-38.1397743,145.85965,3,2,2,House,House,False,540,m2,False
2014553705,listing,/21-lot-10-timbertop-crescent-drouin-vic-3818-2014553705,520000,is-sold,Sold by private treaty 29 Sep 2022,20220929,21 (LOT 10) Timbertop Crescent,DROUIN,VIC,3818,-38.14022,145.850922,,,,NewLand,New land,False,954,m2,False
2017803635,listing,/2505-westernport-road-ripplebrook-vic-3818-2017803635,1150000,is-sold,Sold by private treaty 16 Sep 2022,20220916,2505 Westernport Road,RIPPLEBROOK,VIC,3818,-38.19203,145.775742,2,1,2,RuralLifestyle,Rural Lifestyle,True,31.57,ha,False
2017813434,listing,/2-bushy-park-court-drouin-vic-3818-2017813434,910000,is-sold,Sold by private treaty 28 Sep 2022,20220928,2 Bushy Park Court,DROUIN,VIC,3818,-38.13896,145.880188,3,2,2,House,House,False,1112,m2,False
2017833785,listing,/3-18-hopetoun-road-drouin-vic-3818-2017833785,370000,is-sold,Sold by private treaty 30 Sep 2022,20220930,3/18 Hopetoun Road,DROUIN,VIC,3818,-38.1366272,145.863281,2,1,1,ApartmentUnitFlat,Apartment / Unit / Flat,False,241,m2,False
2017856804,listing,/1-princes-avenue-drouin-vic-3818-2017856804,552000,is-sold,Sold by private treaty 26 Sep 2022,20220926,1 Princes Avenue,DROUIN,VIC,3818,-38.13886,145.862869,3,2,2,House,House,False,0,m2,False
2017886011,listing,/21a-pepperell-drive-drouin-vic-3818-2017886011,1129000,is-sold,Sold by private treaty 16 Sep 2022,20220916,21A Pepperell Drive,DROUIN,VIC,3818,-38.1078758,145.854355,4,2,7,House,House,False,4007,m2,False
2017892136,listing,/550-drouin-korumburra-road-drouin-south-vic-3818-2017892136,1070000,is-sold,Sold by private treaty 27 Sep 2022,20220927,550 Drouin-Korumburra Road,DROUIN SOUTH,VIC,3818,-38.217308,145.80072,4,3,2,House,House,True,2.01,ha,False
2017916635,listing,/4-kakoura-street-drouin-vic-3818-2017916635,720000,is-sold,Sold by private treaty 19 Sep 2022,20220919,4 Kakoura Street,DROUIN,VIC,3818,-38.1524,145.856552,4,2,3,House,House,False,555,m2,False
2017927420,listing,/14-mathew-court-drouin-vic-3818-2017927420,650000,is-sold,Sold by private treaty 16 Sep 2022,20220916,14 Mathew Court,DROUIN,VIC,3818,-38.1418076,145.8636,4,2,2,House,House,False,0,m2,False
2017960375,listing,/20-king-parrot-boulevard-drouin-vic-3818-2017960375,760000,is-sold,Sold by private treaty 30 Sep 2022,20220930,20 King Parrot Boulevard,DROUIN,VIC,3818,-38.1524849,145.856033,4,2,2,House,House,False,544,m2,False
2017976783,listing,/1-3-bambra-court-drouin-vic-3818-2017976783,415000,is-sold,Sold by private treaty 04 Oct 2022,20221004,1/3 Bambra Court,DROUIN,VIC,3818,-38.131546,145.846313,2,1,1,ApartmentUnitFlat,Apartment / Unit / Flat,False,194,m2,False
2017986042,listing,/2-bridges-street-drouin-vic-3818-2017986042,390000,is-sold,Sold by private treaty 26 Sep 2022,20220926,2 Bridges Street,DROUIN,VIC,3818,-38.1380844,145.855408,,,,VacantLand,Vacant land,False,646,m2,False
2017994994,listing,/59-church-street-drouin-vic-3818-2017994994,450000,is-sold,Sold by private treaty 15 Sep 2022,20220915,59 Church Street,DROUIN,VIC,3818,-38.13223,145.849518,3,1,2,House,House,False,716,m2,False
2018018121,listing,/6-flax-mill-close-drouin-vic-3818-2018018121,575000,is-sold,Sold by private treaty 29 Sep 2022,20220929,6 Flax Mill Close,DROUIN,VIC,3818,-38.13845,145.85231,3,2,1,House,House,False,738,m2,False
2018047622,listing,/22-horsetail-way-drouin-vic-3818-2018047622,235000,is-sold,Sold by private treaty 21 Sep 2022,20220921,22 Horsetail Way,DROUIN,VIC,3818,-38.1512756,145.855118,,,,VacantLand,Vacant land,False,381,m2,False
2018050176,listing,/25-cloverleaf-crescent-drouin-vic-3818-2018050176,695000,is-sold,Sold by private treaty 17 Sep 2022,20220917,25 Cloverleaf Crescent,DROUIN,VIC,3818,-38.15538,145.856064,4,2,2,House,House,False,512,m2,False
2018050860,listing,/48-manikato-drive-drouin-vic-3818-2018050860,761000,is-sold,Sold by private treaty 19 Sep 2022,20220919,48 Manikato Drive,DROUIN,VIC,3818,-38.12772,145.868256,4,2,3,House,House,False,712,m2,False
2018053667,listing,/23-young-street-drouin-vic-3818-2018053667,457000,is-sold,Sold by private treaty 03 Oct 2022,20221003,23 Young Street,DROUIN,VIC,3818,-38.1359558,145.861389,2,1,1,House,House,False,360,m2,False
2018064586,listing,/105-ringin-road-drouin-south-vic-3818-2018064586,1300000,is-sold,Sold by private treaty 04 Oct 2022,20221004,105 Ringin Road,DROUIN SOUTH,VIC,3818,-38.16394,145.817215,4,2,6,House,House,True,1.16,ha,False
2018074172,listing,/12-waddell-road-drouin-vic-3818-2018074172,1000000,is-sold,Sold by private treaty 30 Sep 2022,20220930,12 Waddell Road,DROUIN,VIC,3818,-38.11766,145.850388,4,2,5,House,House,False,5157,m2,False
2017066311,listing,/10-walton-road-drouin-west-vic-3818-2017066311,,is-sold,Sold by private treaty 07 Sep 2022,20220907,10 Walton Road,DROUIN WEST,VIC,3818,-38.1005974,145.859283,,,,Rural,Rural,True,18.82,ha,False
2017603908,listing,/32-byron-drive-drouin-vic-3818-2017603908,720000,is-sold,Sold by private treaty 14 Sep 2022,20220914,32 Byron Drive,DROUIN,VIC,3818,-38.1429672,145.841858,4,2,2,House,House,False,644,m2,False
2017670426,listing,/6-gary-avenue-drouin-vic-3818-2017670426,720000,is-sold,Sold by private treaty 08 Sep 2022,20220908,6 Gary Avenue,DROUIN,VIC,3818,-38.1392632,145.843735,3,2,2,House,House,False,608,m2,False
2017730997,listing,/6-33-albert-road-drouin-vic-3818-2017730997,355000,is-sold,Sold by private treaty 13 Sep 2022,20220913,6/33 Albert Road,DROUIN,VIC,3818,-38.1282,145.8553,2,1,1,ApartmentUnitFlat,Apartment / Unit / Flat,False,117,m2,False
2017853086,listing,/26-bunyip-drive-drouin-vic-3818-2017853086,895000,is-sold,Sold by private treaty 09 Sep 2022,20220909,26 Bunyip Drive,DROUIN,VIC,3818,-38.12454,145.858322,4,2,6,House,House,False,899,m2,False
2017862710,listing,/19-boanyoo-rd-drouin-vic-3818-2017862710,315000,is-sold,Sold by private treaty 08 Sep 2022,20220908,19 Boanyoo Rd,DROUIN,VIC,3818,-38.1272774,145.859131,,,,DevelopmentSite,Development Site,False,752,m2,False
2017875936,listing,/182-hopetoun-road-drouin-vic-3818-2017875936,1190000,is-sold,Sold by private treaty 06 Sep 2022,20220906,182 Hopetoun Road,DROUIN,VIC,3818,-38.11993,145.866318,5,2,2,House,House,False,4116,m2,False
2017889745,listing,/4-davallia-crescent-drouin-vic-3818-2017889745,690000,is-sold,Sold by private treaty 31 Aug 2022,20220831,4 Davallia Crescent,DROUIN,VIC,3818,-38.1537476,145.8571,4,2,2,House,House,False,512,m2,False
2017896471,listing,/9-grant-street-drouin-vic-3818-2017896471,685000,is-sold,Sold by private treaty 14 Sep 2022,20220914,9 Grant Street,DROUIN,VIC,3818,-38.132206,145.856537,3,2,2,House,House,False,830,m2,False
2017912089,listing,/14-armstrong-avenue-drouin-vic-3818-2017912089,385000,is-sold,Sold by private treaty 05 Sep 2022,20220905,14 Armstrong Avenue,DROUIN,VIC,3818,-38.12919,145.852173,3,1,2,House,House,False,729,m2,False
2017913512,listing,/5-coconut-street-drouin-vic-3818-2017913512,340000,is-sold,Sold by private treaty 13 Sep 2022,20220913,5 Coconut Street,DROUIN,VIC,3818,-38.1515541,145.858948,,,,VacantLand,Vacant land,False,800,m2,False
2017915217,listing,/22-chaucer-way-drouin-vic-3818-2017915217,600000,is-sold,Sold by private treaty 08 Sep 2022,20220908,22 Chaucer Way,DROUIN,VIC,3818,-38.14401,145.842209,4,2,2,House,House,False,578,m2,False
2017917116,listing,/12-mineral-court-drouin-vic-3818-2017917116,670000,is-sold,Sold by private treaty 07 Sep 2022,20220907,12 Mineral Court,DROUIN,VIC,3818,-38.1407967,145.879028,6,3,2,House,House,False,782,m2,False
2017948248,listing,/4-park-street-drouin-vic-3818-2017948248,460000,is-sold,Sold by private treaty 14 Sep 2022,20220914,4 Park Street,DROUIN,VIC,3818,-38.1274834,145.854431,2,1,1,House,House,False,653,m2,False
2017966984,listing,/12-vivian-court-drouin-vic-3818-2017966984,620000,is-sold,Sold by private treaty 02 Sep 2022,20220902,12 Vivian Court,DROUIN,VIC,3818,-38.1427536,145.863571,3,2,5,House,House,False,1275,m2,False
2018004657,listing,/1-15-mcclure-street-drouin-vic-3818-2018004657,324000,is-sold,Sold by private treaty 15 Sep 2022,20220915,1/15 McClure Street,DROUIN,VIC,3818,-38.12513,145.842178,2,1,2,House,House,False,148,m2,False
2018004911,listing,/15-telford-circuit-drouin-vic-3818-2018004911,395000,is-sold,Sold by private treaty 05 Sep 2022,20220905,15 Telford Circuit,DROUIN,VIC,3818,-38.1224365,145.849442,2,1,1,House,House,False,171,m2,False
2018013037,listing,/43-summerhill-boulevard-drouin-vic-3818-2018013037,690000,is-sold,Sold by private treaty 31 Aug 2022,20220831,43 Summerhill Boulevard,DROUIN,VIC,3818,-38.1428947,145.842865,4,2,2,House,House,False,754,m2,False
2018029876,listing,/12-lardner-road-drouin-vic-3818-2018029876,485000,is-sold,Sold by private treaty 09 Sep 2022,20220909,12 Lardner Road,DROUIN,VIC,3818,-38.14145,145.857513,3,1,2,House,House,False,991,m2,False
2018053613,listing,/980-princes-way-drouin-vic-3818-2018053613,918000,is-sold,Sold by private treaty 14 Sep 2022,20220914,980 Princes Way,DROUIN,VIC,3818,-38.11636,145.840134,4,2,3,House,House,False,4000,m2,False
2017787955,listing,/35-pepper-crescent-drouin-vic-3818-2017787955,645000,is-sold,Sold by private treaty 28 Aug 2022,20220828,35 Pepper Crescent,DROUIN,VIC,3818,-38.1401329,145.842651,4,2,2,House,House,False,522,m2,False
2017799096,listing,/10-wakeful-crescent-drouin-vic-3818-2017799096,660000,is-sold,Sold by private treaty 19 Aug 2022,20220819,10 Wakeful Crescent,DROUIN,VIC,3818,-38.1309357,145.869339,3,2,2,House,House,False,517,m2,False
2017841930,listing,/4-clifford-drive-drouin-vic-3818-2017841930,587000,is-sold,Sold by private treaty 24 Aug 2022,20220824,4 Clifford Drive,DROUIN,VIC,3818,-38.1427078,145.845139,4,2,2,House,House,False,517,m2,False
2017882444,listing,/18-appleporch-way-drouin-vic-3818-2017882444,605000,is-sold,Sold by private treaty 20 Aug 2022,20220820,18 Appleporch Way,DROUIN,VIC,3818,-38.1276855,145.861786,4,2,2,House,House,False,630,m2,False
2017886390,listing,/35-bexley-boulevard-drouin-vic-3818-2017886390,665000,is-sold,Sold by private treaty 18 Aug 2022,20220818,35 Bexley Boulevard,DROUIN,VIC,3818,-38.12292,145.862991,4,2,2,House,House,False,745,m2,False
2017904068,listing,/6-lakeside-court-drouin-vic-3818-2017904068,1075000,is-sold,Sold by private treaty 24 Aug 2022,20220824,6 Lakeside Court,DROUIN,VIC,3818,-38.14027,145.876328,6,3,3,House,House,False,1157,m2,False
2017926838,listing,/205-princes-way-drouin-vic-3818-2017926838,537500,is-sold,Sold by private treaty 26 Aug 2022,20220826,205 Princes Way,DROUIN,VIC,3818,-38.1289825,145.848648,3,1,2,House,House,False,974,m2,False
2017930948,listing,/18-skipton-street-drouin-vic-3818-2017930948,600000,is-sold,Sold by private treaty 16 Aug 2022,20220816,18 Skipton Street,DROUIN,VIC,3818,-38.1288261,145.866241,4,2,2,House,House,False,627,m2,False
2017932616,listing,/11-balmoral-crescent-drouin-vic-3818-2017932616,987000,is-sold,Sold by private treaty 19 Aug 2022,20220819,11 Balmoral Crescent,DROUIN,VIC,3818,-38.12805,145.853821,5,3,6,House,House,False,1214,m2,False
2017934727,listing,/20-todman-street-drouin-vic-3818-2017934727,610000,is-sold,Sold by private treaty 16 Aug 2022,20220816,20 Todman Street,DROUIN,VIC,3818,-38.1283951,145.865372,4,2,2,House,House,False,637,m2,False
2017937387,listing,/1-1-3-gould-street-drouin-vic-3818-2017937387,370000,is-sold,Sold by private treaty 24 Aug 2022,20220824,1/1-3 Gould Street,DROUIN,VIC,3818,-38.1422577,145.855667,2,1,1,ApartmentUnitFlat,Apartment / Unit / Flat,False,277,m2,False
2017946445,listing,/1-mckindlay-street-drouin-vic-3818-2017946445,435000,is-sold,Sold by private treaty 22 Aug 2022,20220822,1 McKindlay Street,DROUIN,VIC,3818,-38.14382,145.852951,3,1,3,House,House,False,634,m2,False
2017953379,listing,/39-buln-buln-road-drouin-vic-3818-2017953379,650000,is-sold,Sold by private treaty 23 Aug 2022,20220823,39 Buln Buln Road,DROUIN,VIC,3818,-38.13666,145.866089,3,1,1,House,House,False,837,m2,False
2017955959,listing,/3-14-park-view-road-drouin-vic-3818-2017955959,496000,is-sold,Sold by private treaty 17 Aug 2022,20220817,3/14 Park View Road,DROUIN,VIC,3818,-38.140522,145.858322,3,2,2,ApartmentUnitFlat,Apartment / Unit / Flat,False,0,m2,False
2017959087,listing,/1-213-princes-way-drouin-vic-3818-2017959087,300000,is-sold,Sold by private treaty 25 Aug 2022,20220825,1/213 Princes Way,DROUIN,VIC,3818,-38.141346,145.8789,2,1,1,ApartmentUnitFlat,Apartment / Unit / Flat,False,131,m2,False
2017961305,listing,/9-oddy-street-drouin-vic-3818-2017961305,390000,is-sold,Sold by private treaty 16 Aug 2022,20220816,9 Oddy Street,DROUIN,VIC,3818,-38.1415825,145.861481,3,1,2,House,House,False,636,m2,False
2017972414,listing,/12-cinnamon-street-drouin-vic-3818-2017972414,672000,is-sold,Sold by private treaty 31 Aug 2022,20220831,12 Cinnamon Street,DROUIN,VIC,3818,-38.1531448,145.855118,4,2,2,House,House,False,600,m2,False
2017993642,listing,/180-rokeby-jindivick-road-jindivick-vic-3818-2017993642,1800000,is-sold,Sold by private treaty 16 Aug 2022,20220816,180 Rokeby-Jindivick Road,JINDIVICK,VIC,3818,-38.0523338,145.923538,3,2,2,Rural,Rural,True,8.09,ha,False
2018003627,listing,/20-foster-street-drouin-vic-3818-2018003627,570000,is-sold,Sold by private treaty 31 Aug 2022,20220831,20 Foster Street,DROUIN,VIC,3818,-38.1238365,145.842911,3,2,2,House,House,False,533,m2,False
2018007282,listing,/3-john-court-drouin-vic-3818-2018007282,1110000,is-sold,Sold by private treaty 29 Aug 2022,20220829,3 John Court,DROUIN,VIC,3818,-38.1022148,145.847641,4,2,2,House,House,False,6858,m2,False
2017639071,listing,/1-1583-princes-way-drouin-vic-3818-2017639071,230000,is-sold,Sold by private treaty 29 Jul 2022,20220729,1/1583 Princes Way,DROUIN,VIC,3818,-38.14378,145.893234,2,1,1,ApartmentUnitFlat,Apartment / Unit / Flat,False,0,m2,False
2017697660,listing,/3-oxford-street-drouin-vic-3818-2017697660,840000,is-sold,Sold by private treaty 11 Aug 2022,20220811,3 Oxford Street,DROUIN,VIC,3818,-38.14789,145.859863,4,2,4,House,House,False,1855,m2,False
2017704178,listing,/24-neerim-street-drouin-vic-3818-2017704178,720000,is-sold,Sold by private treaty 10 Aug 2022,20220810,24 Neerim Street,DROUIN,VIC,3818,-38.13414,145.864914,3,2,2,House,House,False,1012,m2,False
2017719552,listing,/17-beech-street-drouin-vic-3818-2017719552,620000,is-sold,Sold by private treaty 02 Aug 2022,20220802,17 Beech Street,DROUIN,VIC,3818,-38.1536369,145.85379,4,2,2,House,House,False,510,m2,False
2017810697,listing,/10-pepper-crescent-drouin-vic-3818-2017810697,685000,is-sold,Sold by private treaty 29 Jul 2022,20220729,10 Pepper Crescent,DROUIN,VIC,3818,-38.140255,145.844452,3,2,3,House,House,False,514,m2,False
2017812166,listing,/0-lardners-track-drouin-vic-3818-2017812166,,is-sold,Sold by private treaty 03 Aug 2022,20220803,0 Lardners Track,DROUIN,VIC,3818,-38.18788,145.88414,,,,Rural,Rural,True,8.9,ha,False
2017830708,listing,/208a-princes-way-drouin-vic-3818-2017830708,500000,is-sold,Sold by private treaty 12 Aug 2022,20220812,208A Princes Way,DROUIN,VIC,3818,-38.1274071,145.845871,3,1,2,House,House,False,1312,m2,False
2017865689,listing,/20-longwarry-road-drouin-vic-3818-2017865689,655000,is-sold,Sold by private treaty 29 Jul 2022,20220729,20 Longwarry Road,DROUIN,VIC,3818,-38.128418,145.845612,3,1,2,House,House,False,1361,m2,False
2017878061,listing,/8-mountain-vista-court-drouin-vic-3818-2017878061,821500,is-sold,Sold by private treaty 03 Aug 2022,20220803,8 Mountain Vista Court,DROUIN,VIC,3818,-38.1255455,145.862625,3,2,2,House,House,False,812,m2,False
2017893848,listing,/7-hill-street-drouin-vic-3818-2017893848,600000,is-sold,Sold by private treaty 09 Aug 2022,20220809,7 Hill Street,DROUIN,VIC,3818,-38.1223564,145.847092,3,2,1,House,House,False,646,m2,False
2017894635,listing,/15-rimfire-avenue-drouin-vic-3818-2017894635,600000,is-sold,Sold by private treaty 09 Aug 2022,20220809,15 Rimfire Avenue,DROUIN,VIC,3818,-38.131485,145.870758,4,2,2,House,House,False,540,m2,False
2017897533,listing,/24-wade-street-drouin-vic-3818-2017897533,480000,is-sold,Sold by private treaty 09 Aug 2022,20220809,24 Wade Street,DROUIN,VIC,3818,-38.1423378,145.849289,3,1,2,House,House,False,745,m2,False
2017903791,listing,/8-lindsay-street-drouin-vic-3818-2017903791,630000,is-sold,Sold by private treaty 29 Jul 2022,20220729,8 Lindsay Street,DROUIN,VIC,3818,-38.12153,145.845139,3,2,2,House,House,False,680,m2,False
2017912243,listing,/4-leura-street-drouin-vic-3818-2017912243,385000,is-sold,Sold at auction 06 Aug 2022,20220806,4 Leura Street,DROUIN,VIC,3818,-38.12756,145.863922,4,2,2,House,House,False,694,m2,False
2017942392,listing,/19-gerrard-street-drouin-vic-3818-2017942392,580000,is-sold,Sold by private treaty 10 Aug 2022,20220810,19 Gerrard Street,DROUIN,VIC,3818,-38.12318,145.8487,3,2,2,House,House,False,831,m2,False
2017944556,listing,/6-railway-avenue-drouin-vic-3818-2017944556,387000,is-sold,Sold by private treaty 08 Aug 2022,20220808,6 Railway Avenue,DROUIN,VIC,3818,-38.1356659,145.853333,2,1,1,House,House,False,291,m2,False
2017946935,listing,/69-monica-drive-drouin-vic-3818-2017946935,490000,is-sold,Sold by private treaty 15 Aug 2022,20220815,69 Monica Drive,DROUIN,VIC,3818,-38.12469,145.848938,3,2,2,House,House,False,340,m2,False
2017959001,listing,/21-shakespeare-court-drouin-vic-3818-2017959001,420000,is-sold,Sold by private treaty 15 Aug 2022,20220815,21 Shakespeare Court,DROUIN,VIC,3818,-38.14148,145.843689,2,1,1,House,House,False,243,m2,False
2017965005,listing,/10-harrods-close-drouin-vic-3818-2017965005,870000,is-sold,Sold by private treaty 04 Aug 2022,20220804,10 Harrods Close,DROUIN,VIC,3818,-38.1380844,145.855408,4,4,2,House,House,False,1138,m2,False
2017970395,listing,/27-peachtree-drive-drouin-vic-3818-2017970395,365000,is-sold,Sold by private treaty 09 Aug 2022,20220809,27 Peachtree Drive,DROUIN,VIC,3818,-38.1380844,145.855408,,,,VacantLand,Vacant land,False,604,m2,False
2017504494,listing,/30-darnum-street-drouin-vic-3818-2017504494,826000,is-sold,Sold by private treaty 28 Jul 2022,20220728,30 Darnum Street,DROUIN,VIC,3818,-38.133812,145.866425,5,2,2,House,House,False,1015,m2,False
2017684457,listing,/85-longwarry-road-drouin-vic-3818-2017684457,853000,is-sold,Sold by private treaty 05 Jul 2022,20220705,85 Longwarry Road,DROUIN,VIC,3818,-38.1242447,145.835419,3,1,,House,House,False,4003,m2,False
2017720354,listing,/1-6-railway-avenue-drouin-vic-3818-2017720354,243000,is-sold,Sold by private treaty 27 Jul 2022,20220727,1/6 Railway Avenue,DROUIN,VIC,3818,-38.1356659,145.853333,1,1,1,ApartmentUnitFlat,Apartment / Unit / Flat,False,0,m2,False
2017733206,listing,/11-drovers-close-drouin-vic-3818-2017733206,1125000,is-sold,Sold by private treaty 28 Jul 2022,20220728,11 Drovers Close,DROUIN,VIC,3818,-38.1059151,145.842773,5,2,2,House,House,False,6665,m2,False
2017745557,listing,/2-norman-road-drouin-vic-3818-2017745557,390000,is-sold,Sold by private treaty 08 Jul 2022,20220708,2 Norman Road,DROUIN,VIC,3818,-38.1437378,145.861328,2,2,1,House,House,False,589,m2,False
2017766507,listing,/4-pinanga-street-drouin-vic-3818-2017766507,430000,is-sold,Sold by private treaty 27 Jul 2022,20220727,4 Pinanga Street,DROUIN,VIC,3818,-38.15144,145.859283,,,,VacantLand,Vacant land,False,827,m2,False
2017783968,listing,/13-tracie-court-drouin-vic-3818-2017783968,630000,is-sold,Sold by private treaty 29 Jul 2022,20220729,13 Tracie Court,DROUIN,VIC,3818,-38.1389465,145.86969,3,2,2,House,House,False,779,m2,False
2017798821,listing,/12-fairchild-street-drouin-vic-3818-2017798821,492500,is-sold,Sold by private treaty 08 Jul 2022,20220708,12 Fairchild Street,DROUIN,VIC,3818,-38.144577,145.862122,2,1,,House,House,False,698,m2,False
2017819451,listing,/12-eucalypt-court-drouin-vic-3818-2017819451,590000,is-sold,Sold by private treaty 06 Jul 2022,20220706,12 Eucalypt Court,DROUIN,VIC,3818,-38.12312,145.843521,4,2,2,House,House,False,520,m2,False
2017837876,listing,/13-ajax-street-drouin-vic-3818-2017837876,630000,is-sold,Sold by private treaty 08 Jul 2022,20220708,13 Ajax Street,DROUIN,VIC,3818,-38.1290169,145.866653,4,2,2,House,House,False,629,m2,False
2017852887,listing,/lot-3-38-manikato-drive-drouin-vic-3818-2017852887,285000,is-sold,Sold by private treaty 14 Jul 2022,20220714,Lot 3/38 Manikato Drive,DROUIN,VIC,3818,-38.1280174,145.870163,,,,VacantLand,Vacant land,False,554,m2,False
2017877567,listing,/25-springwater-drive-drouin-vic-3818-2017877567,562000,is-sold,Sold by private treaty 07 Jul 2022,20220707,25 Springwater Drive,DROUIN,VIC,3818,-38.1309128,145.841522,3,2,2,House,House,False,600,m2,False
2017888577,listing,/47-harmon-drive-drouin-vic-3818-2017888577,635000,is-sold,Sold by private treaty 21 Jul 2022,20220721,47 Harmon Drive,DROUIN,VIC,3818,-38.1301765,145.870316,4,2,2,House,House,False,358,m2,False
2017903455,listing,/26-davey-drive-drouin-vic-3818-2017903455,600000,is-sold,Sold at auction 23 Jul 2022,20220723,26 Davey Drive,DROUIN,VIC,3818,-38.14555,145.858337,5,3,2,House,House,False,839,m2,False
2017906414,listing,/20-bexley-boulevard-drouin-vic-3818-2017906414,420000,is-sold,Sold by private treaty 19 Jul 2022,20220719,20 Bexley Boulevard,DROUIN,VIC,3818,-38.12435,145.861816,,,,VacantLand,Vacant land,False,801,m2,False
2017933695,listing,/40-longwarry-road-drouin-vic-3818-2017933695,550000,is-sold,Sold by private treaty 29 Jul 2022,20220729,40 Longwarry Road,DROUIN,VIC,3818,-38.1275826,145.843521,3,1,2,House,House,False,648,m2,False
2017936981,listing,/1-bambra-court-drouin-vic-3818-2017936981,548000,is-sold,Sold by private treaty 13 Jul 2022,20220713,1 Bambra Court,DROUIN,VIC,3818,-38.1317978,145.8467,3,2,1,House,House,False,428,m2,False
2017947568,listing,/5-wakeful-crescent-drouin-vic-3818-2017947568,645000,is-sold,Sold by private treaty 28 Jul 2022,20220728,5 Wakeful Crescent,DROUIN,VIC,3818,-38.1309357,145.869339,4,2,2,House,House,False,515,m2,False
2018133673,listing,/lot-505-palladium-boulevard-drouin-vic-3818-2018133673,,is-sold,Sold by private treaty 08 Jul 2022,20220708,lot 505 Palladium Boulevard,DROUIN,VIC,3818,-38.1127,145.8393,,,,VacantLand,Vacant land,False,666,m2,False
2017441377,listing,/9-paterson-street-drouin-east-vic-3818-2017441377,347000,is-sold,Sold by private treaty 04 Jul 2022,20220704,9 Paterson Street,DROUIN EAST,VIC,3818,-38.142128,145.891617,,,,VacantLand,Vacant land,False,780,m2,False
2017657469,listing,/45-pepper-crescent-drouin-vic-3818-2017657469,605000,is-sold,Sold by private treaty 27 Jun 2022,20220627,45 Pepper Crescent,DROUIN,VIC,3818,-38.1393242,145.8428,4,2,2,House,House,False,0,m2,False
2017670421,listing,/5-sloane-square-drouin-vic-3818-2017670421,910000,is-sold,Sold by private treaty 04 Jul 2022,20220704,5 Sloane Square,DROUIN,VIC,3818,-38.1205826,145.852341,3,2,2,House,House,False,1060,m2,False
2017702159,listing,/5-harrods-close-drouin-vic-3818-2017702159,1095000,is-sold,Sold by private treaty 18 Jun 2022,20220618,5 Harrods Close,DROUIN,VIC,3818,-38.1201477,145.854034,4,2,2,House,House,False,1269,m2,False
2017729635,listing,/10-rivendale-crescent-drouin-vic-3818-2017729635,590000,is-sold,Sold by private treaty 27 Jun 2022,20220627,10 Rivendale Crescent,DROUIN,VIC,3818,-38.12577,145.841354,4,2,2,House,House,False,580,m2,False
2017767493,listing,/1b-charles-street-drouin-vic-3818-2017767493,245000,is-sold,Sold by private treaty 24 Jun 2022,20220624,1b Charles Street,DROUIN,VIC,3818,-38.1355667,145.861435,,,,VacantLand,Vacant land,False,215,m2,False
2017767494,listing,/1a-charles-street-drouin-vic-3818-2017767494,245000,is-sold,Sold by private treaty 24 Jun 2022,20220624,1a Charles Street,DROUIN,VIC,3818,-38.1355667,145.861435,,,,VacantLand,Vacant land,False,221,m2,False
2017783526,listing,/3-cyathea-street-drouin-vic-3818-2017783526,735000,is-sold,Sold by private treaty 21 Jun 2022,20220621,3 Cyathea Street,DROUIN,VIC,3818,-38.1543579,145.854065,4,2,3,House,House,False,540,m2,False
2017791758,listing,/29-hatfield-drive-drouin-vic-3818-2017791758,710000,is-sold,Sold by private treaty 24 Jun 2022,20220624,29 Hatfield Drive,DROUIN,VIC,3818,-38.14285,145.847778,4,2,2,House,House,False,798,m2,False
2017795950,listing,/4-sunline-street-drouin-vic-3818-2017795950,585000,is-sold,Sold by private treaty 28 Jun 2022,20220628,4 Sunline Street,DROUIN,VIC,3818,-38.12904,145.86879,4,2,2,House,House,False,0,m2,False
2017799761,listing,/56-bexley-boulevard-drouin-vic-3818-2017799761,350000,is-sold,Sold by private treaty 22 Jun 2022,20220622,56 Bexley Boulevard,DROUIN,VIC,3818,-38.1225357,145.864029,,,,VacantLand,Vacant land,False,720,m2,False
2017806429,listing,/10-lindsay-street-drouin-vic-3818-2017806429,500000,is-sold,Sold by private treaty 21 Jun 2022,20220621,10 Lindsay Street,DROUIN,VIC,3818,-38.121376,145.845,3,1,2,House,House,False,660,m2,False
2017807698,listing,/11-beech-street-drouin-vic-3818-2017807698,700000,is-sold,Sold by private treaty 20 Jun 2022,20220620,11 Beech Street,DROUIN,VIC,3818,-38.15368,145.854065,4,2,2,House,House,False,504,m2,False
2017809741,listing,/10-bateson-court-drouin-vic-3818-2017809741,710000,is-sold,Sold by private treaty 27 Jun 2022,20220627,10 Bateson Court,DROUIN,VIC,3818,-38.1382751,145.847,3,2,3,House,House,False,729,m2,False
2017815888,listing,/17-peachtree-drive-drouin-vic-3818-2017815888,720000,is-sold,Sold by private treaty 22 Jun 2022,20220622,17 Peachtree Drive,DROUIN,VIC,3818,-38.1380844,145.855408,4,2,2,House,House,False,450,m2,False
2017829430,listing,/210-princes-way-drouin-vic-3818-2017829430,560000,is-sold,Sold by private treaty 01 Jul 2022,20220701,210 Princes Way,DROUIN,VIC,3818,-38.1272545,145.846436,3,1,1,House,House,False,867,m2,False
2017836334,listing,/lot-2-binbeal-road-drouin-vic-3818-2017836334,545000,is-sold,Sold by private treaty 20 Jun 2022,20220620,Lot 2 Binbeal Road,DROUIN,VIC,3818,-38.1271935,145.83934,,,,VacantLand,Vacant land,False,5907,m2,False
2017848357,listing,/1-35-victoria-street-drouin-vic-3818-2017848357,480000,is-sold,Sold by private treaty 24 Jun 2022,20220624,1/35 Victoria Street,DROUIN,VIC,3818,-38.1311874,145.859344,3,2,2,ApartmentUnitFlat,Apartment / Unit / Flat,False,292,m2,False
2017864671,listing,/38-neerim-street-drouin-vic-3818-2017864671,560000,is-sold,Sold by private treaty 24 Jun 2022,20220624,38 Neerim Street,DROUIN,VIC,3818,-38.132843,145.865036,3,2,2,House,House,False,743,m2,False
2017877344,listing,/11-ramsden-street-drouin-vic-3818-2017877344,500000,is-sold,Sold by private treaty 26 Jun 2022,20220626,11 Ramsden Street,DROUIN,VIC,3818,-38.1283264,145.858215,3,1,,House,House,False,837,m2,False
2017248695,listing,/34-jamescott-drive-drouin-vic-3818-2017248695,640000,is-sold,Sold by private treaty 01 Jun 2022,20220601,34 Jamescott Drive,DROUIN,VIC,3818,-38.13789,145.844513,4,2,2,House,House,False,684,m2,False
2017652609,listing,/169-mcglone-road-drouin-vic-3818-2017652609,720000,is-sold,Sold by private treaty 04 Jun 2022,20220604,169 McGlone Road,DROUIN,VIC,3818,-38.1000938,145.824814,4,2,2,House,House,False,520,m2,False
2017685434,listing,/5-binbeal-road-drouin-vic-3818-2017685434,925000,is-sold,Sold by private treaty 10 Jun 2022,20220610,5 Binbeal Road,DROUIN,VIC,3818,-38.12945,145.84404,4,2,3,House,House,False,2930,m2,False
2017725560,listing,/2-terracini-court-drouin-vic-3818-2017725560,640000,is-sold,Sold by private treaty 17 Jun 2022,20220617,2 Terracini Court,DROUIN,VIC,3818,-38.1409073,145.851608,4,2,2,House,House,False,500,m2,False
2017734243,listing,/7-wiltons-crescent-drouin-vic-3818-2017734243,740000,is-sold,Sold by private treaty 06 Jun 2022,20220606,7 Wiltons Crescent,DROUIN,VIC,3818,-38.1211548,145.8611,4,2,2,House,House,False,701,m2,False
2017737063,listing,/260-old-telegraph-road-jindivick-vic-3818-2017737063,1220000,is-sold,Sold by private treaty 01 Jun 2022,20220601,260 Old Telegraph Road,JINDIVICK,VIC,3818,-38.0594177,145.856232,5,2,3,AcreageSemiRural,Acreage / Semi-Rural,True,1.01,ha,False
2017751539,listing,/4-weebar-road-drouin-vic-3818-2017751539,615000,is-sold,Sold by private treaty 17 Jun 2022,20220617,4 Weebar Road,DROUIN,VIC,3818,-38.1430244,145.855545,4,2,2,House,House,False,869,m2,False
2017767446,listing,/74-church-street-drouin-vic-3818-2017767446,487000,is-sold,Sold by private treaty 08 Jun 2022,20220608,74 Church Street,DROUIN,VIC,3818,-38.1317863,145.848175,2,1,2,House,House,False,677,m2,False
2017776377,listing,/19-young-street-drouin-vic-3818-2017776377,600000,is-sold,Sold by private treaty 17 Jun 2022,20220617,19 Young Street,DROUIN,VIC,3818,-38.13601,145.862,3,1,1,House,House,False,780,m2,False
2017777132,listing,/2-24-main-south-road-drouin-vic-3818-2017777132,315000,is-sold,Sold by private treaty 13 Jun 2022,20220613,2/24 Main South Road,DROUIN,VIC,3818,-38.13995,145.85611,2,1,1,ApartmentUnitFlat,Apartment / Unit / Flat,False,78,m2,False
2017783527,listing,/64-manikato-drive-drouin-vic-3818-2017783527,620000,is-sold,Sold by private treaty 31 May 2022,20220531,64 Manikato Drive,DROUIN,VIC,3818,-38.1274147,145.86554,4,2,2,House,House,False,639,m2,False
2017785833,listing,/10-eden-place-drouin-vic-3818-2017785833,460000,is-sold,Sold by private treaty 10 Jun 2022,20220610,10 Eden Place,DROUIN,VIC,3818,-38.1397629,145.846741,3,1,2,House,House,False,342,m2,False
2017799314,listing,/21-empire-avenue-drouin-vic-3818-2017799314,925000,is-sold,Sold by private treaty 02 Jun 2022,20220602,21 Empire Avenue,DROUIN,VIC,3818,-38.12541,145.855545,4,2,4,House,House,False,1560,m2,False
2017804786,listing,/1-james-court-drouin-vic-3818-2017804786,690000,is-sold,Sold by private treaty 10 Jun 2022,20220610,1 James Court,DROUIN,VIC,3818,-38.14057,145.8723,3,2,4,House,House,False,1507,m2,False
2017810984,listing,/19-flax-mill-close-drouin-vic-3818-2017810984,440000,is-sold,Sold by private treaty 03 Jun 2022,20220603,19 Flax Mill Close,DROUIN,VIC,3818,-38.1377754,145.851151,2,1,1,ApartmentUnitFlat,Apartment / Unit / Flat,False,377,m2,False
2017823125,listing,/12-acacia-street-drouin-vic-3818-2017823125,585000,is-sold,Sold by private treaty 10 Jun 2022,20220610,12 Acacia Street,DROUIN,VIC,3818,-38.1329269,145.849014,3,1,1,House,House,False,824,m2,False
2017847314,listing,/5-cinnamon-street-drouin-vic-3818-2017847314,335000,is-sold,Sold by private treaty 10 Jun 2022,20220610,5 Cinnamon Street,DROUIN,VIC,3818,-38.15288,145.85498,,,,VacantLand,Vacant land,False,576,m2,False
2017981493,listing,/4-sunline-street-drouin-vic-3818-2017981493,585000,is-sold,Sold by private treaty 11 Jun 2022,20220611,4 Sunline Street,DROUIN,VIC,3818,-38.12904,145.86879,4,2,2,House,House,False,0,m2,False
2017982713,listing,/45-pepper-crescent-drouin-vic-3818-2017982713,605000,is-sold,Sold by private treaty 06 Jun 2022,20220606,45 Pepper Crescent,DROUIN,VIC,3818,-38.1393,145.842789,4,2,2,House,House,False,0,m2,False
2018066865,listing,/5-harrods-close-drouin-vic-3818-2018066865,1095000,is-sold,Sold by private treaty 14 Jun 2022,20220614,5 Harrods Close,DROUIN,VIC,3818,-38.1201363,145.854065,4,2,2,House,House,False,1269,m2,False
2017422145,listing,/315-fisher-road-drouin-west-vic-3818-2017422145,1950000,is-sold,Sold by private treaty 26 May 2022,20220526,315 Fisher Road,DROUIN WEST,VIC,3818,-38.0619125,145.83136,6,4,6,Farm,Farm,True,8.9,ha,False
2017444989,listing,/1085-main-neerim-road-jindivick-vic-3818-2017444989,2000000,is-sold,Sold by private treaty 22 May 2022,20220522,1085 Main Neerim Road,JINDIVICK,VIC,3818,-38.06788,145.915588,5,2,2,Rural,Rural,True,22.29,ha,False
2017492883,listing,/6-kamanari-court-drouin-vic-3818-2017492883,1245000,is-sold,Sold by private treaty 28 May 2022,20220528,6 Kamanari Court,DROUIN,VIC,3818,-38.1284943,145.8405,4,3,3,House,House,False,4097,m2,False
2017540617,listing,/4-ramsden-street-drouin-vic-3818-2017540617,289000,is-sold,Sold by private treaty 27 May 2022,20220527,4 Ramsden Street,DROUIN,VIC,3818,-38.12823,145.857254,,,3,VacantLand,Vacant land,False,655,m2,False
2017548794,listing,/99-jackson-drive-drouin-vic-3818-2017548794,800000,is-sold,Sold by private treaty 16 May 2022,20220516,99 Jackson Drive,DROUIN,VIC,3818,-38.1227951,145.859482,4,2,3,House,House,False,782,m2,False
2017549039,listing,/71-lampard-road-drouin-vic-3818-2017549039,580000,is-sold,Sold by private treaty 23 May 2022,20220523,71 Lampard Road,DROUIN,VIC,3818,-38.1364326,145.846039,3,1,2,House,House,False,993,m2,False
2017683841,listing,/10-alf-court-drouin-vic-3818-2017683841,390000,is-sold,Sold by private treaty 24 May 2022,20220524,10 Alf Court,DROUIN,VIC,3818,-38.1392555,145.851776,,,,VacantLand,Vacant land,False,0,m2,False
2017694695,listing,/9a-lancelot-court-drouin-vic-3818-2017694695,1335000,is-sold,Sold by private treaty 19 May 2022,20220519,9A Lancelot Court,DROUIN,VIC,3818,-38.1122971,145.855423,4,2,9,House,House,False,4846,m2,False
2017731520,listing,/102-cook-street-drouin-vic-3818-2017731520,610000,is-sold,Sold by private treaty 24 May 2022,20220524,102 Cook Street,DROUIN,VIC,3818,-38.1383743,145.8443,3,2,2,House,House,False,675,m2,False
2017738871,listing,/20-boronia-street-drouin-vic-3818-2017738871,630000,is-sold,Sold by private treaty 19 May 2022,20220519,20 Boronia Street,DROUIN,VIC,3818,-38.1331863,145.846878,3,2,2,House,House,False,696,m2,False
2017744467,listing,/5-34-longwarry-road-drouin-vic-3818-2017744467,435000,is-sold,Sold by private treaty 24 May 2022,20220524,5/34 Longwarry Road,DROUIN,VIC,3818,-38.1281929,145.84407,2,1,1,ApartmentUnitFlat,Apartment / Unit / Flat,False,259,m2,False
2017755735,listing,/1-victoria-street-drouin-vic-3818-2017755735,530000,is-sold,Sold by private treaty 23 May 2022,20220523,1 Victoria Street,DROUIN,VIC,3818,-38.13073,145.855743,3,1,2,House,House,False,824,m2,False
2017758445,listing,/16-king-parrot-boulevard-drouin-vic-3818-2017758445,700000,is-sold,Sold by private treaty 28 May 2022,20220528,16 King Parrot Boulevard,DROUIN,VIC,3818,-38.15222,145.855743,4,2,2,House,House,False,544,m2,False
2017764409,listing,/13-millennium-court-drouin-vic-3818-2017764409,1160000,is-sold,Sold by private treaty 31 May 2022,20220531,13 Millennium Court,DROUIN,VIC,3818,-38.1132126,145.858246,4,2,3,House,House,False,5855,m2,False
2017782608,listing,/5-22a-albert-road-drouin-vic-3818-2017782608,442000,is-sold,Sold by private treaty 30 May 2022,20220530,5/22A Albert Road,DROUIN,VIC,3818,-38.1298027,145.855576,2,1,1,ApartmentUnitFlat,Apartment / Unit / Flat,False,0,m2,False
2017783863,listing,/54-fairway-drive-drouin-vic-3818-2017783863,1290000,is-sold,Sold by private treaty 17 May 2022,20220517,54 Fairway Drive,DROUIN,VIC,3818,-38.1045952,145.825363,4,2,6,House,House,False,7223,m2,False
2017810443,listing,/84-longwarry-road-drouin-vic-3818-2017810443,400000,is-sold,Sold by private treaty 17 May 2022,20220517,84 Longwarry Road,DROUIN,VIC,3818,-38.1261978,145.8391,2,1,3,House,House,False,691,m2,False
2017819202,listing,/25-callistemon-crescent-drouin-vic-3818-2017819202,440000,is-sold,Sold by private treaty 23 May 2022,20220523,25 Callistemon Crescent,DROUIN,VIC,3818,-38.1206322,145.850113,,,,NewLand,New land,False,760,m2,False
2017938355,listing,/56-bexley-boulevard-drouin-vic-3818-2017938355,350000,is-sold,Sold by private treaty 31 May 2022,20220531,56 Bexley Boulevard,DROUIN,VIC,3818,-38.1225357,145.864029,,,,VacantLand,Vacant land,False,720,m2,False
2018170120,listing,/1085-main-neerim-road-jindivick-vic-3818-2018170120,2000000,is-sold,Sold by private treaty 22 May 2022,20220522,1085 Main Neerim Road,JINDIVICK,VIC,3818,-38.06788,145.915588,5,2,2,AcreageSemiRural,Acreage / Semi-Rural,True,22.29,ha,False
2017455674,listing,/18-settlers-rise-drouin-vic-3818-2017455674,1525000,is-sold,Sold by private treaty 11 May 2022,20220511,18 Settlers Rise,DROUIN,VIC,3818,-38.1226921,145.867874,4,2,14,House,House,False,3962,m2,False
2017557758,listing,/11-moe-street-drouin-vic-3818-2017557758,715000,is-sold,Sold by private treaty 04 May 2022,20220504,11 Moe Street,DROUIN,VIC,3818,-38.1351242,145.866974,4,2,1,House,House,False,1014,m2,False
2017580567,listing,/13-lakeside-court-drouin-vic-3818-2017580567,865000,is-sold,Sold by private treaty 05 May 2022,20220505,13 Lakeside Court,DROUIN,VIC,3818,-38.1408424,145.875656,3,2,5,House,House,False,1128,m2,False
2017597238,listing,/115-mcneilly-road-drouin-vic-3818-2017597238,650000,is-sold,Sold by private treaty 06 May 2022,20220506,115 McNeilly Road,DROUIN,VIC,3818,-38.12655,145.860352,4,2,4,House,House,False,744,m2,False
2017608221,listing,/9-lindman-street-drouin-vic-3818-2017608221,590000,is-sold,Sold by private treaty 05 May 2022,20220505,9 Lindman Street,DROUIN,VIC,3818,-38.1399841,145.8544,4,2,2,House,House,False,874,m2,False
2017638429,listing,/11-warwick-way-drouin-vic-3818-2017638429,640000,is-sold,Sold by private treaty 02 May 2022,20220502,11 Warwick Way,DROUIN,VIC,3818,-38.123024,145.860733,4,2,2,House,House,False,511,m2,False
2017640882,listing,/10-hunter-close-drouin-vic-3818-2017640882,1200000,is-sold,Sold by private treaty 04 May 2022,20220504,10 Hunter Close,DROUIN,VIC,3818,-38.1458473,145.857513,4,2,4,House,House,False,5058,m2,False
2017656528,listing,/27-old-sale-road-drouin-west-vic-3818-2017656528,860000,is-sold,Sold by private treaty 03 May 2022,20220503,27 Old Sale Road,DROUIN WEST,VIC,3818,-38.08942,145.832947,3,1,,AcreageSemiRural,Acreage / Semi-Rural,True,1.62,ha,False
2017658015,listing,/3-6-railway-avenue-drouin-vic-3818-2017658015,306000,is-sold,Sold by private treaty 03 May 2022,20220503,3/6 Railway Avenue,DROUIN,VIC,3818,-38.1356659,145.853333,2,1,1,ApartmentUnitFlat,Apartment / Unit / Flat,False,0,m2,False
2017687982,listing,/50-main-south-road-drouin-vic-3818-2017687982,398000,is-sold,Sold at auction 09 May 2022,20220509,50 Main South Road,DROUIN,VIC,3818,-38.14397,145.85257,3,1,1,House,House,False,785,m2,False
2017703852,listing,/11-kuwan-street-drouin-vic-3818-2017703852,730000,is-sold,Sold by private treaty 11 May 2022,20220511,11 Kuwan Street,DROUIN,VIC,3818,-38.15378,145.854828,3,2,2,House,House,False,640,m2,False
2017712004,listing,/46-kensington-square-drouin-vic-3818-2017712004,700000,is-sold,Sold by private treaty 05 May 2022,20220505,46 Kensington Square,DROUIN,VIC,3818,-38.1486473,145.858292,3,2,2,House,House,False,719,m2,False
2017725014,listing,/36-calway-street-drouin-vic-3818-2017725014,597000,is-sold,Sold by private treaty 29 Apr 2022,20220429,36 Calway Street,DROUIN,VIC,3818,-38.13763,145.870987,3,2,2,House,House,False,768,m2,False
2017732831,listing,/4-kraft-street-drouin-vic-3818-2017732831,375000,is-sold,Sold by private treaty 29 Apr 2022,20220429,4 Kraft Street,DROUIN,VIC,3818,-38.1365433,145.852615,,,,VacantLand,Vacant land,False,762,m2,False
2017736270,listing,/45-staghorn-way-drouin-vic-3818-2017736270,690000,is-sold,Sold by private treaty 16 May 2022,20220516,45 Staghorn Way,DROUIN,VIC,3818,-38.15318,145.858948,4,2,2,House,House,False,452,m2,False
2017751417,listing,/2-9-shakespeare-court-drouin-vic-3818-2017751417,420000,is-sold,Sold by private treaty 06 May 2022,20220506,2/9 Shakespeare Court,DROUIN,VIC,3818,-38.14161,145.843842,3,1,2,ApartmentUnitFlat,Apartment / Unit / Flat,False,213,m2,False
2017753574,listing,/21-jackson-drive-drouin-vic-3818-2017753574,690000,is-sold,Sold by private treaty 11 May 2022,20220511,21 Jackson Drive,DROUIN,VIC,3818,-38.1197166,145.85173,4,2,2,House,House,False,771,m2,False
2017755067,listing,/28-lindsay-street-drouin-vic-3818-2017755067,585000,is-sold,Sold by private treaty 05 May 2022,20220505,28 Lindsay Street,DROUIN,VIC,3818,-38.12,145.844009,3,1,2,House,House,False,684,m2,False
2017764934,listing,/17-kensington-square-drouin-vic-3818-2017764934,810000,is-sold,Sold by private treaty 13 May 2022,20220513,17 Kensington Square,DROUIN,VIC,3818,-38.1478081,145.8581,4,2,2,House,House,False,929,m2,False
2017785228,listing,/12-telford-circuit-drouin-vic-3818-2017785228,440000,is-sold,Sold by private treaty 05 May 2022,20220505,12 Telford Circuit,DROUIN,VIC,3818,-38.1223373,145.849365,3,1,1,House,House,False,0,m2,False
2017063779,listing,/17-princes-avenue-drouin-vic-3818-2017063779,1525000,is-sold,Sold by private treaty 20 Apr 2022,20220420,17 Princes Avenue,DROUIN,VIC,3818,-38.13949,145.865173,3,1,8,House,House,True,1.39,ha,False
2017275442,listing,/lot-5-95-binbeal-road-drouin-vic-3818-2017275442,708000,is-sold,Sold by private treaty 22 Apr 2022,20220422,Lot 5/95 Binbeal Road,DROUIN,VIC,3818,-38.1263428,145.83551,,,2,VacantLand,Vacant land,False,0,m2,False
2017563250,listing,/15-miller-close-drouin-vic-3818-2017563250,578550,is-sold,Sold by private treaty 20 Apr 2022,20220420,15 Miller Close,DROUIN,VIC,3818,-38.1223,145.840363,4,2,2,House,House,False,544,m2,False
2017569794,listing,/28-silvertown-road-drouin-vic-3818-2017569794,385000,is-sold,Sold by private treaty 19 Apr 2022,20220419,28 Silvertown Road,DROUIN,VIC,3818,-38.122406,145.860428,,,,VacantLand,Vacant land,False,660,m2,False
2017583123,listing,/2-greenland-drive-drouin-vic-3818-2017583123,1150000,is-sold,Sold by private treaty 23 Apr 2022,20220423,2 Greenland Drive,DROUIN,VIC,3818,-38.12405,145.866318,4,2,3,House,House,False,5000,m2,False
2017583762,listing,/73-buln-buln-road-drouin-vic-3818-2017583762,360000,is-sold,Sold by private treaty 22 Apr 2022,20220422,73 Buln Buln Road,DROUIN,VIC,3818,-38.13513,145.870651,,,,VacantLand,Vacant land,False,984,m2,False
2017593189,listing,/30-cinnamon-street-drouin-vic-3818-2017593189,645000,is-sold,Sold by private treaty 26 Apr 2022,20220426,30 Cinnamon Street,DROUIN,VIC,3818,-38.1533241,145.857834,3,2,3,House,House,False,511,m2,False
2017596495,listing,/10-lampard-road-drouin-vic-3818-2017596495,830000,is-sold,Sold by private treaty 24 Apr 2022,20220424,10 Lampard Road,DROUIN,VIC,3818,-38.13816,145.85408,4,2,4,House,House,False,1511,m2,False
2017607621,listing,/36-byron-drive-drouin-vic-3818-2017607621,780000,is-sold,Sold by private treaty 27 Apr 2022,20220427,36 Byron Drive,DROUIN,VIC,3818,-38.14289,145.841873,4,2,3,House,House,False,761,m2,False
2017620192,listing,/8-palm-square-drouin-vic-3818-2017620192,565000,is-sold,Sold by private treaty 27 Apr 2022,20220427,8 Palm Square,DROUIN,VIC,3818,-38.1225777,145.8428,3,2,2,House,House,False,551,m2,False
2017631736,listing,/63-summerhill-boulevard-drouin-vic-3818-2017631736,685000,is-sold,Sold by private treaty 19 Apr 2022,20220419,63 Summerhill Boulevard,DROUIN,VIC,3818,-38.1413269,145.84166,4,2,2,House,House,False,0,m2,False
2017632921,listing,/75a-main-south-road-drouin-vic-3818-2017632921,518000,is-sold,Sold by private treaty 19 Apr 2022,20220419,75A Main South Road,DROUIN,VIC,3818,-38.1433945,145.852463,3,2,1,House,House,False,569,m2,False
2017633400,listing,/89a-old-sale-road-drouin-west-vic-3818-2017633400,340000,is-sold,Sold by private treaty 27 Apr 2022,20220427,89A Old Sale Road,DROUIN WEST,VIC,3818,-38.0898857,145.840271,,,,VacantLand,Vacant land,False,1010,m2,False
2017638231,listing,/9a-church-street-drouin-vic-3818-2017638231,488000,is-sold,Sold by private treaty 26 Apr 2022,20220426,9A Church Street,DROUIN,VIC,3818,-38.1359749,145.853149,3,1,2,House,House,False,457,m2,False
2017639671,listing,/3-lyndhurst-square-drouin-vic-3818-2017639671,880000,is-sold,Sold by private treaty 19 Apr 2022,20220419,3 Lyndhurst Square,DROUIN,VIC,3818,-38.1261559,145.8609,4,2,4,House,House,False,672,m2,False
2017667550,listing,/24-harmon-drive-drouin-vic-3818-2017667550,665000,is-sold,Sold by private treaty 25 Apr 2022,20220425,24 Harmon Drive,DROUIN,VIC,3818,-38.13044,145.872513,3,2,2,House,House,False,700,m2,False
2017714499,listing,/10-amber-court-drouin-vic-3818-2017714499,770000,is-sold,Sold by private treaty 14 Apr 2022,20220414,10 Amber Court,DROUIN,VIC,3818,-38.13315,145.868515,3,2,2,House,House,False,800,m2,False
2017725154,listing,/82-jackson-drive-drouin-vic-3818-2017725154,380000,is-sold,Sold by private treaty 28 Apr 2022,20220428,82 Jackson Drive,DROUIN,VIC,3818,-38.1216545,145.858444,,,,VacantLand,Vacant land,False,867,m2,False
2017729789,listing,/10-bushy-park-court-drouin-vic-3818-2017729789,450000,is-sold,Sold by private treaty 26 Apr 2022,20220426,10 Bushy Park Court,DROUIN,VIC,3818,-38.13766,145.881073,,,,VacantLand,Vacant land,False,1370,m2,False
2017749005,listing,/6-massimo-court-drouin-vic-3818-2017749005,1222000,is-sold,Sold by private treaty 28 Apr 2022,20220428,6 Massimo Court,DROUIN,VIC,3818,-38.10983,145.838089,3,2,3,House,House,False,4983,m2,False
2017281768,listing,/9-oxley-court-drouin-vic-3818-2017281768,1575000,is-sold,Sold by private treaty 13 Apr 2022,20220413,9 Oxley Court,DROUIN,VIC,3818,-38.1281433,145.831161,5,2,4,House,House,False,4010,m2,False
2017357264,listing,/525-drouin-road-drouin-vic-3818-2017357264,1325000,is-sold,Sold by private treaty 04 Apr 2022,20220404,525 Drouin Road,DROUIN,VIC,3818,-38.1087952,145.776337,4,2,4,AcreageSemiRural,Acreage / Semi-Rural,True,1.19,ha,False
2017361798,listing,/14-thames-avenue-drouin-vic-3818-2017361798,690000,is-sold,Sold by private treaty 01 Apr 2022,20220401,14 Thames Avenue,DROUIN,VIC,3818,-38.12146,145.861115,4,2,2,House,House,False,670,m2,False
2017398216,listing,/3-waterview-close-drouin-vic-3818-2017398216,1050000,is-sold,Sold by private treaty 08 Apr 2022,20220408,3 Waterview Close,DROUIN,VIC,3818,-38.12184,145.856552,5,2,2,House,House,False,760,m2,False
2017520703,listing,/5-empire-avenue-drouin-vic-3818-2017520703,1000400,is-sold,Sold by private treaty 07 Apr 2022,20220407,5 Empire Avenue,DROUIN,VIC,3818,-38.12561,145.8572,6,3,2,House,House,False,800,m2,False
2017569201,listing,/lot-2-currawong-court-drouin-vic-3818-2017569201,680000,is-sold,Sold by private treaty 01 Apr 2022,20220401,Lot 2 Currawong Court,DROUIN,VIC,3818,-38.1040077,145.838791,,,,VacantLand,Vacant land,False,4000,m2,False
2017579326,listing,/69-buln-buln-road-drouin-vic-3818-2017579326,565000,is-sold,Sold by private treaty 31 Mar 2022,20220331,69 Buln Buln Road,DROUIN,VIC,3818,-38.1349831,145.870178,3,1,4,House,House,False,754,m2,False
2017583919,listing,/15-canterbury-close-drouin-vic-3818-2017583919,1500000,is-sold,Sold by private treaty 01 Apr 2022,20220401,15 Canterbury Close,DROUIN,VIC,3818,-38.1156464,145.848511,5,2,4,House,House,False,4457,m2,False
2017626709,listing,/10a-brynwood-avenue-drouin-vic-3818-2017626709,600000,is-sold,Sold by private treaty 12 Apr 2022,20220412,10A Brynwood Avenue,DROUIN,VIC,3818,-38.13484,145.860764,3,1,2,House,House,False,413,m2,False
2017629532,listing,/42-walker-drive-drouin-vic-3818-2017629532,737360,is-sold,Sold by private treaty 31 Mar 2022,20220331,42 Walker Drive,DROUIN,VIC,3818,-38.1321945,145.871017,3,2,4,House,House,False,762,m2,False
2017646144,listing,/75-cook-street-drouin-vic-3818-2017646144,625000,is-sold,Sold by private treaty 31 Mar 2022,20220331,75 Cook Street,DROUIN,VIC,3818,-38.1396942,145.846191,3,2,2,House,House,False,628,m2,False
2017646983,listing,/5-manikato-drive-drouin-vic-3818-2017646983,612500,is-sold,Sold by private treaty 30 Mar 2022,20220330,5 Manikato Drive,DROUIN,VIC,3818,-38.13007,145.865158,3,2,2,House,House,False,509,m2,False
2017648433,listing,/7-34-longwarry-road-drouin-vic-3818-2017648433,465000,is-sold,Sold by private treaty 30 Mar 2022,20220330,7/34 Longwarry Road,DROUIN,VIC,3818,-38.12786,145.843643,2,1,1,ApartmentUnitFlat,Apartment / Unit / Flat,False,347,m2,False
2017669579,listing,/40-cook-street-drouin-vic-3818-2017669579,608000,is-sold,Sold by private treaty 11 Apr 2022,20220411,40 Cook Street,DROUIN,VIC,3818,-38.1396637,145.850952,4,2,2,House,House,False,500,m2,False
2017675046,listing,/1-5-karrala-court-drouin-vic-3818-2017675046,575000,is-sold,Sold by private treaty 06 Apr 2022,20220406,1/5 Karrala Court,DROUIN,VIC,3818,-38.130146,145.851837,3,2,2,House,House,False,543,m2,False
2017695067,listing,/12-coconut-street-drouin-vic-3818-2017695067,405000,is-sold,Sold by private treaty 06 Apr 2022,20220406,12 Coconut Street,DROUIN,VIC,3818,-38.1515541,145.858948,,,,VacantLand,Vacant land,False,753,m2,False
2017717556,listing,/2-6-oddy-street-drouin-vic-3818-2017717556,435000,is-sold,Sold by private treaty 13 Apr 2022,20220413,2/6 Oddy Street,DROUIN,VIC,3818,-38.1425743,145.861725,2,1,1,Townhouse,Townhouse,False,0,m2,False
2017721706,listing,/13-wallace-crescent-drouin-vic-3818-2017721706,670000,is-sold,Sold by private treaty 11 Apr 2022,20220411,13 Wallace Crescent,DROUIN,VIC,3818,-38.1185226,145.849777,4,2,2,House,House,False,744,m2,False
2017729484,listing,/6-alf-court-drouin-vic-3818-2017729484,550000,is-sold,Sold by private treaty 06 Apr 2022,20220406,6 Alf Court,DROUIN,VIC,3818,-38.1390266,145.85112,3,2,2,House,House,False,540,m2,False
2017878626,listing,/2-6-railway-avenue-drouin-vic-3818-2017878626,250000,is-sold,Sold by private treaty 26 Mar 2022,20220326,2/6 Railway Avenue,DROUIN,VIC,3818,-38.1356659,145.853333,1,1,1,ApartmentUnitFlat,Apartment / Unit / Flat,False,0,m2,False
2017204481,listing,/64-kamanari-court-drouin-vic-3818-2017204481,1200000,is-sold,Sold by private treaty 18 Mar 2022,20220318,64 Kamanari Court,DROUIN,VIC,3818,-38.1277428,145.838608,3,2,2,AcreageSemiRural,Acreage / Semi-Rural,True,4006,m2,False
2017412437,listing,/34-darnum-street-drouin-vic-3818-2017412437,875000,is-sold,Sold by private treaty 12 Mar 2022,20220312,34 Darnum Street,DROUIN,VIC,3818,-38.13345,145.8665,4,2,2,House,House,False,1016,m2,False
2017421275,listing,/65-lang-lang-park-road-athlone-vic-3818-2017421275,735000,is-sold,Sold by private treaty 17 Mar 2022,20220317,65 Lang Lang Park Road,ATHLONE,VIC,3818,-38.24956,145.7832,4,1,3,House,House,False,6794,m2,False
2017495613,listing,/6-8-grandview-close-drouin-vic-3818-2017495613,784000,is-sold,Sold by private treaty 16 Mar 2022,20220316,6-8 Grandview Close,DROUIN,VIC,3818,-38.1384354,145.850571,4,2,4,House,House,False,1105,m2,False
2017558576,listing,/21-manikato-drive-drouin-vic-3818-2017558576,620000,is-sold,Sold by private treaty 21 Mar 2022,20220321,21 Manikato Drive,DROUIN,VIC,3818,-38.1297951,145.867508,4,2,2,House,House,False,630,m2,False
2017565018,listing,/11-cinnamon-street-drouin-vic-3818-2017565018,755000,is-sold,Sold by private treaty 17 Mar 2022,20220317,11 Cinnamon Street,DROUIN,VIC,3818,-38.15288,145.85498,5,2,2,House,House,False,544,m2,False
2017576649,listing,/1-17-grant-street-drouin-vic-3818-2017576649,442000,is-sold,Sold by private treaty 15 Mar 2022,20220315,1/17 Grant Street,DROUIN,VIC,3818,-38.1316147,145.855957,2,1,1,ApartmentUnitFlat,Apartment / Unit / Flat,False,251,m2,False
2017579296,listing,/30-buscombe-crescent-drouin-vic-3818-2017579296,600000,is-sold,Sold by private treaty 22 Mar 2022,20220322,30 Buscombe Crescent,DROUIN,VIC,3818,-38.12787,145.862778,4,2,2,House,House,False,635,m2,False
2017582695,listing,/42-longwarry-road-drouin-vic-3818-2017582695,520000,is-sold,Sold by private treaty 18 Mar 2022,20220318,42 Longwarry Road,DROUIN,VIC,3818,-38.12746,145.843445,3,1,3,House,House,False,655,m2,False
2017583862,listing,/7-callistemon-crescent-drouin-vic-3818-2017583862,712000,is-sold,Sold by private treaty 18 Mar 2022,20220318,7 Callistemon Crescent,DROUIN,VIC,3818,-38.1202965,145.848541,3,2,2,House,House,False,999,m2,False
2017588894,listing,/74-lampard-road-drouin-vic-3818-2017588894,625000,is-sold,Sold by private treaty 23 Mar 2022,20220323,74 Lampard Road,DROUIN,VIC,3818,-38.13722,145.848572,4,2,4,House,House,False,576,m2,False
2017594817,listing,/2-richie-court-drouin-vic-3818-2017594817,542000,is-sold,Sold by private treaty 18 Mar 2022,20220318,2 Richie Court,DROUIN,VIC,3818,-38.1309662,145.845749,3,2,2,House,House,False,561,m2,False
2017599210,listing,/13-monaghan-avenue-drouin-vic-3818-2017599210,510000,is-sold,Sold by private treaty 25 Mar 2022,20220325,13 Monaghan Avenue,DROUIN,VIC,3818,-38.13454,145.868866,3,1,2,House,House,False,683,m2,False
2017600744,listing,/11-waddell-road-drouin-vic-3818-2017600744,1155000,is-sold,Sold by private treaty 17 Mar 2022,20220317,11 Waddell Road,DROUIN,VIC,3818,-38.11788,145.847977,4,2,2,House,House,False,4817,m2,False
2017601329,listing,/6-forrest-street-drouin-vic-3818-2017601329,530000,is-sold,Sold by private treaty 21 Mar 2022,20220321,6 Forrest Street,DROUIN,VIC,3818,-38.1343,145.8479,3,1,2,House,House,False,687,m2,False
2017619169,listing,/26-sutherland-way-drouin-vic-3818-2017619169,535000,is-sold,Sold by private treaty 23 Mar 2022,20220323,26 Sutherland Way,DROUIN,VIC,3818,-38.1296,145.8422,3,2,2,House,House,False,662,m2,False
2017620648,listing,/37-cook-street-drouin-vic-3818-2017620648,580000,is-sold,Sold by private treaty 22 Mar 2022,20220322,37 Cook Street,DROUIN,VIC,3818,-38.14006,145.851166,2,2,2,House,House,False,519,m2,False
2017623779,listing,/17-robin-hood-way-drouin-vic-3818-2017623779,1190000,is-sold,Sold by private treaty 19 Mar 2022,20220319,17 Robin Hood Way,DROUIN,VIC,3818,-38.10083,145.850235,5,2,12,House,House,False,9105,m2,False
2017625185,listing,/94-cook-street-drouin-vic-3818-2017625185,560000,is-sold,Sold by private treaty 24 Mar 2022,20220324,94 Cook Street,DROUIN,VIC,3818,-38.1390839,145.84465,3,2,2,House,House,False,584,m2,False
2018017633,listing,/lot-2-currawong-court-drouin-vic-3818-2018017633,680000,is-sold,Sold by private treaty 25 Mar 2022,20220325,Lot 2 Currawong Court,DROUIN,VIC,3818,-38.1040077,145.838791,,,,VacantLand,Vacant land,False,4000,m2,False
2017301522,listing,/2-26-albert-road-drouin-vic-3818-2017301522,290000,is-sold,Sold by private treaty 05 Mar 2022,20220305,2/26 Albert Road,DROUIN,VIC,3818,-38.12913,145.85556,,,,VacantLand,Vacant land,False,528,m2,False
2017387296,listing,/8-ripplebrook-court-drouin-vic-3818-2017387296,1500000,is-sold,Sold by private treaty 28 Feb 2022,20220228,8 Ripplebrook Court,DROUIN,VIC,3818,-38.1109467,145.847061,4,2,6,House,House,False,4046,m2,False
2017412440,listing,/2-bateson-court-drouin-vic-3818-2017412440,736000,is-sold,Sold by private treaty 11 Mar 2022,20220311,2 Bateson Court,DROUIN,VIC,3818,-38.13735,145.847488,4,2,2,House,House,False,719,m2,False
2017425593,listing,/2-skipton-street-drouin-vic-3818-2017425593,640000,is-sold,Sold by private treaty 08 Mar 2022,20220308,2 Skipton Street,DROUIN,VIC,3818,-38.13013,145.866089,3,2,2,House,House,False,647,m2,False
2017451925,listing,/6-waterview-close-drouin-vic-3818-2017451925,880000,is-sold,Sold by private treaty 01 Mar 2022,20220301,6 Waterview Close,DROUIN,VIC,3818,-38.12165,145.857162,4,2,3,House,House,False,760,m2,False
2017470593,listing,/8-telford-circuit-drouin-vic-3818-2017470593,435000,is-sold,Sold by private treaty 09 Mar 2022,20220309,8 Telford Circuit,DROUIN,VIC,3818,-38.1223373,145.849365,3,1,2,ApartmentUnitFlat,Apartment / Unit / Flat,False,217,m2,False
2017502313,listing,/23-ferris-street-drouin-vic-3818-2017502313,525000,is-sold,Sold by private treaty 04 Mar 2022,20220304,23 Ferris Street,DROUIN,VIC,3818,-38.13532,145.849136,3,1,1,House,House,False,694,m2,False
2017523772,listing,/18-sloane-square-drouin-vic-3818-2017523772,1020000,is-sold,Sold by private treaty 03 Mar 2022,20220303,18 Sloane Square,DROUIN,VIC,3818,-38.1219025,145.851929,4,2,2,House,House,False,1340,m2,False
2017544651,listing,/8-rimfire-avenue-drouin-vic-3818-2017544651,670000,is-sold,Sold by private treaty 04 Mar 2022,20220304,8 Rimfire Avenue,DROUIN,VIC,3818,-38.13115,145.871414,4,2,3,House,House,False,655,m2,False
2017546141,listing,/7-bronte-court-drouin-vic-3818-2017546141,626000,is-sold,Sold by private treaty 04 Mar 2022,20220304,7 Bronte Court,DROUIN,VIC,3818,-38.14321,145.8431,3,2,2,House,House,False,741,m2,False
2017567294,listing,/9-holland-street-drouin-vic-3818-2017567294,600000,is-sold,Sold by private treaty 10 Mar 2022,20220310,9 Holland Street,DROUIN,VIC,3818,-38.1325,145.845642,3,2,2,House,House,False,502,m2,False
2017568708,listing,/22-rivendale-crescent-drouin-vic-3818-2017568708,600000,is-sold,Sold by private treaty 04 Mar 2022,20220304,22 Rivendale Crescent,DROUIN,VIC,3818,-38.12496,145.841858,4,2,2,House,House,False,518,m2,False
2017568830,listing,/4-pepperell-drive-drouin-vic-3818-2017568830,1275000,is-sold,Sold by private treaty 10 Mar 2022,20220310,4 Pepperell Drive,DROUIN,VIC,3818,-38.1061172,145.852982,4,2,2,House,House,False,6799,m2,False
2017578536,listing,/11-kraft-crescent-drouin-vic-3818-2017578536,558000,is-sold,Sold by private treaty 01 Mar 2022,20220301,11 Kraft Crescent,DROUIN,VIC,3818,-38.141613,145.856934,3,2,1,House,House,False,783,m2,False
2017583120,listing,/21-wakeful-crescent-drouin-vic-3818-2017583120,720500,is-sold,Sold by private treaty 01 Mar 2022,20220301,21 Wakeful Crescent,DROUIN,VIC,3818,-38.1309357,145.869339,4,2,2,House,House,False,0,m2,False
2017603337,listing,/1-6-shakespeare-court-drouin-vic-3818-2017603337,460000,is-sold,Sold by private treaty 01 Mar 2022,20220301,1/6 Shakespeare Court,DROUIN,VIC,3818,-38.1418076,145.842468,2,1,1,Townhouse,Townhouse,False,272,m2,False
2017607727,listing,/43-norman-road-drouin-vic-3818-2017607727,760000,is-sold,Sold by private treaty 01 Mar 2022,20220301,43 Norman Road,DROUIN,VIC,3818,-38.14715,145.860291,4,2,2,House,House,False,824,m2,False
2017613546,listing,/86-cook-street-drouin-vic-3818-2017613546,540000,is-sold,Sold by private treaty 02 Mar 2022,20220302,86 Cook Street,DROUIN,VIC,3818,-38.13929,145.845657,3,2,1,House,House,False,613,m2,False
2017639162,listing,/46-claudia-crescent-drouin-vic-3818-2017639162,640000,is-sold,Sold by private treaty 09 Mar 2022,20220309,46 Claudia Crescent,DROUIN,VIC,3818,-38.14345,145.847015,4,2,2,House,House,False,724,m2,False
2017746747,listing,/9-floris-ave-drouin-vic-3818-2017746747,569000,is-sold,Sold by private treaty 01 Mar 2022,20220301,9 Floris Ave,DROUIN,VIC,3818,-38.1222343,145.849091,3,2,4,House,House,False,0,m2,False
2016779316,listing,/13a-mckindlay-street-drouin-vic-3818-2016779316,170000,is-sold,Sold by private treaty 18 Feb 2022,20220218,13a McKindlay Street,DROUIN,VIC,3818,-38.14474,145.852982,,,,VacantLand,Vacant land,False,398,m2,False
2016960743,listing,/3-6-8-longwarry-road-drouin-vic-3818-2016960743,510000,is-sold,Sold by private treaty 24 Feb 2022,20220224,3/6-8 Longwarry Road,DROUIN,VIC,3818,-38.12901,145.847214,3,2,2,House,House,False,307,m2,False
2017252234,listing,/3-silvertown-road-drouin-vic-3818-2017252234,755000,is-sold,Sold by private treaty 18 Feb 2022,20220218,3 Silvertown Road,DROUIN,VIC,3818,-38.1211433,145.859619,4,2,3,House,House,False,843,m2,False
2017444300,listing,/8-hearn-street-drouin-vic-3818-2017444300,560000,is-sold,Sold by private treaty 18 Feb 2022,20220218,8 Hearn Street,DROUIN,VIC,3818,-38.12687,145.845078,3,1,3,House,House,False,1130,m2,False
2017449283,listing,/235-sheehan-road-hallora-vic-3818-2017449283,900000,is-sold,Sold by private treaty 17 Feb 2022,20220217,235 Sheehan Road,HALLORA,VIC,3818,-38.253788,145.851624,,,,RuralLifestyle,Rural Lifestyle,True,0,m2,False
2017489481,listing,/5-15-fairway-drive-drouin-vic-3818-2017489481,1160000,is-sold,Sold by private treaty 16 Feb 2022,20220216,5/15 Fairway Drive,DROUIN,VIC,3818,-38.10587,145.835312,3,2,2,House,House,False,3944,m2,False
2017493465,listing,/128-jackson-drive-drouin-vic-3818-2017493465,870000,is-sold,Sold by private treaty 15 Feb 2022,20220215,128 Jackson Drive,DROUIN,VIC,3818,-38.1260262,145.857559,4,2,2,House,House,False,665,m2,False
2017502293,listing,/4-st-mabyn-avenue-drouin-vic-3818-2017502293,270000,is-sold,Sold by private treaty 24 Feb 2022,20220224,4 St Mabyn Avenue,DROUIN,VIC,3818,-38.1290321,145.861954,,,,VacantLand,Vacant land,False,648,m2,False
2017504118,listing,/9-jackson-drive-drouin-vic-3818-2017504118,700000,is-sold,Sold by private treaty 18 Feb 2022,20220218,9 Jackson Drive,DROUIN,VIC,3818,-38.1195831,145.8503,3,2,2,House,House,False,1039,m2,False
2017504128,listing,/7-jackson-drive-drouin-vic-3818-2017504128,465000,is-sold,Sold by private treaty 16 Feb 2022,20220216,7 Jackson Drive,DROUIN,VIC,3818,-38.11952,145.849976,,,,VacantLand,Vacant land,False,1092,m2,False
2017523137,listing,/4-bunyip-drive-drouin-vic-3818-2017523137,725000,is-sold,Sold by private treaty 15 Feb 2022,20220215,4 Bunyip Drive,DROUIN,VIC,3818,-38.12469,145.856155,3,2,2,House,House,False,710,m2,False
2017535480,listing,/52-manikato-drive-drouin-vic-3818-2017535480,715000,is-sold,Sold by private treaty 14 Feb 2022,20220214,52 Manikato Drive,DROUIN,VIC,3818,-38.127655,145.867554,4,2,2,House,House,False,668,m2,False
2017544131,listing,/205-sheehans-road-hallora-vic-3818-2017544131,2200100,is-sold,Sold by private treaty 21 Feb 2022,20220221,205 Sheehans Road,HALLORA,VIC,3818,-38.26268,145.85704,,,,SpecialistFarm,Specialist Farm,True,66.37,ha,False
2017563149,listing,/21-claudia-crescent-drouin-vic-3818-2017563149,630000,is-sold,Sold by private treaty 23 Feb 2022,20220223,21 Claudia Crescent,DROUIN,VIC,3818,-38.1435966,145.848053,3,2,2,House,House,False,700,m2,False
2017566860,listing,/16-chiswick-crescent-drouin-vic-3818-2017566860,540000,is-sold,Sold by private treaty 23 Feb 2022,20220223,16 Chiswick Crescent,DROUIN,VIC,3818,-38.1431961,145.845032,3,2,2,House,House,False,545,m2,False
2017569093,listing,/16-thomas-street-drouin-vic-3818-2017569093,500000,is-sold,Sold by private treaty 25 Feb 2022,20220225,16 Thomas Street,DROUIN,VIC,3818,-38.1255836,145.842972,3,1,1,House,House,False,610,m2,False
2017569880,listing,/12-johnson-avenue-drouin-vic-3818-2017569880,595000,is-sold,Sold by private treaty 14 Feb 2022,20220214,12 Johnson Avenue,DROUIN,VIC,3818,-38.1240921,145.84671,4,1,1,House,House,False,973,m2,False
2017587373,listing,/14-cinnamon-street-drouin-vic-3818-2017587373,730000,is-sold,Sold by private treaty 24 Feb 2022,20220224,14 Cinnamon Street,DROUIN,VIC,3818,-38.15319,145.8556,4,2,2,House,House,False,600,m2,False
2017598258,listing,/28-hatfield-drive-drouin-vic-3818-2017598258,738000,is-sold,Sold by private treaty 25 Feb 2022,20220225,28 Hatfield Drive,DROUIN,VIC,3818,-38.14256,145.847275,4,2,2,House,House,False,906,m2,False
2017600786,listing,/82-bexley-boulevard-drouin-vic-3818-2017600786,1025000,is-sold,Sold by private treaty 27 Feb 2022,20220227,82 Bexley Boulevard,DROUIN,VIC,3818,-38.1199837,145.862274,4,2,2,House,House,False,876,m2,False
2017262086,listing,/10-carbine-court-drouin-vic-3818-2017262086,340000,is-sold,Sold by private treaty 02 Feb 2022,20220202,10 Carbine Court,DROUIN,VIC,3818,-38.1344223,145.871429,,,2,VacantLand,Vacant land,False,915,m2,False
2017344440,listing,/1823-westernport-road-ripplebrook-vic-3818-2017344440,1150000,is-sold,Sold by private treaty 08 Feb 2022,20220208,1823 Westernport Road,RIPPLEBROOK,VIC,3818,-38.23382,145.739655,4,1,,AcreageSemiRural,Acreage / Semi-Rural,True,4.86,ha,False
2017347456,listing,/12-lyndhurst-square-drouin-vic-3818-2017347456,740000,is-sold,Sold by private treaty 31 Jan 2022,20220131,12 Lyndhurst Square,DROUIN,VIC,3818,-38.1248779,145.86087,4,2,2,House,House,False,717,m2,False
2017370740,listing,/13-southern-close-drouin-vic-3818-2017370740,700000,is-sold,Sold by private treaty 11 Feb 2022,20220211,13 Southern Close,DROUIN,VIC,3818,-38.1456375,145.846771,4,2,2,House,House,False,626,m2,False
2017397858,listing,/65-jackson-drive-drouin-vic-3818-2017397858,1300000,is-sold,Sold by private treaty 04 Feb 2022,20220204,65 Jackson Drive,DROUIN,VIC,3818,-38.11989,145.8573,4,2,3,House,House,False,1005,m2,False
2017400142,listing,/16-settlers-rise-drouin-vic-3818-2017400142,1120000,is-sold,Sold by private treaty 09 Feb 2022,20220209,16 Settlers Rise,DROUIN,VIC,3818,-38.1227875,145.868149,4,2,4,House,House,False,4001,m2,False
2017465004,listing,/7-mclean-street-drouin-vic-3818-2017465004,595000,is-sold,Sold by private treaty 10 Feb 2022,20220210,7 McLean Street,DROUIN,VIC,3818,-38.122963,145.847549,3,2,1,House,House,False,729,m2,False
2017475100,listing,/16-claudia-crescent-drouin-vic-3818-2017475100,645000,is-sold,Sold by private treaty 09 Feb 2022,20220209,16 Claudia Crescent,DROUIN,VIC,3818,-38.14425,145.849716,3,2,2,House,House,False,683,m2,False
2017486962,listing,/5-13-wood-street-drouin-vic-3818-2017486962,520000,is-sold,Sold by private treaty 31 Jan 2022,20220131,5/13 Wood Street,DROUIN,VIC,3818,-38.1279869,145.850677,3,2,2,ApartmentUnitFlat,Apartment / Unit / Flat,False,0,m2,False
2017493721,listing,/89-old-sale-road-drouin-west-vic-3818-2017493721,675000,is-sold,Sold by private treaty 03 Feb 2022,20220203,89 Old Sale Road,DROUIN WEST,VIC,3818,-38.0898857,145.840271,3,1,2,House,House,False,1100,m2,False
2017494956,listing,/11-kensington-square-drouin-vic-3818-2017494956,1425000,is-sold,Sold by private treaty 02 Feb 2022,20220202,11 Kensington Square,DROUIN,VIC,3818,-38.1472778,145.8582,5,3,5,House,House,False,1014,m2,False
2017513857,listing,/25-harmon-drive-drouin-vic-3818-2017513857,585000,is-sold,Sold by private treaty 05 Feb 2022,20220205,25 Harmon Drive,DROUIN,VIC,3818,-38.13023,145.871033,3,2,2,House,House,False,627,m2,False
2017514465,listing,/4-11-arnup-crescent-drouin-vic-3818-2017514465,1790000,is-sold,Sold by private treaty 03 Feb 2022,20220203,4/11 Arnup Crescent,DROUIN,VIC,3818,-38.10912,145.833649,4,2,3,House,House,False,4740,m2,False
2017519804,listing,/12-palm-square-drouin-vic-3818-2017519804,612000,is-sold,Sold by private treaty 08 Feb 2022,20220208,12 Palm Square,DROUIN,VIC,3818,-38.1225128,145.842117,3,2,2,House,House,False,614,m2,False
2017521889,listing,/7-tracie-court-drouin-vic-3818-2017521889,570000,is-sold,Sold by private treaty 04 Feb 2022,20220204,7 Tracie Court,DROUIN,VIC,3818,-38.1391563,145.870132,3,2,2,House,House,False,704,m2,False
2017521930,listing,/7-gary-avenue-drouin-vic-3818-2017521930,710000,is-sold,Sold by private treaty 11 Feb 2022,20220211,7 Gary Avenue,DROUIN,VIC,3818,-38.13973,145.844009,4,2,2,House,House,False,573,m2,False
2017524025,listing,/103-cook-street-drouin-vic-3818-2017524025,550000,is-sold,Sold by private treaty 06 Feb 2022,20220206,103 Cook Street,DROUIN,VIC,3818,-38.138073,145.843063,3,2,2,House,House,False,500,m2,False
2017528914,listing,/86-bexley-boulevard-drouin-vic-3818-2017528914,1450000,is-sold,Sold by private treaty 01 Feb 2022,20220201,86 Bexley Boulevard,DROUIN,VIC,3818,-38.1199837,145.862274,5,3,4,House,House,False,879,m2,False
2017530675,listing,/38-monica-drive-drouin-vic-3818-2017530675,670000,is-sold,Sold by private treaty 14 Feb 2022,20220214,38 Monica Drive,DROUIN,VIC,3818,-38.12429,145.849884,4,2,2,House,House,False,789,m2,False
2017538056,listing,/815-main-south-road-drouin-south-vic-3818-2017538056,1305000,is-sold,Sold by private treaty 09 Feb 2022,20220209,815 Main South Road,DROUIN SOUTH,VIC,3818,-38.19368,145.845566,3,2,3,AcreageSemiRural,Acreage / Semi-Rural,True,4.05,ha,False
2015761297,listing,/2-6-hatfield-drive-drouin-vic-3818-2015761297,195000,is-sold,Sold by private treaty 27 Jan 2022,20220127,2/6 Hatfield Drive,DROUIN,VIC,3818,-38.1434669,145.850861,,,,VacantLand,Vacant land,False,372,m2,False
2017025186,listing,/52-summerhill-boulevard-drouin-vic-3818-2017025186,985000,is-sold,Sold by private treaty 28 Jan 2022,20220128,52 Summerhill Boulevard,DROUIN,VIC,3818,-38.1425629,145.84288,4,3,3,House,House,False,820,m2,False
2017159089,listing,/8-samuel-drive-drouin-vic-3818-2017159089,700000,is-sold,Sold by private treaty 28 Jan 2022,20220128,8 Samuel Drive,DROUIN,VIC,3818,-38.12252,145.85289,4,2,2,House,House,False,785,m2,False
2017297920,listing,/1-7-9-princes-way-drouin-vic-3818-2017297920,410000,is-sold,Sold by private treaty 21 Jan 2022,20220121,1/7-9 Princes Way,DROUIN,VIC,3818,-38.1374245,145.860046,2,1,1,ApartmentUnitFlat,Apartment / Unit / Flat,False,232,m2,False
2017310600,listing,/6-mcdonald-street-drouin-vic-3818-2017310600,375000,is-sold,Sold by private treaty 14 Jan 2022,20220114,6 McDonald Street,DROUIN,VIC,3818,-38.1277237,145.84787,1,1,1,ApartmentUnitFlat,Apartment / Unit / Flat,False,293,m2,False
2017361045,listing,/130-tolley-road-ripplebrook-vic-3818-2017361045,2100000,is-sold,Sold by private treaty 31 Jan 2022,20220131,130 Tolley Road,RIPPLEBROOK,VIC,3818,-38.21024,145.764938,4,2,4,AcreageSemiRural,Acreage / Semi-Rural,True,17.4,ha,False
2017408707,listing,/9-mcneilly-road-drouin-vic-3818-2017408707,485000,is-sold,Sold by private treaty 24 Jan 2022,20220124,9 McNeilly Road,DROUIN,VIC,3818,-38.1249542,145.8473,3,1,2,House,House,False,567,m2,False
2017414324,listing,/14a-ferris-street-drouin-vic-3818-2017414324,626000,is-sold,Sold by private treaty 14 Jan 2022,20220114,14A Ferris Street,DROUIN,VIC,3818,-38.1353073,145.849564,4,2,2,House,House,False,528,m2,False
2017423308,listing,/21-alcorn-street-drouin-vic-3818-2017423308,250000,is-sold,Sold by private treaty 12 Jan 2022,20220112,21 Alcorn Street,DROUIN,VIC,3818,-38.130497,145.858063,,,,VacantLand,Vacant land,False,641,m2,False
2017428563,listing,/206-main-neerim-road-drouin-vic-3818-2017428563,1152000,is-sold,Sold by private treaty 18 Jan 2022,20220118,206 Main Neerim Road,DROUIN,VIC,3818,-38.105732,145.851,4,2,5,House,House,False,4046,m2,False
2017435104,listing,/10-empire-avenue-drouin-vic-3818-2017435104,755000,is-sold,Sold by private treaty 12 Jan 2022,20220112,10 Empire Avenue,DROUIN,VIC,3818,-38.1252937,145.856979,4,2,2,House,House,False,710,m2,False
2017438926,listing,/14-mineral-court-drouin-vic-3818-2017438926,371000,is-sold,Sold by private treaty 19 Jan 2022,20220119,14 Mineral Court,DROUIN,VIC,3818,-38.1404877,145.879013,,4,,VacantLand,Vacant land,False,706,m2,False
2017442552,listing,/9-wallace-crescent-drouin-vic-3818-2017442552,630000,is-sold,Sold by private treaty 14 Jan 2022,20220114,9 Wallace Crescent,DROUIN,VIC,3818,-38.11847,145.849319,3,2,1,House,House,False,745,m2,False
2017467200,listing,/18-adam-court-drouin-vic-3818-2017467200,542000,is-sold,Sold by private treaty 18 Jan 2022,20220118,18 Adam Court,DROUIN,VIC,3818,-38.1345177,145.846634,3,1,2,House,House,False,783,m2,False
2017471271,listing,/44-walker-drive-drouin-vic-3818-2017471271,720000,is-sold,Sold by private treaty 14 Jan 2022,20220114,44 Walker Drive,DROUIN,VIC,3818,-38.13224,145.871445,4,2,2,House,House,False,781,m2,False
2017475267,listing,/1-crystal-court-drouin-vic-3818-2017475267,1250000,is-sold,Sold by private treaty 18 Jan 2022,20220118,1 Crystal Court,DROUIN,VIC,3818,-38.1397972,145.87793,5,3,7,House,House,False,2127,m2,False
2017501542,listing,/1-bright-court-drouin-vic-3818-2017501542,605000,is-sold,Sold by private treaty 14 Jan 2022,20220114,1 Bright Court,DROUIN,VIC,3818,-38.13182,145.84761,3,2,4,House,House,False,1082,m2,False
2017509128,listing,/6-mcclure-street-drouin-vic-3818-2017509128,480000,is-sold,Sold by private treaty 25 Jan 2022,20220125,6 McClure Street,DROUIN,VIC,3818,-38.12588,145.842361,3,1,1,House,House,False,674,m2,False
2017511109,listing,/12-lindsay-street-drouin-vic-3818-2017511109,605000,is-sold,Sold by private treaty 28 Jan 2022,20220128,12 Lindsay Street,DROUIN,VIC,3818,-38.1212,145.844955,3,2,1,House,House,False,690,m2,False
2017522071,listing,/725-main-south-road-drouin-south-vic-3818-2017522071,812000,is-sold,Sold by private treaty 27 Jan 2022,20220127,725 Main South Road,DROUIN SOUTH,VIC,3818,-38.18795,145.83934,3,1,2,House,House,False,1703,m2,False
2017057494,listing,/17a-boanyoo-street-drouin-vic-3818-2017057494,175000,is-sold,Sold by private treaty 20 Dec 2021,20211220,17A Boanyoo Street,DROUIN,VIC,3818,-38.12851,145.858887,,,,VacantLand,Vacant land,False,440,m2,False
2017154924,listing,/1-calway-street-drouin-vic-3818-2017154924,680000,is-sold,Sold by private treaty 17 Dec 2021,20211217,1 Calway Street,DROUIN,VIC,3818,-38.1407166,145.873444,3,1,3,House,House,False,1198,m2,False
2017369696,listing,/14-byron-drive-drouin-vic-3818-2017369696,755000,is-sold,Sold by private treaty 22 Dec 2021,20211222,14 Byron Drive,DROUIN,VIC,3818,-38.1435776,145.8421,4,2,4,House,House,False,788,m2,False
2017387268,listing,/1-boulton-place-drouin-vic-3818-2017387268,290000,is-sold,Sold by private treaty 17 Dec 2021,20211217,1 Boulton Place,DROUIN,VIC,3818,-38.1364937,145.859726,,,,VacantLand,Vacant land,False,0,m2,False
2017389324,listing,/6-terracini-court-drouin-vic-3818-2017389324,670000,is-sold,Sold by private treaty 23 Dec 2021,20211223,6 Terracini Court,DROUIN,VIC,3818,-38.1409073,145.851608,3,2,2,House,House,False,501,m2,False
2017396329,listing,/55-cook-street-drouin-vic-3818-2017396329,610000,is-sold,Sold by private treaty 18 Dec 2021,20211218,55 Cook Street,DROUIN,VIC,3818,-38.1398659,145.84877,4,2,2,House,House,False,684,m2,False
2017408668,listing,/959-princes-way-drouin-vic-3818-2017408668,880000,is-sold,Sold by private treaty 23 Dec 2021,20211223,959 Princes Way,DROUIN,VIC,3818,-38.1148148,145.840668,5,2,2,House,House,False,4457,m2,False
2017417296,listing,/675-clifton-road-athlone-vic-3818-2017417296,813000,is-sold,Sold by private treaty 29 Dec 2021,20211229,675 Clifton Road,ATHLONE,VIC,3818,-38.2414856,145.759186,3,2,4,House,House,True,1.13,ha,False
2017429582,listing,/9-manikato-drive-drouin-vic-3818-2017429582,670000,is-sold,Sold by private treaty 11 Jan 2022,20220111,9 Manikato Drive,DROUIN,VIC,3818,-38.1301422,145.865616,4,2,2,House,House,False,725,m2,False
2017448570,listing,/7-shae-crescent-drouin-vic-3818-2017448570,660000,is-sold,Sold by private treaty 20 Dec 2021,20211220,7 Shae Crescent,DROUIN,VIC,3818,-38.1403542,145.848221,4,2,2,House,House,False,642,m2,False
2017454065,listing,/3-empire-avenue-drouin-vic-3818-2017454065,295000,is-sold,Sold by private treaty 12 Jan 2022,20220112,3 Empire Avenue,DROUIN,VIC,3818,-38.1256371,145.857422,,,,VacantLand,Vacant land,False,800,m2,False
2017454595,listing,/790-main-neerim-road-drouin-west-vic-3818-2017454595,,is-sold,Sold by private treaty 05 Jan 2022,20220105,790 Main Neerim Road,DROUIN WEST,VIC,3818,-38.0746956,145.886414,4,2,5,AcreageSemiRural,Acreage / Semi-Rural,True,2.43,ha,False
2017457440,listing,/56-pepper-crescent-drouin-vic-3818-2017457440,740000,is-sold,Sold by private treaty 17 Dec 2021,20211217,56 Pepper Crescent,DROUIN,VIC,3818,-38.1384773,145.843384,3,2,3,House,House,False,580,m2,False
