id,listingType,url,price,tagClassName,tagText,date,street,suburb,state,postcode,lat,lng,beds,baths,parking,propertyType,propertyTypeFormatted,isRural,landSize,landUnit,isRetirement
2018311112,listing,/6-lindenell-drive-drouin-vic-3818-2018311112,1150000,is-sold,Sold by private treaty 28 Feb 2023,20230228,6 Lindenell Drive,DROUIN,VIC,3818,-38.10689,145.837357,5,5,5,House,House,False,5510,m2,False
2018332381,listing,/2-alf-court-drouin-vic-3818-2018332381,Price Withheld,is-sold,Sold by private treaty 28 Feb 2023,20230228,2 Alf Court,DROUIN,VIC,3818,-38.13941,145.85144,4,4,4,House,House,False,512,m2,False
2018213417,listing,/22-fairchild-street-drouin-vic-3818-2018213417,632000,is-sold,Sold by private treaty 27 Feb 2023,20230227,22 Fairchild Street,DROUIN,VIC,3818,-38.1446953,145.863037,3,3,3,House,House,False,705,m2,False
2018322283,listing,/21-lampard-road-drouin-vic-3818-2018322283,400000,is-sold,Sold by private treaty 27 Feb 2023,20230227,21 Lampard Road,DROUIN,VIC,3818,-38.13718,145.8521,2,2,2,House,House,False,691,m2,False
2018385170,listing,/181-old-telegraph-road-drouin-west-vic-3818-2018385170,Price Withheld,is-sold,Sold by private treaty 28 Feb 2023,20230228,181 Old Telegraph Road,DROUIN WEST,VIC,3818,-38.07647,145.919312,4,4,4,House,House,False,4006,m2,False
2018280817,listing,/46-fairway-drive-drouin-vic-3818-2018280817,1450000,is-sold,Sold by private treaty 02 Mar 2023,20230302,46 Fairway Drive,DROUIN,VIC,3818,-38.10616,145.825638,5,5,5,House,House,False,6719,m2,False
2018306572,listing,/4-203-princes-way-drouin-vic-3818-2018306572,215000,is-sold,Sold by private treaty 06 Mar 2023,20230306,4/203 Princes Way,DROUIN,VIC,3818,-38.1290779,145.849,1,1,1,ApartmentUnitFlat,Apartment / Unit / Flat,False,55,m2,False
