id,listingType,url,price,tagClassName,tagText,date,street,suburb,state,postcode,lat,lng,beds,baths,parking,propertyType,propertyTypeFormatted,isRural,landSize,landUnit,isRetirement
2017568271,listing,/36-seppanen-road-mount-forbes-qld-4340-2017568271,1950000,is-sold,Sold by private treaty 16 Jan 2023,20230116,36 Seppanen Road,MOUNT FORBES,QLD,4340,-27.7225819,152.6448,4,4,4,AcreageSemiRural,Acreage / Semi-Rural,True,21.45,ha,False
2018053441,listing,/7-dellvene-crescent-rosewood-qld-4340-2018053441,450000,is-sold,Sold by private treaty 13 Dec 2022,20221213,7 Dellvene Crescent,ROSEWOOD,QLD,4340,-27.63363,152.594818,4,4,4,House,House,False,657.0,m2,False
2018106761,listing,/69-matthew-street-rosewood-qld-4340-2018106761,505000,is-sold,Sold by private treaty 27 Feb 2023,20230227,69 Matthew Street,ROSEWOOD,QLD,4340,-27.6363373,152.59404,4,4,4,House,House,False,1391.0,m2,False
2018122254,listing,/52-dellvene-crescent-rosewood-qld-4340-2018122254,445000,is-sold,Sold by private treaty 10 Dec 2022,20221210,52 Dellvene Crescent,ROSEWOOD,QLD,4340,-27.6339188,152.594,3,3,3,House,House,False,638.0,m2,False
2018122485,listing,/97-john-street-rosewood-qld-4340-2018122485,280000,is-sold,Sold by private treaty 29 Nov 2022,20221129,97 John Street,ROSEWOOD,QLD,4340,-27.6299686,152.588531,3,3,3,House,House,False,806.0,m2,False
2018157722,listing,/15-lacewing-street-rosewood-qld-4340-2018157722,470000,is-sold,Sold by private treaty 23 Jan 2023,20230123,15 Lacewing Street,ROSEWOOD,QLD,4340,-27.6447582,152.602127,4,4,4,House,House,False,702.0,m2,False
2018173771,listing,/38-waters-road-calvert-qld-4340-2018173771,625000,is-sold,Sold by private treaty 01 Dec 2022,20221201,38 Waters Road,CALVERT,QLD,4340,-27.6682968,152.527924,4,4,4,AcreageSemiRural,Acreage / Semi-Rural,True,7.28,ha,False
2018198859,listing,/21-jezebel-street-rosewood-qld-4340-2018198859,,is-sold,Sold by private treaty 06 Jan 2023,20230106,21 Jezebel Street,ROSEWOOD,QLD,4340,-27.642664,152.604279,4,4,4,House,House,False,510.0,m2,False
2018206583,listing,/39-dellvene-crescent-rosewood-qld-4340-2018206583,515000,is-sold,Sold by private treaty 07 Dec 2022,20221207,39 Dellvene Crescent,ROSEWOOD,QLD,4340,-27.6336174,152.59436,4,4,4,House,House,False,663.0,m2,False
2018221630,listing,/29-bernadette-crescent-rosewood-qld-4340-2018221630,405000,is-sold,Sold by private treaty 13 Dec 2022,20221213,29 Bernadette Crescent,ROSEWOOD,QLD,4340,-27.6358662,152.596191,3,3,3,House,House,False,670.0,m2,False
2018234530,listing,/10-dellvene-cresent-rosewood-qld-4340-2018234530,460000,is-sold,Sold by private treaty 14 Dec 2022,20221214,10 Dellvene Cresent,ROSEWOOD,QLD,4340,-27.6333179,152.595139,3,3,3,House,House,False,736.0,m2,False
2018235322,listing,/28-ipswich-road-grandchester-qld-4340-2018235322,370000,is-sold,Sold by private treaty 10 Dec 2022,20221210,28 Ipswich Road,GRANDCHESTER,QLD,4340,-27.6609058,152.470932,3,3,3,House,House,True,2.07,ha,False
2018242766,listing,/9-ahearn-street-rosewood-qld-4340-2018242766,480000,is-sold,Sold by private treaty 01 Feb 2023,20230201,9 Ahearn Street,ROSEWOOD,QLD,4340,-27.6309757,152.585724,3,3,3,House,House,False,1012.0,m2,False
2018254847,listing,/2-ahearn-street-rosewood-qld-4340-2018254847,486500,is-sold,Sold by private treaty 04 Jan 2023,20230104,2 Ahearn Street,ROSEWOOD,QLD,4340,-27.63112,152.5866,3,3,3,House,House,False,809.0,m2,False
2018266137,listing,/11-matthew-street-rosewood-qld-4340-2018266137,350000,is-sold,Sold by private treaty 13 Feb 2023,20230213,11 Matthew Street,ROSEWOOD,QLD,4340,-27.6405849,152.595734,3,3,3,House,House,False,708.0,m2,False
2018266796,listing,/28-bernadette-crescent-rosewood-qld-4340-2018266796,352000,is-sold,Sold by private treaty 07 Dec 2022,20221207,28 Bernadette Crescent,ROSEWOOD,QLD,4340,-27.6357269,152.595734,3,3,3,House,House,False,630.0,m2,False
2018296939,listing,/16-madden-lane-rosewood-qld-4340-2018296939,,is-sold,Sold by private treaty 16 Feb 2023,20230216,16 Madden Lane,ROSEWOOD,QLD,4340,-27.6450253,152.594772,3,3,3,House,House,False,1012.0,m2,False
2018298605,listing,/34-kunkala-court-rosewood-qld-4340-2018298605,500000,is-sold,Sold by private treaty 18 Jan 2023,20230118,34 Kunkala Court,ROSEWOOD,QLD,4340,-27.62668,152.5844,4,4,4,House,House,False,807.0,m2,False
2018306108,listing,/33-bassett-lane-rosewood-qld-4340-2018306108,493590,is-sold,Sold by private treaty 06 Dec 2022,20221206,33 Bassett Lane,ROSEWOOD,QLD,4340,-27.6418419,152.601791,4,4,4,House,House,False,0.0,m2,False
2018316570,listing,/44-albert-street-rosewood-qld-4340-2018316570,550000,is-sold,Sold by private treaty 06 Feb 2023,20230206,44 Albert Street,ROSEWOOD,QLD,4340,-27.6388721,152.590271,3,3,3,House,House,False,971.0,m2,False
2018339552,listing,/5-matthew-street-rosewood-qld-4340-2018339552,455000,is-sold,Sold by private treaty 07 Mar 2023,20230307,5 Matthew Street,ROSEWOOD,QLD,4340,-27.6411076,152.596008,3,1,2,House,House,False,708,m2,False
2018407832,listing,/10-lairhopes-road-mount-forbes-qld-4340-2018407832,1225000,is-sold,Sold by private treaty 08 Mar 2023,20230308,10 Lairhopes Road,MOUNT FORBES,QLD,4340,-27.7060528,152.594223,3,1,10,House,House,True,52.1,ha,False
2017202966,listing,/rosewood-qld-4340-2017202966,,is-sold,Sold by private treaty 24 Nov 2022,20221124,,ROSEWOOD,QLD,4340,-27.6341038,152.589966,11,4,4,House,House,False,2418,m2,False
2017693431,listing,/8-70-penny-lane-calvert-qld-4340-2017693431,325000,is-sold,Sold by private treaty 08 Nov 2022,20221108,8-70 Penny Lane,CALVERT,QLD,4340,-27.64233,152.52504,,,,AcreageSemiRural,Acreage / Semi-Rural,True,12.68,ha,False
2017901939,listing,/8-jezebel-street-rosewood-qld-4340-2017901939,425000,is-sold,Sold by private treaty 09 Nov 2022,20221109,8 Jezebel Street,ROSEWOOD,QLD,4340,-27.6422443,152.602936,3,2,2,House,House,False,513,m2,False
2017949719,listing,/2-35-bernadette-crescent-rosewood-qld-4340-2017949719,310000,is-sold,Sold by private treaty 08 Nov 2022,20221108,2/35 Bernadette Crescent,ROSEWOOD,QLD,4340,-27.6354179,152.596039,3,1,1,ApartmentUnitFlat,Apartment / Unit / Flat,False,104,m2,False
2017968602,listing,/171-matthew-street-rosewood-qld-4340-2017968602,615000,is-sold,Sold by private treaty 11 Nov 2022,20221111,171 Matthew Street,ROSEWOOD,QLD,4340,-27.6291142,152.590866,4,3,5,House,House,False,2294,m2,False
2017991486,listing,/461-543-rosewood-laidley-road-lanefield-qld-4340-2017991486,1650000,is-sold,Sold by private treaty 13 Oct 2022,20221013,461-543 Rosewood Laidley Road,LANEFIELD,QLD,4340,-27.6481838,152.54155,2,1,8,AcreageSemiRural,Acreage / Semi-Rural,True,80.4,ha,False
2018030212,listing,/92-forest-ridge-crescent-mount-mort-qld-4340-2018030212,875000,is-sold,Sold by private treaty 19 Oct 2022,20221019,92 Forest Ridge Crescent,MOUNT MORT,QLD,4340,-27.73135,152.487366,4,2,8,Rural,Rural,True,19.34,ha,False
2018039988,listing,/1119-ipswich-rosewood-rd-rosewood-qld-4340-2018039988,400000,is-sold,Sold by private treaty 18 Nov 2022,20221118,1119 Ipswich Rosewood Rd,ROSEWOOD,QLD,4340,-27.6458054,152.595459,3,1,2,House,House,False,1004,m2,False
2018039990,listing,/108-albert-street-rosewood-qld-4340-2018039990,370000,is-sold,Sold by private treaty 16 Nov 2022,20221116,108 Albert Street,ROSEWOOD,QLD,4340,-27.6303272,152.586655,2,1,3,House,House,False,1153,m2,False
2018056745,listing,/312-356-rosewood-marburg-road-tallegalla-qld-4340-2018056745,405000,is-sold,Sold by private treaty 14 Nov 2022,20221114,312-356 Rosewood Marburg Road,TALLEGALLA,QLD,4340,-27.6089764,152.579941,,,2,AcreageSemiRural,Acreage / Semi-Rural,True,2.9,ha,False
2018063367,listing,/9-bassett-lane-rosewood-qld-4340-2018063367,490000,is-sold,Sold by private treaty 19 Oct 2022,20221019,9 Bassett Lane,ROSEWOOD,QLD,4340,-27.64422,152.601364,4,2,2,House,House,False,800,m2,False
2018079692,listing,/29-mount-forbes-road-ebenezer-qld-4340-2018079692,770000,is-sold,Sold by private treaty 07 Nov 2022,20221107,29 Mount Forbes Road,EBENEZER,QLD,4340,-27.67391,152.606,4,2,2,House,House,True,3.64,ha,False
2018087241,listing,/22-ipswich-road-grandchester-qld-4340-2018087241,500000,is-sold,Sold by private treaty 20 Nov 2022,20221120,22 Ipswich Road,GRANDCHESTER,QLD,4340,-27.6618576,152.471954,3,1,4,House,House,True,2.14,ha,False
2018105830,listing,/85-john-street-rosewood-qld-4340-2018105830,386000,is-sold,Sold by private treaty 17 Oct 2022,20221017,85 John Street,ROSEWOOD,QLD,4340,-27.631012,152.589111,2,1,1,House,House,False,878,m2,False
2018107349,listing,/29-perrys-crescent-rosewood-qld-4340-2018107349,490000,is-sold,Sold by private treaty 18 Nov 2022,20221118,29 Perrys Crescent,ROSEWOOD,QLD,4340,-27.6248913,152.5859,4,2,2,House,House,False,860,m2,False
2018114077,listing,/21-bernadette-crescent-rosewood-qld-4340-2018114077,494000,is-sold,Sold by private treaty 25 Oct 2022,20221025,21 Bernadette Crescent,ROSEWOOD,QLD,4340,-27.6364422,152.596512,4,2,2,House,House,False,667,m2,False
2018122888,listing,/53-87-greet-road-ashwell-qld-4340-2018122888,950000,is-sold,Sold by private treaty 02 Nov 2022,20221102,53-87 Greet Road,ASHWELL,QLD,4340,-27.6259136,152.54158,3,1,1,House,House,True,14.14,ha,False
2018380332,listing,/lot-1-3a-trevlac-street-rosewood-qld-4340-2018380332,385000,is-sold,Sold by private treaty 14 Oct 2022,20221014,Lot 1/3A Trevlac Street,ROSEWOOD,QLD,4340,-27.631752,152.594131,,,,VacantLand,Vacant land,False,3359,m2,False
2017143669,listing,/1-31-walloon-rd-rosewood-qld-4340-2017143669,315000,is-sold,Sold by private treaty 19 Aug 2022,20220819,1/31 Walloon Rd,ROSEWOOD,QLD,4340,-27.6334915,152.591187,3,2,2,House,House,False,336,m2,False
2017677896,listing,/488-hiddenvale-road-calvert-qld-4340-2017677896,1350000,is-sold,Sold by private treaty 15 Aug 2022,20220815,488 Hiddenvale Road,CALVERT,QLD,4340,-27.70118,152.493744,4,1,,Farm,Farm,True,32.25,ha,False
2017862118,listing,/2-claydon-place-rosewood-qld-4340-2017862118,420000,is-sold,Sold by private treaty 12 Sep 2022,20220912,2 Claydon Place,ROSEWOOD,QLD,4340,-27.62718,152.584091,3,2,3,Duplex,Duplex,False,500,m2,False
2017872037,listing,/10-normanton-close-rosewood-qld-4340-2017872037,685000,is-sold,Sold by private treaty 18 Aug 2022,20220818,10 Normanton Close,ROSEWOOD,QLD,4340,-27.6268082,152.584991,4,2,2,House,House,False,1000,m2,False
2017895075,listing,/10-albert-st-rosewood-qld-4340-2017895075,390000,is-sold,Sold by private treaty 26 Aug 2022,20220826,10 Albert St,ROSEWOOD,QLD,4340,-27.6419621,152.59169,3,1,1,House,House,False,579,m2,False
2017896624,listing,/2-mill-lane-rosewood-qld-4340-2017896624,402000,is-sold,Sold by private treaty 19 Sep 2022,20220919,2 Mill Lane,ROSEWOOD,QLD,4340,-27.6409512,152.596466,3,1,1,House,House,False,658,m2,False
2017931672,listing,/178-berlins-road-tallegalla-qld-4340-2017931672,900000,is-sold,Sold by private treaty 23 Aug 2022,20220823,178 Berlins Road,TALLEGALLA,QLD,4340,-27.5849266,152.571091,3,1,7,House,House,False,69500,m2,False
2017941824,listing,/79-john-st-rosewood-qld-4340-2017941824,410000,is-sold,Sold by private treaty 19 Sep 2022,20220919,79 John St,ROSEWOOD,QLD,4340,-27.6315289,152.58931,3,1,4,House,House,False,768,m2,False
2017946532,listing,/52-kunkala-court-rosewood-qld-4340-2017946532,415000,is-sold,Sold by private treaty 14 Sep 2022,20220914,52 Kunkala Court,ROSEWOOD,QLD,4340,-27.6275311,152.58522,4,2,2,House,House,False,743,m2,False
2017952135,listing,/5-lacewing-street-rosewood-qld-4340-2017952135,442000,is-sold,Sold by private treaty 20 Sep 2022,20220920,5 Lacewing Street,ROSEWOOD,QLD,4340,-27.64416,152.601746,4,2,2,House,House,False,600,m2,False
2017952474,listing,/81-albert-street-rosewood-qld-4340-2017952474,400000,is-sold,Sold by private treaty 12 Sep 2022,20220912,81 Albert Street,ROSEWOOD,QLD,4340,-27.6317635,152.587845,3,1,1,House,House,False,644,m2,False
2017960975,listing,/2000-tarome-road-moorang-qld-4340-2017960975,605000,is-sold,Sold by private treaty 08 Sep 2022,20220908,2000 Tarome Road,MOORANG,QLD,4340,-27.9173031,152.472244,,,2,Rural,Rural,True,28.09,ha,False
2017965329,listing,/1414-mount-walker-west-road-merryvale-qld-4340-2017965329,387000,is-sold,Sold by private treaty 16 Aug 2022,20220816,1414 Mount Walker West Road,MERRYVALE,QLD,4340,-27.7882862,152.503265,,,4,VacantLand,Vacant land,False,8094,m2,False
2017984051,listing,/45-john-street-rosewood-qld-4340-2017984051,525000,is-sold,Sold by private treaty 06 Sep 2022,20220906,45 John Street,ROSEWOOD,QLD,4340,-27.6383533,152.5922,3,1,3,House,House,False,2044,m2,False
2018028343,listing,/32-dellvene-cres-rosewood-qld-4340-2018028343,401000,is-sold,Sold by private treaty 06 Oct 2022,20221006,32 Dellvene Cres,ROSEWOOD,QLD,4340,-27.635006,152.595322,3,1,3,House,House,False,701,m2,False
2018028465,listing,/25-dellvene-crescent-rosewood-qld-4340-2018028465,365000,is-sold,Sold by private treaty 12 Sep 2022,20220912,25 Dellvene Crescent,ROSEWOOD,QLD,4340,-27.6348133,152.594818,3,1,1,House,House,False,691,m2,False
2018047140,listing,/18-normanton-close-rosewood-qld-4340-2018047140,635314,is-sold,Sold by private treaty 05 Oct 2022,20221005,18 Normanton Close,ROSEWOOD,QLD,4340,-27.6266613,152.5855,4,2,2,House,House,False,838,m2,False
2018074703,listing,/37-woolshed-creek-road-tallegalla-qld-4340-2018074703,950000,is-sold,Sold by private treaty 26 Sep 2022,20220926,37 Woolshed Creek Road,TALLEGALLA,QLD,4340,-27.586422,152.539734,3,1,4,House,House,False,68000,m2,False
2018091454,listing,/9-mary-crescent-rosewood-qld-4340-2018091454,505000,is-sold,Sold by private treaty 27 Sep 2022,20220927,9 Mary Crescent,ROSEWOOD,QLD,4340,-27.6321812,152.612656,4,2,2,House,House,False,469,m2,False
2018161250,listing,/20-bernadette-crescent-rosewood-qld-4340-2018161250,437000,is-sold,Sold by private treaty 21 Sep 2022,20220921,20 Bernadette Crescent,ROSEWOOD,QLD,4340,-27.6363354,152.596008,3,1,4,House,House,False,630,m2,False
2017525705,listing,/39-upper-john-street-rosewood-qld-4340-2017525705,1376000,is-sold,Sold by private treaty 08 Jul 2022,20220708,39 Upper John Street,ROSEWOOD,QLD,4340,-27.6257114,152.588074,3,1,,SpecialistFarm,Specialist Farm,True,21.07,ha,False
2017570277,listing,/5-skinner-st-rosewood-qld-4340-2017570277,330000,is-sold,Sold by private treaty 15 Jun 2022,20220615,5 Skinner St,ROSEWOOD,QLD,4340,-27.6366634,152.5922,3,1,4,House,House,False,784,m2,False
2017648404,listing,/1-3-freemans-park-road-rosewood-qld-4340-2017648404,500000,is-sold,Sold by private treaty 27 Jul 2022,20220727,1-3 Freemans Park Road,ROSEWOOD,QLD,4340,-27.6318474,152.595749,2,1,3,House,House,False,4047,m2,False
2017695302,listing,/78-forest-ridge-crescent-mount-mort-qld-4340-2017695302,1025000,is-sold,Sold by private treaty 08 Jul 2022,20220708,78 Forest Ridge Crescent,MOUNT MORT,QLD,4340,-27.7352543,152.486237,4,2,14,House,House,True,17.4,ha,False
2017789934,listing,/65-mill-street-rosewood-qld-4340-2017789934,320000,is-sold,Sold by private treaty 13 Jun 2022,20220613,65 Mill Street,ROSEWOOD,QLD,4340,-27.6418781,152.597839,2,1,2,House,House,False,674,m2,False
2017794927,listing,/12-albert-st-rosewood-qld-4340-2017794927,410000,is-sold,Sold by private treaty 04 Jul 2022,20220704,12 Albert St,ROSEWOOD,QLD,4340,-27.6418571,152.5916,3,1,1,House,House,False,730,m2,False
2017813420,listing,/63-bernadette-cres-rosewood-qld-4340-2017813420,435000,is-sold,Sold by private treaty 13 Jun 2022,20220613,63 Bernadette Cres,ROSEWOOD,QLD,4340,-27.6370945,152.595413,3,1,2,House,House,False,655,m2,False
2017826732,listing,/2-mckellar-street-rosewood-qld-4340-2017826732,288000,is-sold,Sold by private treaty 21 Jun 2022,20220621,2 Mckellar Street,ROSEWOOD,QLD,4340,-27.63419,152.590439,,,2,VacantLand,Vacant land,False,1320,m2,False
2017830017,listing,/2-waight-street-rosewood-qld-4340-2017830017,340000,is-sold,Sold by private treaty 05 Jul 2022,20220705,2 Waight Street,ROSEWOOD,QLD,4340,-27.630867,152.5884,3,2,1,House,House,False,1148,m2,False
2017836619,listing,/3-smith-lane-rosewood-qld-4340-2017836619,560000,is-sold,Sold by private treaty 18 Jul 2022,20220718,3 Smith Lane,ROSEWOOD,QLD,4340,-27.6297264,152.58931,3,2,4,House,House,False,951,m2,False
2017844831,listing,/5-yates-street-rosewood-qld-4340-2017844831,415000,is-sold,Sold by private treaty 22 Jun 2022,20220622,5 Yates Street,ROSEWOOD,QLD,4340,-27.6335,152.587662,3,1,2,House,House,False,1012,m2,False
2017853907,listing,/1-smith-lane-rosewood-qld-4340-2017853907,525000,is-sold,Sold by private treaty 16 Jun 2022,20220616,1 Smith Lane,ROSEWOOD,QLD,4340,-27.6291084,152.590042,4,2,2,House,House,False,951,m2,False
2017857649,listing,/18-birru-place-rosewood-qld-4340-2017857649,447500,is-sold,Sold by private treaty 21 Jul 2022,20220721,18 Birru Place,ROSEWOOD,QLD,4340,-27.62498,152.584351,4,2,2,House,House,False,875,m2,False
2017871023,listing,/110-yarrow-road-rosewood-qld-4340-2017871023,690000,is-sold,Sold by private treaty 12 Aug 2022,20220812,110 Yarrow Road,ROSEWOOD,QLD,4340,-27.6319084,152.616959,4,2,2,House,House,False,8095,m2,False
2017883726,listing,/52-albert-street-rosewood-qld-4340-2017883726,340000,is-sold,Sold by private treaty 04 Aug 2022,20220804,52 Albert Street,ROSEWOOD,QLD,4340,-27.6377182,152.589813,3,1,2,House,House,False,0,m2,False
2017897323,listing,/14-normanton-close-rosewood-qld-4340-2017897323,600000,is-sold,Sold by private treaty 01 Jul 2022,20220701,14 Normanton Close,ROSEWOOD,QLD,4340,-27.62673,152.58522,4,2,2,House,House,False,869,m2,False
2017917579,listing,/30-gipps-street-calvert-qld-4340-2017917579,532500,is-sold,Sold by private treaty 06 Jul 2022,20220706,30 Gipps Street,CALVERT,QLD,4340,-27.6644554,152.519058,4,2,21,House,House,False,2023,m2,False
2017954313,listing,/82-albert-street-rosewood-qld-4340-2017954313,525000,is-sold,Sold by private treaty 05 Jul 2022,20220705,82 Albert Street,ROSEWOOD,QLD,4340,-27.6340122,152.588181,3,1,8,House,House,False,1012,m2,False
2017960352,listing,/10-woolshed-creek-road-tallegalla-qld-4340-2017960352,690000,is-sold,Sold by private treaty 02 Aug 2022,20220802,10 Woolshed Creek Road,TALLEGALLA,QLD,4340,-27.5881348,152.541962,3,1,2,Rural,Rural,True,1.29,ha,False
2017978807,listing,/16-waight-street-rosewood-qld-4340-2017978807,450000,is-sold,Sold by private treaty 08 Aug 2022,20220808,16 Waight Street,ROSEWOOD,QLD,4340,-27.6300373,152.586273,4,2,7,House,House,False,921,m2,False
2017143736,listing,/2-31-walloon-road-rosewood-qld-4340-2017143736,302000,is-sold,Sold by private treaty 10 May 2022,20220510,2/31 Walloon Road,ROSEWOOD,QLD,4340,-27.6334915,152.591187,3,2,2,House,House,False,0,m2,False
2017283383,listing,/91-albert-street-rosewood-qld-4340-2017283383,175000,is-sold,Sold by private treaty 11 Jun 2022,20220611,91 Albert Street,ROSEWOOD,QLD,4340,-27.63089,152.587585,,1,,VacantLand,Vacant land,False,800,m2,False
2017550354,listing,/19-yates-street-rosewood-qld-4340-2017550354,360000,is-sold,Sold by private treaty 24 May 2022,20220524,19 Yates Street,ROSEWOOD,QLD,4340,-27.6340637,152.586136,3,2,2,House,House,False,961,m2,False
2017550359,listing,/1a-berlin-street-rosewood-qld-4340-2017550359,328500,is-sold,Sold by private treaty 17 May 2022,20220517,1A Berlin Street,ROSEWOOD,QLD,4340,-27.6298656,152.590378,3,1,1,House,House,False,851,m2,False
2017567033,listing,/24-o-shea-st-rosewood-qld-4340-2017567033,610000,is-sold,Sold by private treaty 23 May 2022,20220523,24 O'Shea St,ROSEWOOD,QLD,4340,-27.6432133,152.59697,4,2,6,House,House,True,1.19,ha,False
2017642742,listing,/30-albert-street-rosewood-qld-4340-2017642742,380000,is-sold,Sold by private treaty 07 Jun 2022,20220607,30 Albert Street,ROSEWOOD,QLD,4340,-27.6400871,152.59082,4,1,2,House,House,False,673,m2,False
2017677236,listing,/52-schimke-road-rosevale-qld-4340-2017677236,1830000,is-sold,Sold by private treaty 25 May 2022,20220525,52 Schimke Road,ROSEVALE,QLD,4340,-27.8222351,152.4868,4,3,10,AcreageSemiRural,Acreage / Semi-Rural,True,38.53,ha,False
2017679233,listing,/3-mary-crescent-rosewood-qld-4340-2017679233,220000,is-sold,Sold by private treaty 06 Jun 2022,20220606,3 Mary Crescent,ROSEWOOD,QLD,4340,-27.6321812,152.612656,,,,VacantLand,Vacant land,False,527,m2,False
2017680132,listing,/53-mill-street-rosewood-qld-4340-2017680132,520000,is-sold,Sold by private treaty 27 May 2022,20220527,53 Mill Street,ROSEWOOD,QLD,4340,-27.6423626,152.596741,6,2,5,House,House,False,2023,m2,False
2017690190,listing,/27-gillams-road-grandchester-qld-4340-2017690190,660000,is-sold,Sold by private treaty 17 May 2022,20220517,27 Gillams Road,GRANDCHESTER,QLD,4340,-27.666769,152.46756,3,1,9,House,House,True,2.45,ha,False
2017695374,listing,/9-lacewing-street-rosewood-qld-4340-2017695374,425000,is-sold,Sold by private treaty 23 May 2022,20220523,9 Lacewing Street,ROSEWOOD,QLD,4340,-27.6445541,152.601608,4,2,2,House,House,False,601,m2,False
2017698567,listing,/12-bernadette-cres-rosewood-qld-4340-2017698567,380000,is-sold,Sold by private treaty 25 May 2022,20220525,12 Bernadette Cres,ROSEWOOD,QLD,4340,-27.6369419,152.596283,3,1,1,House,House,False,630,m2,False
2017716503,listing,/25-bernadette-crescent-rosewood-qld-4340-2017716503,450000,is-sold,Sold by private treaty 16 May 2022,20220516,25 Bernadette Crescent,ROSEWOOD,QLD,4340,-27.63616,152.596375,3,1,1,House,House,False,668,m2,False
2017742103,listing,/2-60-bluff-rd-ashwell-qld-4340-2017742103,540000,is-sold,Sold at auction 22 May 2022,20220522,2-60 Bluff Rd,ASHWELL,QLD,4340,-27.61963,152.553055,,,,VacantLand,Vacant land,True,10.54,ha,False
2017753721,listing,/84-90-ebenezer-road-ebenezer-qld-4340-2017753721,599000,is-sold,Sold by private treaty 22 May 2022,20220522,84-90 Ebenezer Road,EBENEZER,QLD,4340,-27.6704464,152.602478,4,2,2,House,House,False,20400,m2,False
2017766902,listing,/20-mary-crescent-rosewood-qld-4340-2017766902,635000,is-sold,Sold by private treaty 28 May 2022,20220528,20 Mary Crescent,ROSEWOOD,QLD,4340,-27.6321964,152.611832,4,2,2,House,House,False,625,m2,False
2017781151,listing,/9-ahearn-street-rosewood-qld-4340-2017781151,450000,is-sold,Sold by private treaty 11 May 2022,20220511,9 Ahearn Street,ROSEWOOD,QLD,4340,-27.6309662,152.585678,3,2,1,House,House,False,1012,m2,False
2017786984,listing,/12-creedy-street-rosewood-qld-4340-2017786984,485000,is-sold,Sold by private treaty 08 Jun 2022,20220608,12 Creedy Street,ROSEWOOD,QLD,4340,-27.630394,152.585175,4,1,3,House,House,False,1012,m2,False
2017794232,listing,/49-hospital-rd-rosewood-qld-4340-2017794232,580000,is-sold,Sold by private treaty 23 May 2022,20220523,49 Hospital Rd,ROSEWOOD,QLD,4340,-27.63492,152.601166,3,1,9,House,House,False,4047,m2,False
2017846799,listing,/76a-john-street-rosewood-qld-4340-2017846799,550000,is-sold,Sold by private treaty 11 Jun 2022,20220611,76A John Street,ROSEWOOD,QLD,4340,-27.6368542,152.590912,4,3,2,SemiDetached,Semi-Detached,False,1012,m2,False
2017537679,listing,/33-azure-street-rosewood-qld-4340-2017537679,,is-sold,Sold by private treaty 01 Apr 2022,20220401,33 Azure Street,ROSEWOOD,QLD,4340,-27.64179,152.602554,,,,VacantLand,Vacant land,False,600,m2,False
2017558561,listing,/275-henderson-road-lanefield-qld-4340-2017558561,520000,is-sold,Sold by private treaty 23 Apr 2022,20220423,275 Henderson Road,LANEFIELD,QLD,4340,-27.6386452,152.530212,5,2,4,House,House,True,1.4,ha,False
2017558627,listing,/16-dellvene-crescent-rosewood-qld-4340-2017558627,385000,is-sold,Sold by private treaty 11 Apr 2022,20220411,16 Dellvene Crescent,ROSEWOOD,QLD,4340,-27.6338234,152.595322,4,1,1,House,House,False,734,m2,False
2017558976,listing,/287-greet-road-the-bluff-qld-4340-2017558976,993000,is-sold,Sold by private treaty 09 May 2022,20220509,287 Greet Road,THE BLUFF,QLD,4340,-27.6221313,152.522415,4,2,10,House,House,True,10000,m2,False
2017564479,listing,/39-john-street-rosewood-qld-4340-2017564479,493000,is-sold,Sold by private treaty 22 Apr 2022,20220422,39 John Street,ROSEWOOD,QLD,4340,-27.63874,152.592422,3,1,1,House,House,False,1406,m2,False
2017566883,listing,/11-siding-ct-rosewood-qld-4340-2017566883,435000,is-sold,Sold by private treaty 06 May 2022,20220506,11 Siding Ct,ROSEWOOD,QLD,4340,-27.62443,152.585724,4,2,,House,House,False,706,m2,False
2017595407,listing,/7-gillams-road-grandchester-qld-4340-2017595407,741000,is-sold,Sold by private treaty 31 Mar 2022,20220331,7 Gillams Road,GRANDCHESTER,QLD,4340,-27.6693211,152.4671,3,2,2,House,House,False,8903,m2,False
2017604724,listing,/14-ahearn-street-rosewood-qld-4340-2017604724,385000,is-sold,Sold by private treaty 11 Apr 2022,20220411,14 Ahearn Street,ROSEWOOD,QLD,4340,-27.6314774,152.5855,3,2,2,House,House,False,809,m2,False
2017610527,listing,/16-nielsen-road-rosewood-qld-4340-2017610527,350000,is-sold,Sold by private treaty 06 Apr 2022,20220406,16 Nielsen Road,ROSEWOOD,QLD,4340,-27.6443768,152.596283,4,1,1,House,House,False,809,m2,False
2017634138,listing,/24-birru-pl-rosewood-qld-4340-2017634138,470000,is-sold,Sold by private treaty 14 Apr 2022,20220414,24 Birru Pl,ROSEWOOD,QLD,4340,-27.6248379,152.584671,4,2,2,House,House,False,934,m2,False
2017668281,listing,/1113-ipswich-rosewood-rosewood-qld-4340-2017668281,,is-sold,Sold by private treaty 28 Apr 2022,20220428,1113 Ipswich Rosewood,ROSEWOOD,QLD,4340,-27.6458054,152.595978,,,,VacantLand,Vacant land,False,723,m2,False
2017681407,listing,/349-rosewood-warrill-view-road-rosewood-qld-4340-2017681407,500000,is-sold,Sold by private treaty 26 Apr 2022,20220426,349 Rosewood Warrill View Road,ROSEWOOD,QLD,4340,-27.6707916,152.5894,3,1,7,House,House,False,3035,m2,False
2017687705,listing,/39-lacewing-st-rosewood-qld-4340-2017687705,505000,is-sold,Sold by private treaty 29 Mar 2022,20220329,39 Lacewing St,ROSEWOOD,QLD,4340,-27.6447754,152.603378,4,3,2,SemiDetached,Semi-Detached,False,704,m2,False
2017700877,listing,/62-kunkala-court-rosewood-qld-4340-2017700877,560000,is-sold,Sold by private treaty 14 Apr 2022,20220414,62 Kunkala Court,ROSEWOOD,QLD,4340,-27.6274261,152.5859,4,2,2,House,House,False,1020,m2,False
2017702380,listing,/110-john-street-rosewood-qld-4340-2017702380,565000,is-sold,Sold by private treaty 04 Apr 2022,20220404,110 John Street,ROSEWOOD,QLD,4340,-27.632555,152.589172,4,2,3,House,House,False,802,m2,False
2017711437,listing,/40-waight-street-rosewood-qld-4340-2017711437,440000,is-sold,Sold by private treaty 03 May 2022,20220503,40 Waight Street,ROSEWOOD,QLD,4340,-27.6289444,152.583527,3,1,4,House,House,False,1105,m2,False
2017723261,listing,/16-birru-place-rosewood-qld-4340-2017723261,435000,is-sold,Sold by private treaty 07 Apr 2022,20220407,16 Birru Place,ROSEWOOD,QLD,4340,-27.6251717,152.584259,4,2,4,House,House,False,944,m2,False
2017732677,listing,/6-berlin-street-rosewood-qld-4340-2017732677,525000,is-sold,Sold by private treaty 26 Apr 2022,20220426,6 Berlin Street,ROSEWOOD,QLD,4340,-27.63051,152.590027,4,1,3,House,House,False,1012,m2,False
2017913374,listing,/20-lacewing-street-rosewood-qld-4340-2017913374,450000,is-sold,Sold by private treaty 06 May 2022,20220506,20 Lacewing Street,ROSEWOOD,QLD,4340,-27.64454,152.603821,4,2,2,House,House,False,0,m2,False
2018247391,listing,/31-bernadette-crescent-rosewood-qld-4340-2018247391,,is-sold,Sold by private treaty 28 Apr 2022,20220428,31 Bernadette Crescent,ROSEWOOD,QLD,4340,-27.63573,152.596146,3,1,5,House,House,False,670,m2,False
2017375552,listing,/33-john-street-rosewood-qld-4340-2017375552,270000,is-sold,Sold by private treaty 01 Mar 2022,20220301,33 John Street,ROSEWOOD,QLD,4340,-27.6391487,152.59256,3,1,2,House,House,False,837,m2,False
2017513023,listing,/949-rosewood-laidley-road-calvert-qld-4340-2017513023,1050000,is-sold,Sold by private treaty 14 Mar 2022,20220314,949 Rosewood Laidley Road,CALVERT,QLD,4340,-27.6549683,152.5,3,1,2,AcreageSemiRural,Acreage / Semi-Rural,True,21.85,ha,False
2017528977,listing,/67-89-grants-road-calvert-qld-4340-2017528977,1630000,is-sold,Sold by private treaty 11 Feb 2022,20220211,67-89 Grants Road,CALVERT,QLD,4340,-27.6963711,152.531708,8,3,17,AcreageSemiRural,Acreage / Semi-Rural,True,16.19,ha,False
2017538699,listing,/166-matthew-street-rosewood-qld-4340-2017538699,474250,is-sold,Sold by private treaty 17 Mar 2022,20220317,166 Matthew Street,ROSEWOOD,QLD,4340,-27.6295013,152.5905,3,2,3,House,House,False,860,m2,False
2017541382,listing,/208-240-henderson-road-calvert-qld-4340-2017541382,550000,is-sold,Sold by private treaty 09 Mar 2022,20220309,208-240 Henderson Road,CALVERT,QLD,4340,-27.6448841,152.526627,,,,SpecialistFarm,Specialist Farm,True,45.06,ha,False
2017541491,listing,/173-291-harrison-road-calvert-qld-4340-2017541491,212000,is-sold,Sold by private treaty 11 Feb 2022,20220211,173-291 Harrison Road,CALVERT,QLD,4340,-27.6405773,152.516312,,,,AcreageSemiRural,Acreage / Semi-Rural,True,16.19,ha,False
2017541520,listing,/585-615-rosewood-laidley-rd-calvert-qld-4340-2017541520,750000,is-sold,Sold by private treaty 22 Mar 2022,20220322,585-615 Rosewood Laidley Rd,CALVERT,QLD,4340,-27.65019,152.534973,,,,Rural,Rural,True,44.18,ha,False
2017551492,listing,/25-o-shea-street-rosewood-qld-4340-2017551492,870000,is-sold,Sold by private treaty 11 Mar 2022,20220311,25 O'Shea Street,ROSEWOOD,QLD,4340,-27.6436577,152.597015,3,2,9,House,House,True,3.99,ha,False
2017570290,listing,/7-skinner-st-rosewood-qld-4340-2017570290,400000,is-sold,Sold by private treaty 14 Mar 2022,20220314,7 Skinner St,ROSEWOOD,QLD,4340,-27.6367188,152.592056,3,1,2,House,House,False,784,m2,False
2017570291,listing,/9-skinner-st-rosewood-qld-4340-2017570291,385000,is-sold,Sold by private treaty 14 Mar 2022,20220314,9 Skinner St,ROSEWOOD,QLD,4340,-27.6368065,152.591873,3,1,1,House,House,False,784,m2,False
2017575501,listing,/25-gipps-street-calvert-qld-4340-2017575501,165000,is-sold,Sold by private treaty 18 Mar 2022,20220318,25 Gipps Street,CALVERT,QLD,4340,-27.66555,152.517715,,,,NewLand,New land,False,0,m2,False
2017585564,listing,/26-lacewing-street-rosewood-qld-4340-2017585564,410000,is-sold,Sold by private treaty 28 Feb 2022,20220228,26 Lacewing Street,ROSEWOOD,QLD,4340,-27.6445732,152.603821,4,2,2,House,House,False,680,m2,False
2017590183,listing,/25-gipps-street-calvert-qld-4340-2017590183,165000,is-sold,Sold by private treaty 18 Mar 2022,20220318,25 Gipps Street,CALVERT,QLD,4340,-27.66555,152.517715,,,,VacantLand,Vacant land,False,2025,m2,False
2017598052,listing,/133-rosewood-marburg-road-rosewood-qld-4340-2017598052,370000,is-sold,Sold by private treaty 15 Mar 2022,20220315,133 Rosewood Marburg Road,ROSEWOOD,QLD,4340,-27.6254539,152.582016,3,1,2,House,House,False,809,m2,False
2017601743,listing,/22-waight-street-rosewood-qld-4340-2017601743,450000,is-sold,Sold by private treaty 21 Feb 2022,20220221,22 Waight Street,ROSEWOOD,QLD,4340,-27.62964,152.585266,4,1,2,House,House,False,1012,m2,False
2017609322,listing,/55-albert-street-rosewood-qld-4340-2017609322,590000,is-sold,Sold by private treaty 23 Feb 2022,20220223,55 Albert Street,ROSEWOOD,QLD,4340,-27.6356831,152.589584,3,1,4,House,House,False,2031,m2,False
2017641105,listing,/69-mill-street-rosewood-qld-4340-2017641105,440000,is-sold,Sold by private treaty 21 Mar 2022,20220321,69 Mill Street,ROSEWOOD,QLD,4340,-27.6417141,152.598251,3,1,2,House,House,False,2023,m2,False
2017658332,listing,/312-356-rosewood-marburg-road-tallegalla-qld-4340-2017658332,260000,is-sold,Sold by private treaty 28 Mar 2022,20220328,312-356 Rosewood Marburg Road,TALLEGALLA,QLD,4340,-27.6089764,152.579941,,,,SpecialistFarm,Specialist Farm,True,2.9,ha,False
2017660998,listing,/28-william-street-grandchester-qld-4340-2017660998,750000,is-sold,Sold by private treaty 16 Mar 2022,20220316,28 William Street,GRANDCHESTER,QLD,4340,-27.6569157,152.46434,4,2,2,House,House,True,2.04,ha,False
2017666123,listing,/1117-ipswich-rosewood-rd-rosewood-qld-4340-2017666123,500000,is-sold,Sold by private treaty 23 Mar 2022,20220323,1117 Ipswich-Rosewood Rd,ROSEWOOD,QLD,4340,-27.6457634,152.5957,3,2,2,House,House,False,1191,m2,False
2017212415,listing,/37-walloon-rd-rosewood-qld-4340-2017212415,380000,is-sold,Sold by private treaty 06 Jan 2022,20220106,37 Walloon Rd,ROSEWOOD,QLD,4340,-27.63344,152.590546,3,2,4,House,House,False,2218,m2,False
2017367486,listing,/51-mill-st-rosewood-qld-4340-2017367486,490000,is-sold,Sold by private treaty 11 Jan 2022,20220111,51 Mill St,ROSEWOOD,QLD,4340,-27.6424084,152.596558,4,2,1,House,House,False,2023,m2,False
2017392388,listing,/35-lacewing-street-rosewood-qld-4340-2017392388,470000,is-sold,Sold by private treaty 13 Jan 2022,20220113,35 Lacewing Street,ROSEWOOD,QLD,4340,-27.6447754,152.603378,4,3,2,Duplex,Duplex,False,703,m2,False
2017408468,listing,/284-greet-road-the-bluff-qld-4340-2017408468,960000,is-sold,Sold by private treaty 13 Jan 2022,20220113,284 Greet Road,THE BLUFF,QLD,4340,-27.6233463,152.523636,3,1,6,House,House,True,5.38,ha,False
2017425584,listing,/41-albert-st-rosewood-qld-4340-2017425584,310000,is-sold,Sold by private treaty 14 Jan 2022,20220114,41 Albert St,ROSEWOOD,QLD,4340,-27.6378021,152.590408,4,1,,House,House,False,885,m2,False
2017470790,listing,/25-matthew-st-rosewood-qld-4340-2017470790,340000,is-sold,Sold by private treaty 31 Jan 2022,20220131,25 Matthew St,ROSEWOOD,QLD,4340,-27.639576,152.595367,3,1,,House,House,False,700,m2,False
2017473018,listing,/17-dellvene-crescent-rosewood-qld-4340-2017473018,324780,is-sold,Sold by private treaty 04 Feb 2022,20220204,17 Dellvene Crescent,ROSEWOOD,QLD,4340,-27.6342812,152.5951,4,1,2,House,House,False,658,m2,False
2017478131,listing,/22-william-st-rosewood-qld-4340-2017478131,415000,is-sold,Sold by private treaty 13 Jan 2022,20220113,22 William St,ROSEWOOD,QLD,4340,-27.6406021,152.590271,3,1,4,House,House,False,1177,m2,False
2017484123,listing,/5-creedy-street-rosewood-qld-4340-2017484123,550000,is-sold,Sold by private treaty 10 Jan 2022,20220110,5 Creedy Street,ROSEWOOD,QLD,4340,-27.6299973,152.5849,4,2,5,House,House,False,1507,m2,False
2017493029,listing,/109-ipswich-street-grandchester-qld-4340-2017493029,250000,is-sold,Sold by private treaty 12 Jan 2022,20220112,109 Ipswich Street,GRANDCHESTER,QLD,4340,-27.6617641,152.463333,3,1,1,House,House,False,1247,m2,False
2017494713,listing,/77-bernadette-cres-rosewood-qld-4340-2017494713,350000,is-sold,Sold by private treaty 07 Feb 2022,20220207,77 Bernadette Cres,ROSEWOOD,QLD,4340,-27.6376514,152.596237,3,1,2,House,House,False,704,m2,False
2017517831,listing,/30-bernadette-cres-rosewood-qld-4340-2017517831,400000,is-sold,Sold by private treaty 13 Jan 2022,20220113,30 Bernadette Cres,ROSEWOOD,QLD,4340,-27.635622,152.595642,4,1,3,House,House,False,604,m2,False
2017518390,listing,/40-dellvene-crescent-rosewood-qld-4340-2017518390,380000,is-sold,Sold by private treaty 17 Jan 2022,20220117,40 Dellvene Crescent,ROSEWOOD,QLD,4340,-27.634861,152.594452,3,1,2,House,House,False,663,m2,False
2017530762,listing,/650-rosewood-marburg-road-tallegalla-qld-4340-2017530762,1100000,is-sold,Sold by private treaty 11 Feb 2022,20220211,650 Rosewood-Marburg Road,TALLEGALLA,QLD,4340,-27.5931168,152.584961,3,1,9,AcreageSemiRural,Acreage / Semi-Rural,True,29.14,ha,False
2017534905,listing,/35-azure-street-rosewood-qld-4340-2017534905,210000,is-sold,Sold by private treaty 17 Jan 2022,20220117,35 Azure Street,ROSEWOOD,QLD,4340,-27.64176,152.602341,,,,VacantLand,Vacant land,False,600,m2,False
2017541006,listing,/35-lanefield-road-rosewood-qld-4340-2017541006,550000,is-sold,Sold by private treaty 24 Jan 2022,20220124,35 Lanefield Road,ROSEWOOD,QLD,4340,-27.6351261,152.586365,3,2,5,House,House,False,961,m2,False
2017563124,listing,/23-wilson-st-calvert-qld-4340-2017563124,345000,is-sold,Sold by private treaty 02 Feb 2022,20220202,23 Wilson St,CALVERT,QLD,4340,-27.6641178,152.51828,4,1,4,House,House,False,1518,m2,False
2017573369,listing,/21-lanefield-rd-rosewood-qld-4340-2017573369,390000,is-sold,Sold by private treaty 11 Feb 2022,20220211,21 Lanefield Rd,ROSEWOOD,QLD,4340,-27.6345444,152.5876,2,1,2,House,House,False,1012,m2,False
2017581656,listing,/rosewood-qld-4340-2017581656,495000,is-sold,Sold by private treaty 11 Feb 2022,20220211,,ROSEWOOD,QLD,4340,-27.6341038,152.589966,3,2,2,House,House,False,674,m2,False
2018247390,listing,/60-kunkala-court-rosewood-qld-4340-2018247390,432000,is-sold,Sold by private treaty 24 Jan 2022,20220124,60 Kunkala Court,ROSEWOOD,QLD,4340,-27.62746,152.585678,4,2,2,House,House,False,915,m2,False
2013296218,listing,/476-546-goebels-rd-mount-forbes-qld-4340-2013296218,450000,is-sold,Sold by private treaty 30 Nov 2021,20211130,476 - 546 Goebels Rd,MOUNT FORBES,QLD,4340,-27.72257,152.6108,,,,VacantLand,Vacant land,False,652600,m2,False
2016579739,listing,/5-swallowtail-street-rosewood-qld-4340-2016579739,446500,is-sold,Sold by private treaty 13 Dec 2021,20211213,5 Swallowtail Street,ROSEWOOD,QLD,4340,-27.641468,152.602524,4,2,2,Duplex,Duplex,False,659,m2,False
2017128249,listing,/62-albert-st-rosewood-qld-4340-2017128249,,is-sold,Sold by private treaty 16 Dec 2021,20211216,62 Albert St,ROSEWOOD,QLD,4340,-27.6363144,152.589172,3,1,2,House,House,False,1009,m2,False
2017139745,listing,/65-matthew-st-rosewood-qld-4340-2017139745,,is-sold,Sold by private treaty 22 Nov 2021,20211122,65 Matthew St,ROSEWOOD,QLD,4340,-27.6364155,152.5945,6,4,4,SemiDetached,Semi-Detached,False,1929,m2,False
2017317426,listing,/63-keanes-rd-rosewood-qld-4340-2017317426,,is-sold,Sold by private treaty 03 Dec 2021,20211203,63 Keanes Rd,ROSEWOOD,QLD,4340,-27.6530972,152.60054,3,1,3,House,House,True,4.04,ha,False
2017321411,listing,/49-gipps-street-calvert-qld-4340-2017321411,85000,is-sold,Sold by private treaty 23 Nov 2021,20211123,49 Gipps Street,CALVERT,QLD,4340,-27.666605,152.519974,,,,VacantLand,Vacant land,False,2023,m2,False
2017335267,listing,/24-kunkala-court-rosewood-qld-4340-2017335267,467500,is-sold,Sold by private treaty 09 Dec 2021,20211209,24 Kunkala Court,ROSEWOOD,QLD,4340,-27.6265755,152.58461,4,2,2,House,House,False,800,m2,False
2017357394,listing,/99-school-road-grandchester-qld-4340-2017357394,507500,is-sold,Sold by private treaty 22 Nov 2021,20211122,99 School Road,GRANDCHESTER,QLD,4340,-27.6670742,152.470718,3,1,1,House,House,True,2,ha,False
2017377366,listing,/71-gipps-street-calvert-qld-4340-2017377366,325000,is-sold,Sold by private treaty 27 Dec 2021,20211227,71 Gipps Street,CALVERT,QLD,4340,-27.6672134,152.522079,3,1,4,House,House,False,2023,m2,False
2017383490,listing,/86-matthew-street-rosewood-qld-4340-2017383490,365500,is-sold,Sold by private treaty 30 Nov 2021,20211130,86 Matthew Street,ROSEWOOD,QLD,4340,-27.6353836,152.592941,3,1,2,House,House,False,1386,m2,False
2017385727,listing,/403-kuss-road-calvert-qld-4340-2017385727,950000,is-sold,Sold by private treaty 03 Dec 2021,20211203,403 Kuss Road,CALVERT,QLD,4340,-27.6988621,152.532974,7,3,10,House,House,True,16.63,ha,False
2017398693,listing,/31-56a-minden-post-office-road-tallegalla-qld-4340-2017398693,654000,is-sold,Sold at auction 03 Dec 2021,20211203,31/56A Minden Post Office Road,TALLEGALLA,QLD,4340,-27.5728855,152.537125,,,,VacantLand,Vacant land,False,108800,m2,False
2017398713,listing,/32-56a-minden-post-office-road-tallegalla-qld-4340-2017398713,725000,is-sold,Sold at auction 03 Dec 2021,20211203,32/56A Minden Post Office Road,TALLEGALLA,QLD,4340,-27.5728855,152.537125,,,,VacantLand,Vacant land,False,86300,m2,False
2017436982,listing,/23-alfred-street-grandchester-qld-4340-2017436982,425000,is-sold,Sold by private treaty 04 Jan 2022,20220104,23 Alfred Street,GRANDCHESTER,QLD,4340,-27.6574478,152.468185,3,2,2,House,House,True,1.54,ha,False
2017442292,listing,/9-monarch-street-rosewood-qld-4340-2017442292,370000,is-sold,Sold by private treaty 17 Dec 2021,20211217,9 Monarch Street,ROSEWOOD,QLD,4340,-27.6438026,152.602249,4,2,2,House,House,False,700,m2,False
2017455025,listing,/43-bramwell-road-calvert-qld-4340-2017455025,530000,is-sold,Sold by private treaty 22 Dec 2021,20211222,43 Bramwell Road,CALVERT,QLD,4340,-27.6831989,152.5272,,,,VacantLand,Vacant land,True,16.19,ha,False
2017455171,listing,/65-albert-st-rosewood-qld-4340-2017455171,345250,is-sold,Sold by private treaty 10 Dec 2021,20211210,65 Albert St,ROSEWOOD,QLD,4340,-27.633337,152.588486,3,1,2,House,House,False,1214,m2,False
2017461196,listing,/83-albert-street-rosewood-qld-4340-2017461196,429000,is-sold,Sold by private treaty 20 Dec 2021,20211220,83 Albert Street,ROSEWOOD,QLD,4340,-27.6315765,152.587753,3,2,1,House,House,False,1214,m2,False
2017501869,listing,/141-stevens-rd-ashwell-qld-4340-2017501869,394000,is-sold,Sold by private treaty 05 Jan 2022,20220105,141 Stevens Rd,ASHWELL,QLD,4340,-27.63546,152.549789,3,1,1,House,House,False,2023,m2,False
2017570361,listing,/87-matthew-street-rosewood-qld-4340-2017570361,289000,is-sold,Sold by private treaty 01 Dec 2021,20211201,87 Matthew Street,ROSEWOOD,QLD,4340,-27.6352158,152.593536,3,1,1,House,House,False,1391,m2,False
2016334138,listing,/upper-john-street-rosewood-vista-estate-rosewood-qld-4340-2016334138,145000,is-sold,Sold by private treaty 01 Nov 2021,20211101,"Upper John Street, Rosewood Vista Estate",ROSEWOOD,QLD,4340,-27.6376953,152.592484,,,,VacantLand,Vacant land,False,620,m2,False
2016335235,listing,/25-94-kunkala-court-rosewood-qld-4340-2016335235,155000,is-sold,Sold by private treaty 26 Oct 2021,20211026,25/94 Kunkala Court,ROSEWOOD,QLD,4340,-27.6260719,152.584442,,,,VacantLand,Vacant land,False,901,m2,False
2016336621,listing,/16-64-kunkala-court-rosewood-qld-4340-2016336621,155000,is-sold,Sold by private treaty 27 Oct 2021,20211027,16/64 Kunkala Court,ROSEWOOD,QLD,4340,-27.6280155,152.585571,,,,VacantLand,Vacant land,False,0,m2,False
2017239203,listing,/5-claydon-place-rosewood-qld-4340-2017239203,550000,is-sold,Sold by private treaty 22 Oct 2021,20211022,5 Claydon Place,ROSEWOOD,QLD,4340,-27.6269455,152.583511,4,2,4,House,House,False,900,m2,False
2017254171,listing,/rosevale-qld-4340-2017254171,975000,is-sold,Sold by private treaty 22 Oct 2021,20211022,,ROSEVALE,QLD,4340,-27.8662167,152.490509,4,1,3,Rural,Rural,True,42.09,ha,False
2017262522,listing,/7-smith-lane-rosewood-qld-4340-2017262522,335000,is-sold,Sold by private treaty 17 Nov 2021,20211117,7 Smith Lane,ROSEWOOD,QLD,4340,-27.6293278,152.5895,3,1,3,House,House,False,951,m2,False
2017314907,listing,/118-john-street-rosewood-qld-4340-2017314907,405000,is-sold,Sold by private treaty 26 Oct 2021,20211026,118 John Street,ROSEWOOD,QLD,4340,-27.6316223,152.58876,3,1,3,House,House,False,1260,m2,False
2017317156,listing,/117-doonans-road-grandchester-qld-4340-2017317156,987000,is-sold,Sold by private treaty 15 Nov 2021,20211115,117 Doonans Road,GRANDCHESTER,QLD,4340,-27.6713028,152.448639,4,1,14,House,House,True,34.1,ha,False
2017317439,listing,/28-lacewing-street-rosewood-qld-4340-2017317439,438000,is-sold,Sold by private treaty 03 Nov 2021,20211103,28 Lacewing Street,ROSEWOOD,QLD,4340,-27.64431,152.604553,4,3,4,Duplex,Duplex,False,0,m2,False
2017339985,listing,/11-monarch-street-rosewood-qld-4340-2017339985,475000,is-sold,Sold by private treaty 22 Oct 2021,20211022,11 Monarch Street,ROSEWOOD,QLD,4340,-27.6436462,152.602539,4,3,2,Duplex,Duplex,False,800,m2,False
2017344025,listing,/104-albert-street-rosewood-qld-4340-2017344025,385000,is-sold,Sold by private treaty 21 Nov 2021,20211121,104 Albert Street,ROSEWOOD,QLD,4340,-27.6306076,152.586823,4,1,1,House,House,False,769,m2,False
2017357786,listing,/195-201-mill-street-rosewood-qld-4340-2017357786,760000,is-sold,Sold by private treaty 04 Nov 2021,20211104,195-201 MILL STREET,ROSEWOOD,QLD,4340,-27.6406231,152.609451,4,1,3,AcreageSemiRural,Acreage / Semi-Rural,True,5.09,ha,False
2017388137,listing,/8-yates-st-rosewood-qld-4340-2017388137,362000,is-sold,Sold by private treaty 16 Nov 2021,20211116,8 Yates St,ROSEWOOD,QLD,4340,-27.6340866,152.58725,4,1,4,House,House,False,1012,m2,False
2017396701,listing,/72-yarrow-rd-rosewood-qld-4340-2017396701,810000,is-sold,Sold by private treaty 17 Nov 2021,20211117,72 Yarrow Rd,ROSEWOOD,QLD,4340,-27.6289959,152.6151,5,2,6,House,House,True,2.05,ha,False
2017403191,listing,/11-smith-lane-rosewood-qld-4340-2017403191,445000,is-sold,Sold by private treaty 16 Nov 2021,20211116,11 Smith Lane,ROSEWOOD,QLD,4340,-27.6294746,152.588989,3,1,4,House,House,False,1361,m2,False
2017419454,listing,/46-matthew-st-rosewood-qld-4340-2017419454,452500,is-sold,Sold by private treaty 07 Nov 2021,20211107,46 Matthew St,ROSEWOOD,QLD,4340,-27.638176,152.594238,5,2,2,House,House,False,1131,m2,False
2017454792,listing,/548-616-goebels-road-mount-forbes-qld-4340-2017454792,377500,is-sold,Sold by private treaty 16 Nov 2021,20211116,548-616 Goebels Road,MOUNT FORBES,QLD,4340,-27.7211533,152.602844,,,,VacantLand,Vacant land,True,52.41,ha,False
2017471349,listing,/1231-karrabin-rosewood-road-rosewood-qld-4340-2017471349,735000,is-sold,Sold by private treaty 30 Oct 2021,20211030,1231 Karrabin Rosewood Road,ROSEWOOD,QLD,4340,-27.6291389,152.597992,3,1,,House,House,True,7.7,ha,False
2017790544,listing,/57-phillip-street-rosewood-qld-4340-2017790544,512650,is-sold,Sold by private treaty 03 Nov 2021,20211103,57 Phillip Street,ROSEWOOD,QLD,4340,-27.63165,152.611221,4,2,2,House,House,False,0,m2,False
2017790661,listing,/85-phillip-street-rosewood-qld-4340-2017790661,547500,is-sold,Sold by private treaty 17 Nov 2021,20211117,85 Phillip Street,ROSEWOOD,QLD,4340,-27.63165,152.611221,4,2,2,House,House,False,0,m2,False
2016446571,listing,/176-access-road-rosevale-qld-4340-2016446571,669000,is-sold,Sold by private treaty 12 Oct 2021,20211012,176 Access Road,ROSEVALE,QLD,4340,-27.8868179,152.495682,4,1,12,Rural,Rural,True,31.98,ha,False
2016656001,listing,/174-grants-road-lower-mount-walker-qld-4340-2016656001,1115000,is-sold,Sold by private treaty 22 Sep 2021,20210922,174 Grants Road,LOWER MOUNT WALKER,QLD,4340,-27.7020016,152.516174,5,3,15,House,House,True,36.52,ha,False
2017029491,listing,/220-tallegalla-two-tree-hill-road-tallegalla-qld-4340-2017029491,480000,is-sold,Sold by private treaty 08 Oct 2021,20211008,220 Tallegalla Two Tree Hill Road,TALLEGALLA,QLD,4340,-27.5777454,152.563385,,,,AcreageSemiRural,Acreage / Semi-Rural,True,6.41,ha,False
2017083702,listing,/6-normanton-close-rosewood-qld-4340-2017083702,398000,is-sold,Sold by private treaty 27 Sep 2021,20210927,6 Normanton Close,ROSEWOOD,QLD,4340,-27.626894,152.584808,4,2,2,House,House,False,1000,m2,False
2017095271,listing,/17-perrys-crescent-rosewood-qld-4340-2017095271,345000,is-sold,Sold by private treaty 21 Sep 2021,20210921,17 Perrys Crescent,ROSEWOOD,QLD,4340,-27.6256218,152.58577,4,2,2,House,House,False,654,m2,False
2017110105,listing,/36-vassallo-drive-rosewood-qld-4340-2017110105,494000,is-sold,Sold by private treaty 22 Sep 2021,20210922,36 Vassallo Drive,ROSEWOOD,QLD,4340,-27.6332664,152.612015,4,2,2,House,House,False,691,m2,False
2017116956,listing,/4-lanefield-rd-rosewood-qld-4340-2017116956,270000,is-sold,Sold by private treaty 23 Sep 2021,20210923,4 Lanefield Rd,ROSEWOOD,QLD,4340,-27.634407,152.589539,3,1,2,House,House,False,1050,m2,False
2017193675,listing,/187-195-ebenezer-road-ebenezer-qld-4340-2017193675,780000,is-sold,Sold by private treaty 15 Oct 2021,20211015,187-195 Ebenezer Road,EBENEZER,QLD,4340,-27.6743469,152.612488,4,2,12,House,House,False,40468,m2,False
2017195146,listing,/102-albert-st-rosewood-qld-4340-2017195146,300000,is-sold,Sold by private treaty 04 Oct 2021,20211004,102 Albert St,ROSEWOOD,QLD,4340,-27.6309452,152.586975,3,2,1,House,House,False,809,m2,False
2017204083,listing,/15-claydon-pl-rosewood-qld-4340-2017204083,400000,is-sold,Sold by private treaty 17 Sep 2021,20210917,15 Claydon Pl,ROSEWOOD,QLD,4340,-27.6278782,152.583481,4,2,2,House,House,False,900,m2,False
2017221740,listing,/24-24-newcastle-street-calvert-qld-4340-2017221740,285000,is-sold,Sold by private treaty 23 Sep 2021,20210923,24-24 Newcastle Street,CALVERT,QLD,4340,-27.6648521,152.519623,3,1,1,House,House,False,2023,m2,False
2017240933,listing,/6-elavesor-drive-rosevale-qld-4340-2017240933,461000,is-sold,Sold by private treaty 08 Oct 2021,20211008,6 Elavesor Drive,ROSEVALE,QLD,4340,-27.8678627,152.490128,3,2,,House,House,False,4047,m2,False
2017266034,listing,/2085-rosewood-warrill-view-road-mount-walker-qld-4340-2017266034,727000,is-sold,Sold by private treaty 16 Oct 2021,20211016,2085 Rosewood-Warrill View Road,MOUNT WALKER,QLD,4340,-27.8067856,152.530182,3,1,7,House,House,True,16,ha,False
2017274155,listing,/189-265-tallegalla-road-tallegalla-qld-4340-2017274155,1515000,is-sold,Sold at auction 22 Oct 2021,20211022,189-265 Tallegalla Road,TALLEGALLA,QLD,4340,-27.5902481,152.556366,3,1,,AcreageSemiRural,Acreage / Semi-Rural,True,64,ha,False
2017274186,listing,/54-humphreys-road-tallegalla-qld-4340-2017274186,727000,is-sold,Sold at auction 22 Oct 2021,20211022,54 Humphreys Road,TALLEGALLA,QLD,4340,-27.5857925,152.549927,2,1,6,AcreageSemiRural,Acreage / Semi-Rural,True,24.7,ha,False
2017294595,listing,/53-gipps-st-calvert-qld-4340-2017294595,175000,is-sold,Sold by private treaty 08 Oct 2021,20211008,53 Gipps St,CALVERT,QLD,4340,-27.6665325,152.520477,3,1,2,House,House,False,2023,m2,False
2017300398,listing,/9-siding-ct-rosewood-qld-4340-2017300398,430000,is-sold,Sold by private treaty 19 Oct 2021,20211019,9 Siding Ct,ROSEWOOD,QLD,4340,-27.624609,152.58577,4,2,2,House,House,False,706,m2,False
2017300431,listing,/29-dellvene-crescent-rosewood-qld-4340-2017300431,182000,is-sold,Sold by private treaty 13 Oct 2021,20211013,29 Dellvene Crescent,ROSEWOOD,QLD,4340,-27.6343842,152.594742,,,,VacantLand,Vacant land,False,645,m2,False
2017305038,listing,/133-rosewood-marburg-road-rosewood-qld-4340-2017305038,235000,is-sold,Sold by private treaty 17 Oct 2021,20211017,133 Rosewood Marburg Road,ROSEWOOD,QLD,4340,-27.6254539,152.582016,2,1,2,House,House,False,809,m2,False
2017315400,listing,/5-birru-place-rosewood-qld-4340-2017315400,425000,is-sold,Sold by private treaty 19 Oct 2021,20211019,5 Birru Place,ROSEWOOD,QLD,4340,-27.6259384,152.5846,4,2,2,House,House,False,700,m2,False
2015611354,listing,/194-228-grandchester-mt-mort-road-grandchester-qld-4340-2015611354,257500,is-sold,Sold by private treaty 19 Aug 2021,20210819,194-228 Grandchester Mt Mort Road,GRANDCHESTER,QLD,4340,-27.6811657,152.4638,,,,VacantLand,Vacant land,False,307800,m2,False
2016333177,listing,/27-monarch-st-rosewood-qld-4340-2016333177,346000,is-sold,Sold by private treaty 06 Sep 2021,20210906,27 Monarch St,ROSEWOOD,QLD,4340,-27.6438026,152.602249,4,2,2,House,House,False,0,m2,False
2016336433,listing,/31-12-upper-john-street-rosewood-qld-4340-2016336433,148000,is-sold,Sold by private treaty 24 Aug 2021,20210824,31/12 Upper John Street,ROSEWOOD,QLD,4340,-27.6289883,152.5879,,,,VacantLand,Vacant land,False,807,m2,False
2016336640,listing,/8-4-vista-crescent-rosewood-qld-4340-2016336640,155000,is-sold,Sold by private treaty 08 Sep 2021,20210908,8/4 Vista Crescent,ROSEWOOD,QLD,4340,-27.6278343,152.584854,,,,VacantLand,Vacant land,False,620,m2,False
2016336816,listing,/4-13-vista-crescent-rosewood-qld-4340-2016336816,150000,is-sold,Sold by private treaty 26 Aug 2021,20210826,4/13 Vista Crescent,ROSEWOOD,QLD,4340,-27.6279926,152.584213,,,,VacantLand,Vacant land,False,939,m2,False
2016410473,listing,/81-131-mountain-scrub-road-tallegalla-qld-4340-2016410473,807500,is-sold,Sold by private treaty 17 Sep 2021,20210917,81-131 Mountain Scrub Road,TALLEGALLA,QLD,4340,-27.5840111,152.52626,4,2,2,House,House,False,582100,m2,False
2016453565,listing,/4-madden-lane-rosewood-qld-4340-2016453565,305000,is-sold,Sold by private treaty 30 Aug 2021,20210830,4 Madden Lane,ROSEWOOD,QLD,4340,-27.64527,152.595917,3,1,4,House,House,False,971,m2,False
2016540811,listing,/40-bergmans-road-ebenezer-qld-4340-2016540811,,is-sold,Sold 06 Sep 2021,20210906,40 Bergmans Road,EBENEZER,QLD,4340,-27.6691055,152.6363,4,1,9,House,House,False,165000,m2,False
2016699593,listing,/31-gipps-street-calvert-qld-4340-2016699593,225200,is-sold,Sold by private treaty 25 Aug 2021,20210825,31 Gipps Street,CALVERT,QLD,4340,-27.6658039,152.518265,2,1,2,House,House,False,2000,m2,False
2016966519,listing,/1218-karrabin-rosewood-rd-rosewood-qld-4340-2016966519,,is-sold,Sold by private treaty 10 Sep 2021,20210910,1218 Karrabin Rosewood Rd,ROSEWOOD,QLD,4340,-27.6304932,152.6007,,,,VacantLand,Vacant land,False,2024,m2,False
2017084640,listing,/44-yarrow-road-rosewood-qld-4340-2017084640,710000,is-sold,Sold by private treaty 06 Sep 2021,20210906,44 Yarrow Road,ROSEWOOD,QLD,4340,-27.6267681,152.614441,4,2,10,House,House,False,20300,m2,False
2017105446,listing,/12-vista-crescent-rosewood-qld-4340-2017105446,445000,is-sold,Sold by private treaty 25 Aug 2021,20210825,12 Vista Crescent,ROSEWOOD,QLD,4340,-27.6280632,152.5851,4,2,3,House,House,False,786,m2,False
2017150203,listing,/10-mary-crescent-rosewood-qld-4340-2017150203,460000,is-sold,Sold by private treaty 30 Aug 2021,20210830,10 Mary Crescent,ROSEWOOD,QLD,4340,-27.6322365,152.612549,4,2,2,House,House,False,465,m2,False
2017166156,listing,/60-dellvene-crescent-rosewood-qld-4340-2017166156,300000,is-sold,Sold by private treaty 16 Sep 2021,20210916,60 Dellvene Crescent,ROSEWOOD,QLD,4340,-27.6332932,152.59407,3,1,4,House,House,False,630,m2,False
2017176852,listing,/102-104-keates-rd-tallegalla-qld-4340-2017176852,,is-sold,Sold by private treaty 13 Sep 2021,20210913,102-104 Keates Rd,TALLEGALLA,QLD,4340,-27.6154442,152.563568,,,,VacantLand,Vacant land,True,32.38,ha,False
2017195875,listing,/48-lacewing-street-rosewood-qld-4340-2017195875,457500,is-sold,Sold by private treaty 02 Sep 2021,20210902,48 Lacewing Street,ROSEWOOD,QLD,4340,-27.6438313,152.604858,4,3,2,House,House,False,670,m2,False
2017216480,listing,/35-azure-street-rosewood-qld-4340-2017216480,185000,is-sold,Sold by private treaty 25 Aug 2021,20210825,35 Azure Street,ROSEWOOD,QLD,4340,-27.64176,152.602341,,,,VacantLand,Vacant land,False,600,m2,False
2017339812,listing,/10-claydon-place-rosewood-qld-4340-2017339812,410000,is-sold,Sold by private treaty 22 Aug 2021,20210822,10 Claydon Place,ROSEWOOD,QLD,4340,-27.6275539,152.583771,4,2,2,House,House,False,0,m2,False
2017446746,listing,/57-matthew-street-rosewood-qld-4340-2017446746,465000,is-sold,Sold by private treaty 28 Aug 2021,20210828,57 Matthew Street,ROSEWOOD,QLD,4340,-27.6371021,152.594315,2,1,2,House,House,False,0,m2,False
2017537012,listing,/6-normanton-close-rosewood-qld-4340-2017537012,398000,is-sold,Sold by private treaty 09 Sep 2021,20210909,6 Normanton Close,ROSEWOOD,QLD,4340,-27.626894,152.584808,4,2,2,House,House,False,1000,m2,False
2014067684,listing,/202-284-kuss-road-lanefield-qld-4340-2014067684,750000,is-sold,Sold by private treaty 21 Jul 2021,20210721,202-284 Kuss Road,LANEFIELD,QLD,4340,-27.6855431,152.54274,,,,Rural,Rural,True,76.48,ha,False
2016342434,listing,/20-78-kunkala-court-rosewood-qld-4340-2016342434,155000,is-sold,Sold by private treaty 16 Jul 2021,20210716,20/78 Kunkala Court,ROSEWOOD,QLD,4340,-27.6283531,152.585861,,,,VacantLand,Vacant land,False,1274,m2,False
2016940348,listing,/23-yates-street-rosewood-qld-4340-2016940348,250000,is-sold,Sold by private treaty 05 Jul 2021,20210705,23 Yates Street,ROSEWOOD,QLD,4340,-27.6341534,152.58577,3,1,2,House,House,False,971,m2,False
2017033925,listing,/70-88-freeman-rd-tallegalla-qld-4340-2017033925,,is-sold,Sold by private treaty 20 Jul 2021,20210720,70-88 Freeman Rd,TALLEGALLA,QLD,4340,-27.6071453,152.562851,,,,VacantLand,Vacant land,True,2.01,ha,False
2017041468,listing,/298-rosewood-marburg-rd-tallegalla-qld-4340-2017041468,555000,is-sold,Sold by private treaty 26 Jul 2021,20210726,298 Rosewood Marburg Rd,TALLEGALLA,QLD,4340,-27.6117439,152.579926,4,2,2,House,House,True,7.67,ha,False
2017046107,listing,/73-mill-street-rosewood-qld-4340-2017046107,275000,is-sold,Sold by private treaty 20 Jul 2021,20210720,73 Mill Street,ROSEWOOD,QLD,4340,-27.6416225,152.598633,4,1,1,House,House,False,2023,m2,False
2017048549,listing,/108-albert-st-rosewood-qld-4340-2017048549,310000,is-sold,Sold by private treaty 19 Jul 2021,20210719,108 Albert St,ROSEWOOD,QLD,4340,-27.6302986,152.586655,3,1,3,House,House,False,1153,m2,False
2017054614,listing,/44-albert-street-rosewood-qld-4340-2017054614,410000,is-sold,Sold by private treaty 12 Aug 2021,20210812,44 Albert Street,ROSEWOOD,QLD,4340,-27.6388721,152.590271,3,2,2,House,House,False,971,m2,False
2017055056,listing,/94-matthew-st-rosewood-qld-4340-2017055056,345000,is-sold,Sold by private treaty 19 Jul 2021,20210719,94 Matthew St,ROSEWOOD,QLD,4340,-27.6348324,152.5927,3,1,1,House,House,False,1383,m2,False
2017084585,listing,/6-walloon-road-rosewood-qld-4340-2017084585,275000,is-sold,Sold by private treaty 09 Aug 2021,20210809,6 Walloon Road,ROSEWOOD,QLD,4340,-27.633234,152.593353,2,1,1,House,House,False,1012,m2,False
2017096104,listing,/2-siding-court-rosewood-qld-4340-2017096104,388000,is-sold,Sold by private treaty 04 Aug 2021,20210804,2 Siding Court,ROSEWOOD,QLD,4340,-27.6240978,152.585358,3,2,2,House,House,False,600,m2,False
2017101552,listing,/41-higgs-rd-ebenezer-qld-4340-2017101552,635000,is-sold,Sold by private treaty 13 Aug 2021,20210813,41 Higgs Rd,EBENEZER,QLD,4340,-27.67757,152.62146,3,2,6,House,House,False,107000,m2,False
2017104087,listing,/8-william-street-rosewood-qld-4340-2017104087,265000,is-sold,Sold by private treaty 28 Jul 2021,20210728,8 William Street,ROSEWOOD,QLD,4340,-27.63927,152.594131,3,2,1,House,House,False,761,m2,False
2017128491,listing,/13-ahearn-st-rosewood-qld-4340-2017128491,220000,is-sold,Sold by private treaty 19 Jul 2021,20210719,13 Ahearn St,ROSEWOOD,QLD,4340,-27.6311,152.585312,2,1,1,House,House,False,1012,m2,False
2017135440,listing,/9-bassett-lane-rosewood-qld-4340-2017135440,345000,is-sold,Sold by private treaty 20 Jul 2021,20210720,9 Bassett Lane,ROSEWOOD,QLD,4340,-27.64422,152.601364,4,2,2,House,House,False,800,m2,False
2017135605,listing,/2-paten-rd-calvert-qld-4340-2017135605,799000,is-sold,Sold by private treaty 02 Aug 2021,20210802,2 Paten Rd,CALVERT,QLD,4340,-27.6886883,152.530441,,,,VacantLand,Vacant land,True,77.3,ha,False
2017139338,listing,/68-albert-st-rosewood-qld-4340-2017139338,375000,is-sold,Sold by private treaty 29 Jul 2021,20210729,68 Albert St,ROSEWOOD,QLD,4340,-27.6357689,152.588577,3,2,2,House,House,False,1133,m2,False
2017143512,listing,/29a-railway-street-rosewood-qld-4340-2017143512,331968,is-sold,Sold by private treaty 30 Jul 2021,20210730,29a Railway Street,ROSEWOOD,QLD,4340,-27.6429081,152.591354,4,1,2,House,House,False,525,m2,False
2017143900,listing,/14-claydon-place-rosewood-qld-4340-2017143900,400000,is-sold,Sold by private treaty 20 Jul 2021,20210720,14 Claydon Place,ROSEWOOD,QLD,4340,-27.627573,152.58403,4,2,4,House,House,False,912,m2,False
2017156844,listing,/7-makepeace-st-rosewood-qld-4340-2017156844,310000,is-sold,Sold by private treaty 06 Aug 2021,20210806,7 Makepeace St,ROSEWOOD,QLD,4340,-27.6375427,152.588638,3,1,2,House,House,False,875,m2,False
2015991213,listing,/392-kerwitz-road-rosevale-qld-4340-2015991213,765000,is-sold,Sold by private treaty 25 Jun 2021,20210625,392 Kerwitz Road,ROSEVALE,QLD,4340,-27.883894,152.447617,6,3,11,Rural,Rural,True,93.06,ha,False
2016125469,listing,/113-lairhopes-road-ebenezer-qld-4340-2016125469,500000,is-sold,Sold by private treaty 25 May 2021,20210525,113 Lairhopes Road,EBENEZER,QLD,4340,-27.6980343,152.592316,2,1,5,House,House,False,531100,m2,False
2016335028,listing,/26-98-kunkala-court-rosewood-qld-4340-2016335028,160000,is-sold,Sold by private treaty 21 Jun 2021,20210621,26/98 Kunkala Court,ROSEWOOD,QLD,4340,-27.6265335,152.584488,,,,VacantLand,Vacant land,False,901,m2,False
2016336574,listing,/28-6-upper-john-street-rosewood-qld-4340-2016336574,145000,is-sold,Sold by private treaty 28 May 2021,20210528,28/6 Upper John Street,ROSEWOOD,QLD,4340,-27.6289883,152.5879,,,,VacantLand,Vacant land,False,851,m2,False
2016336616,listing,/17-66-kunkala-court-rosewood-qld-4340-2016336616,148000,is-sold,Sold by private treaty 03 Jun 2021,20210603,17/66 Kunkala Court,ROSEWOOD,QLD,4340,-27.6280537,152.585632,,,,VacantLand,Vacant land,False,698,m2,False
2016336741,listing,/21-80-kunkala-court-rosewood-qld-4340-2016336741,160000,is-sold,Sold by private treaty 07 May 2021,20210507,21/80 Kunkala Court,ROSEWOOD,QLD,4340,-27.6284065,152.585892,,,,VacantLand,Vacant land,False,1247,m2,False
2016391265,listing,/christensen-mount-walker-qld-4340-2016391265,860000,is-sold,Sold by private treaty 18 Jun 2021,20210618,Christensen,MOUNT WALKER,QLD,4340,-27.7541332,152.563889,4,2,12,AcreageSemiRural,Acreage / Semi-Rural,True,40.87,ha,False
2016457392,listing,/38-kunkala-ct-rosewood-qld-4340-2016457392,320000,is-sold,Sold by private treaty 14 May 2021,20210514,38 Kunkala Ct,ROSEWOOD,QLD,4340,-27.6269112,152.584488,4,2,2,House,House,False,700,m2,False
2016513770,listing,/47-albert-st-rosewood-qld-4340-2016513770,270000,is-sold,Sold by private treaty 19 May 2021,20210519,47 Albert St,ROSEWOOD,QLD,4340,-27.6369534,152.59021,3,1,1,House,House,False,804,m2,False
2016724793,listing,/40-bergmans-road-ebenezer-qld-4340-2016724793,840000,is-sold,Sold by private treaty 11 May 2021,20210511,40 Bergmans Road,EBENEZER,QLD,4340,-27.6691055,152.6363,4,2,2,Rural,Rural,True,17,ha,False
2016828215,listing,/51-gipps-st-calvert-qld-4340-2016828215,245000,is-sold,Sold by private treaty 11 May 2021,20210511,51 Gipps St,CALVERT,QLD,4340,-27.6665268,152.520248,3,1,2,House,House,False,2023,m2,False
2016883909,listing,/81-john-street-rosewood-qld-4340-2016883909,350000,is-sold,Sold by private treaty 07 May 2021,20210507,81 John Street,ROSEWOOD,QLD,4340,-27.6313915,152.589264,3,1,2,House,House,False,1138,m2,False
2016934968,listing,/22-upper-john-street-rosewood-qld-4340-2016934968,425000,is-sold,Sold by private treaty 24 May 2021,20210524,22 Upper John Street,ROSEWOOD,QLD,4340,-27.6273441,152.586929,4,1,2,House,House,False,4047,m2,False
2016962832,listing,/840-876-rosewood-warrill-view-road-lower-mount-walker-qld-4340-2016962832,699000,is-sold,Sold by private treaty 15 Jun 2021,20210615,840-876 Rosewood Warrill View Road,LOWER MOUNT WALKER,QLD,4340,-27.7055683,152.562531,4,2,2,Rural,Rural,True,16,ha,False
2016969687,listing,/10-lacewing-street-rosewood-qld-4340-2016969687,335000,is-sold,Sold by private treaty 02 Jul 2021,20210702,10 Lacewing Street,ROSEWOOD,QLD,4340,-27.6443348,152.602158,4,2,2,House,House,False,700,m2,False
2016972103,listing,/110-keates-rd-ashwell-qld-4340-2016972103,302000,is-sold,Sold by private treaty 31 May 2021,20210531,110 Keates Rd,ASHWELL,QLD,4340,-27.61497,152.564041,,,,VacantLand,Vacant land,True,2.49,ha,False
2016972832,listing,/124-140-rosewood-laidley-road-rosewood-qld-4340-2016972832,305000,is-sold,Sold by private treaty 08 Jun 2021,20210608,124-140 Rosewood Laidley Road,ROSEWOOD,QLD,4340,-27.642477,152.5791,,,,Rural,Rural,True,20.23,ha,False
2017013310,listing,/2-tarome-road-moorang-qld-4340-2017013310,450000,is-sold,Sold by private treaty 28 Jun 2021,20210628,2 Tarome Road,MOORANG,QLD,4340,-27.9797535,152.539368,,,,Rural,Rural,True,28.09,ha,False
2017042621,listing,/3-dellvene-cres-rosewood-qld-4340-2017042621,320000,is-sold,Sold by private treaty 08 Jun 2021,20210608,3 Dellvene Cres,ROSEWOOD,QLD,4340,-27.6331272,152.594635,4,1,2,House,House,False,610,m2,False
2017083228,listing,/49-bernadette-crescent-rosewood-qld-4340-2017083228,290000,is-sold,Sold by private treaty 16 Jun 2021,20210616,49 Bernadette Crescent,ROSEWOOD,QLD,4340,-27.635931,152.59491,4,1,1,House,House,False,655,m2,False
2014515261,listing,/697-713-rosewood-warrill-view-road-lower-mount-walker-qld-4340-2014515261,560000,is-sold,Sold by private treaty 07 Apr 2021,20210407,697-713 Rosewood Warrill View Road,LOWER MOUNT WALKER,QLD,4340,-27.69247,152.5662,,,,VacantLand,Vacant land,False,400100,m2,False
2014628059,listing,/169-189-keates-rd-tallegalla-qld-4340-2014628059,461000,is-sold,Sold by private treaty 26 Mar 2021,20210326,169-189 Keates Rd,TALLEGALLA,QLD,4340,-27.610096,152.5675,,,,VacantLand,Vacant land,True,16,ha,False
2015828077,listing,/107-ipswich-st-grandchester-qld-4340-2015828077,235000,is-sold,Sold by private treaty 27 Apr 2021,20210427,107 Ipswich St,GRANDCHESTER,QLD,4340,-27.6618042,152.463516,3,1,3,House,House,False,746,m2,False
2016336354,listing,/11-16-vista-crescent-rosewood-qld-4340-2016336354,155000,is-sold,Sold by private treaty 28 Apr 2021,20210428,11/16 Vista Crescent,ROSEWOOD,QLD,4340,-27.6285419,152.586044,,,,VacantLand,Vacant land,False,660,m2,False
2016473641,listing,/16-waight-street-rosewood-qld-4340-2016473641,260000,is-sold,Sold by private treaty 16 Apr 2021,20210416,16 Waight Street,ROSEWOOD,QLD,4340,-27.6300373,152.586273,3,2,4,House,House,False,921,m2,False
2016560340,listing,/83-sippels-road-grandchester-qld-4340-2016560340,457000,is-sold,Sold by private treaty 29 Mar 2021,20210329,83 Sippels Road,GRANDCHESTER,QLD,4340,-27.6718636,152.468323,2,1,4,House,House,True,8.09,ha,False
2016594506,listing,/111-matthew-street-rosewood-qld-4340-2016594506,435000,is-sold,Sold by private treaty 08 Apr 2021,20210408,111 Matthew Street,ROSEWOOD,QLD,4340,-27.63366,152.592865,6,2,3,House,House,False,877,m2,False
2016596147,listing,/4-church-lane-rosewood-qld-4340-2016596147,237000,is-sold,Sold by private treaty 15 Apr 2021,20210415,4 Church Lane,ROSEWOOD,QLD,4340,-27.63804,152.590729,3,1,1,House,House,False,766,m2,False
2016604835,listing,/9-perrys-crescent-rosewood-qld-4340-2016604835,324000,is-sold,Sold by private treaty 12 Apr 2021,20210412,9 Perrys Crescent,ROSEWOOD,QLD,4340,-27.62581,152.585266,4,2,2,House,House,False,700,m2,False
2016609888,listing,/14-laglan-lane-tallegalla-qld-4340-2016609888,840000,is-sold,Sold by private treaty 14 Apr 2021,20210414,14 Laglan Lane,TALLEGALLA,QLD,4340,-27.5859718,152.54097,3,2,9,House,House,True,5.25,ha,False
2016658642,listing,/3-bernadette-cres-rosewood-qld-4340-2016658642,280000,is-sold,Sold by private treaty 25 Mar 2021,20210325,3 Bernadette Cres,ROSEWOOD,QLD,4340,-27.6377659,152.597076,3,1,1,House,House,False,835,m2,False
2016694723,listing,/lot-1-dawson-road-rosevale-qld-4340-2016694723,655000,is-sold,Sold by private treaty 30 Apr 2021,20210430,Lot 1 Dawson Road,ROSEVALE,QLD,4340,-27.8496933,152.477356,,,,VacantLand,Vacant land,True,64.85,ha,False
2016702833,listing,/20-waight-st-rosewood-qld-4340-2016702833,310000,is-sold,Sold by private treaty 21 Apr 2021,20210421,20 Waight St,ROSEWOOD,QLD,4340,-27.6297245,152.5854,4,1,6,House,House,False,994,m2,False
2016842280,listing,/8-makepeace-st-rosewood-qld-4340-2016842280,360000,is-sold,Sold by private treaty 26 Mar 2021,20210326,8 Makepeace st,ROSEWOOD,QLD,4340,-27.6379013,152.5889,3,2,4,House,House,False,693,m2,False
2016844110,listing,/52-dellvene-crescent-rosewood-qld-4340-2016844110,296000,is-sold,Sold by private treaty 26 Apr 2021,20210426,52 Dellvene Crescent,ROSEWOOD,QLD,4340,-27.6339188,152.594,3,1,4,House,House,False,638,m2,False
2016851984,listing,/225-253-mill-street-rosewood-qld-4340-2016851984,310000,is-sold,Sold by private treaty 27 Apr 2021,20210427,225-253 Mill Street,ROSEWOOD,QLD,4340,-27.6354,152.6141,,,,VacantLand,Vacant land,False,10950000,m2,False
2016862618,listing,/20-walloon-road-rosewood-qld-4340-2016862618,305000,is-sold,Sold by private treaty 27 Apr 2021,20210427,20 Walloon Road,ROSEWOOD,QLD,4340,-27.6336575,152.591965,3,1,2,House,House,False,1012,m2,False
2016926954,listing,/8-mary-crescent-rosewood-qld-4340-2016926954,428400,is-sold,Sold by private treaty 22 Apr 2021,20210422,8 Mary Crescent,ROSEWOOD,QLD,4340,-27.6320229,152.612,4,2,2,House,House,False,589,m2,False
2016987670,listing,/7-albert-st-rosewood-qld-4340-2016987670,292500,is-sold,Sold by private treaty 06 May 2021,20210506,7 Albert St,ROSEWOOD,QLD,4340,-27.641325,152.591873,3,1,2,House,House,False,1110,m2,False
2017537002,listing,/4-church-lane-rosewood-qld-4340-2017537002,237000,is-sold,Sold by private treaty 12 Apr 2021,20210412,4 Church Lane,ROSEWOOD,QLD,4340,-27.63804,152.590729,3,1,1,House,House,False,766,m2,False
2015309360,listing,/287-henderson-road-lanefield-qld-4340-2015309360,850000,is-sold,Sold by private treaty 02 Feb 2021,20210202,287 HENDERSON ROAD,LANEFIELD,QLD,4340,-27.633831,152.529282,4,1,2,House,House,False,404685,m2,False
2015534910,listing,/94-john-street-rosewood-qld-4340-2015534910,225000,is-sold,Sold by private treaty 08 Feb 2021,20210208,94 JOHN STREET,ROSEWOOD,QLD,4340,-27.6345978,152.58989,2,1,1,House,House,False,1031,m2,False
2016318644,listing,/5-yates-st-rosewood-qld-4340-2016318644,275000,is-sold,Sold by private treaty 19 Mar 2021,20210319,5 Yates St,ROSEWOOD,QLD,4340,-27.6335,152.587662,3,1,2,House,House,False,1012,m2,False
2016336459,listing,/29-8-upper-john-street-rosewood-qld-4340-2016336459,155000,is-sold,Sold by private treaty 22 Feb 2021,20210222,29/8 Upper John Street,ROSEWOOD,QLD,4340,-27.6289883,152.5879,,,,VacantLand,Vacant land,False,801,m2,False
2016336594,listing,/14-69-kunkala-court-rosewood-qld-4340-2016336594,148000,is-sold,Sold by private treaty 29 Jan 2021,20210129,14/69 Kunkala Court,ROSEWOOD,QLD,4340,-27.6281223,152.5857,,,,VacantLand,Vacant land,False,659,m2,False
2016364865,listing,/5-bernadette-crescent-rosewood-qld-4340-2016364865,375000,is-sold,Sold by private treaty 25 Jan 2021,20210125,5 Bernadette Crescent,ROSEWOOD,QLD,4340,-27.6375523,152.597015,4,2,2,Duplex,Duplex,False,835,m2,False
2016487044,listing,/41-hornbuckles-road-west-grandchester-qld-4340-2016487044,740000,is-sold,Sold by private treaty 24 Mar 2021,20210324,41 Hornbuckles Road West,GRANDCHESTER,QLD,4340,-27.6878052,152.464127,5,2,10,House,House,False,144500,m2,False
2016518110,listing,/45-mill-street-rosewood-qld-4340-2016518110,240000,is-sold,Sold by private treaty 21 Jan 2021,20210121,45 Mill Street,ROSEWOOD,QLD,4340,-27.6429615,152.596344,3,1,1,House,House,False,1021,m2,False
2016544857,listing,/380-rosewood-laidley-rd-lanefield-qld-4340-2016544857,455000,is-sold,Sold by private treaty 10 Mar 2021,20210310,380 Rosewood Laidley Rd,LANEFIELD,QLD,4340,-27.6477947,152.554291,3,1,6,House,House,False,32400,m2,False
2016567314,listing,/42-kunkala-ct-rosewood-qld-4340-2016567314,310000,is-sold,Sold by private treaty 15 Feb 2021,20210215,42 Kunkala Ct,ROSEWOOD,QLD,4340,-27.6270962,152.584579,4,2,2,House,House,False,700,m2,False
2016633179,listing,/14-forest-ridge-cr-mount-mort-qld-4340-2016633179,590000,is-sold,Sold by private treaty 01 Feb 2021,20210201,14 Forest Ridge Cr,MOUNT MORT,QLD,4340,-27.741003,152.486969,4,2,6,House,House,False,169967,m2,False
2016670518,listing,/177-matthew-street-rosewood-qld-4340-2016670518,280000,is-sold,Sold by private treaty 02 Mar 2021,20210302,177 Matthew Street,ROSEWOOD,QLD,4340,-27.6284657,152.590591,3,1,1,House,House,False,807,m2,False
2016718578,listing,/7-m-hines-road-cnr-goebels-rd-mount-forbes-qld-4340-2016718578,465000,is-sold,Sold by private treaty 02 Feb 2021,20210202,7 M Hines Road (Cnr Goebels Rd),MOUNT FORBES,QLD,4340,-27.7194061,152.622055,3,1,3,Rural,Rural,True,2.02,ha,False
2016720906,listing,/31-dellvene-crescent-rosewood-qld-4340-2016720906,365000,is-sold,Sold by private treaty 08 Feb 2021,20210208,31 Dellvene Crescent,ROSEWOOD,QLD,4340,-27.63423,152.59465,4,2,3,House,House,False,671,m2,False
2016770468,listing,/100-grants-rd-lower-mount-walker-qld-4340-2016770468,620000,is-sold,Sold by private treaty 16 Feb 2021,20210216,100 Grants Rd,LOWER MOUNT WALKER,QLD,4340,-27.7026749,152.528046,4,2,3,Rural,Rural,True,16.02,ha,False
2016776492,listing,/52-72-starks-road-tallegalla-qld-4340-2016776492,600000,is-sold,Sold by private treaty 22 Mar 2021,20210322,52-72 Starks Road,TALLEGALLA,QLD,4340,-27.5692768,152.5598,3,1,10,Rural,Rural,True,3.6,ha,False
2016780316,listing,/4-berlin-st-rosewood-qld-4340-2016780316,250000,is-sold,Sold by private treaty 01 Mar 2021,20210301,4 Berlin St,ROSEWOOD,QLD,4340,-27.6303616,152.590179,3,1,4,House,House,False,1012,m2,False
2016787688,listing,/65-mill-street-rosewood-qld-4340-2016787688,200000,is-sold,Sold by private treaty 16 Mar 2021,20210316,65 Mill Street,ROSEWOOD,QLD,4340,-27.6418781,152.597839,2,1,2,House,House,False,674,m2,False
2016823320,listing,/2-just-street-rosewood-qld-4340-2016823320,407500,is-sold,Sold by private treaty 13 Mar 2021,20210313,2 Just Street,ROSEWOOD,QLD,4340,-27.631916,152.586975,3,1,3,House,House,False,1012,m2,False
2016836269,listing,/rosewood-qld-4340-2016836269,320000,is-sold,Sold by private treaty 10 Feb 2021,20210210,,ROSEWOOD,QLD,4340,-27.63875,152.592865,4,2,2,House,House,False,738,m2,False
2014630781,listing,/437-477-rosewood-marburg-rd-tallegalla-qld-4340-2014630781,350000,is-sold,Sold by private treaty 17 Dec 2020,20201217,437-477 Rosewood Marburg Rd,TALLEGALLA,QLD,4340,-27.602663,152.5758,,,,VacantLand,Vacant land,True,4.24,ha,False
2014959589,listing,/287-bakers-road-grandchester-qld-4340-2014959589,875000,is-sold,Sold by private treaty 25 Nov 2020,20201125,287 Bakers Road,GRANDCHESTER,QLD,4340,-27.69471,152.4441,6,3,8,Rural,Rural,True,65.15,ha,False
2015037421,listing,/262-tallegalla-two-tree-hill-road-tallegalla-qld-4340-2015037421,470000,is-sold,Sold by private treaty 12 Jan 2021,20210112,262 Tallegalla Two Tree Hill Road,TALLEGALLA,QLD,4340,-27.5727615,152.562057,,,,VacantLand,Vacant land,True,14.45,ha,False
2015346309,listing,/14-azure-street-rosewood-qld-4340-2015346309,312500,is-sold,Sold by private treaty 25 Nov 2020,20201125,14 Azure Street,ROSEWOOD,QLD,4340,-27.6428452,152.602478,4,2,2,House,House,False,600,m2,False
2016321378,listing,/216-greet-rd-the-bluff-qld-4340-2016321378,435000,is-sold,Sold by private treaty 23 Dec 2020,20201223,216 Greet Rd,THE BLUFF,QLD,4340,-27.622385,152.529434,3,1,2,House,House,False,5813,m2,False
2016336385,listing,/33-14a-upper-john-street-rosewood-qld-4340-2016336385,157000,is-sold,Sold by private treaty 07 Dec 2020,20201207,33/14A Upper John Street,ROSEWOOD,QLD,4340,-27.6285419,152.586044,,,,VacantLand,Vacant land,False,1116,m2,False
2016336445,listing,/2-12-ipswich-st-grandchester-qld-4340-2016336445,557500,is-sold,Sold by private treaty 21 Dec 2020,20201221,2-12 Ipswich St,GRANDCHESTER,QLD,4340,-27.6618023,152.472931,4,2,7,House,House,False,25700,m2,False
2016462528,listing,/102-john-street-rosewood-qld-4340-2016462528,508000,is-sold,Sold by private treaty 26 Nov 2020,20201126,102 John Street,ROSEWOOD,QLD,4340,-27.6332169,152.58931,4,2,3,House,House,False,1015,m2,False
2016491684,listing,/2-walloon-rd-rosewood-qld-4340-2016491684,270000,is-sold,Sold by private treaty 18 Dec 2020,20201218,2 Walloon Rd,ROSEWOOD,QLD,4340,-27.6330986,152.59375,3,2,1,House,House,False,700,m2,False
2016494287,listing,/4-mill-lane-rosewood-qld-4340-2016494287,265000,is-sold,Sold by private treaty 11 Jan 2021,20210111,4 Mill Lane,ROSEWOOD,QLD,4340,-27.6410389,152.596283,3,1,2,House,House,False,632,m2,False
2016513792,listing,/47a-albert-street-rosewood-qld-4340-2016513792,160000,is-sold,Sold by private treaty 15 Jan 2021,20210115,47A Albert Street,ROSEWOOD,QLD,4340,-27.6369534,152.59021,,,,VacantLand,Vacant land,False,1215,m2,False
2016539173,listing,/51-matthew-street-rosewood-qld-4340-2016539173,411000,is-sold,Sold by private treaty 19 Jan 2021,20210119,51 Matthew Street,ROSEWOOD,QLD,4340,-27.6375332,152.5945,3,2,2,House,House,False,1042,m2,False
2016558202,listing,/173-access-road-rosevale-qld-4340-2016558202,315000,is-sold,Sold by private treaty 08 Jan 2021,20210108,173 Access Road,ROSEVALE,QLD,4340,-27.8868179,152.495682,2,1,3,Rural,Rural,True,10000,m2,False
2016577897,listing,/6-dellvene-cres-rosewood-qld-4340-2016577897,320000,is-sold,Sold by private treaty 24 Dec 2020,20201224,6 Dellvene Cres,ROSEWOOD,QLD,4340,-27.6329937,152.595,4,2,2,House,House,False,738,m2,False
2016590080,listing,/lot-90-greet-road-the-bluff-qld-4340-2016590080,305000,is-sold,Sold at auction 27 Nov 2020,20201127,Lot 90 Greet Road,THE BLUFF,QLD,4340,-27.62339,152.527786,,,,Rural,Rural,True,1.01,ha,False
2016595287,listing,/16-madden-lane-rosewood-qld-4340-2016595287,225000,is-sold,Sold by private treaty 19 Jan 2021,20210119,16 Madden Lane,ROSEWOOD,QLD,4340,-27.6450253,152.594772,3,1,1,House,House,False,1012,m2,False
2016634434,listing,/11-bassett-lane-rosewood-qld-4340-2016634434,320000,is-sold,Sold by private treaty 22 Dec 2020,20201222,11 Bassett Lane,ROSEWOOD,QLD,4340,-27.6439838,152.6014,4,2,2,House,House,False,801,m2,False
2016658724,listing,/64-albert-street-rosewood-qld-4340-2016658724,185000,is-sold,Sold by private treaty 16 Dec 2020,20201216,64 Albert Street,ROSEWOOD,QLD,4340,-27.6361732,152.58905,,,,VacantLand,Vacant land,False,1012,m2,False
2016663957,listing,/lot-135-bakers-road-grandchester-qld-4340-2016663957,260000,is-sold,Sold by private treaty 25 Nov 2020,20201125,Lot 135 Bakers Road,GRANDCHESTER,QLD,4340,-27.6876717,152.451874,,,,VacantLand,Vacant land,True,32.78,ha,False
2016699902,listing,/39-dellvene-cres-rosewood-qld-4340-2016699902,310000,is-sold,Sold by private treaty 05 Jan 2021,20210105,39 Dellvene Cres,ROSEWOOD,QLD,4340,-27.6336174,152.59436,4,1,2,House,House,False,663,m2,False
2013655739,listing,/83a-matthew-street-rosewood-qld-4340-2013655739,135000,is-sold,Sold by private treaty 02 Nov 2020,20201102,83A Matthew Street,ROSEWOOD,QLD,4340,-27.6353951,152.594,,,,VacantLand,Vacant land,False,639,m2,False
2014151389,listing,/13-normanton-close-rosewood-qld-4340-2014151389,155000,is-sold,Sold by private treaty 30 Oct 2020,20201030,13 Normanton Close,ROSEWOOD,QLD,4340,-27.627161,152.5854,,,,VacantLand,Vacant land,False,700,m2,False
2014670872,listing,/237-keates-rd-tallegalla-qld-4340-2014670872,,is-sold,Sold by private treaty 12 Nov 2020,20201112,237 Keates Rd,TALLEGALLA,QLD,4340,-27.6093655,152.564545,,,,VacantLand,Vacant land,True,1.93,ha,False
2015248093,listing,/25-matthew-st-rosewood-qld-4340-2015248093,245000,is-sold,Sold by private treaty 06 Oct 2020,20201006,25 Matthew St,ROSEWOOD,QLD,4340,-27.639576,152.595367,3,1,,House,House,False,700,m2,False
2015601717,listing,/51-symes-st-grandchester-qld-4340-2015601717,250000,is-sold,Sold by private treaty 16 Oct 2020,20201016,51 Symes St,GRANDCHESTER,QLD,4340,-27.6607265,152.462875,3,1,4,House,House,False,1774,m2,False
2016336635,listing,/lot-1-3-vista-crescent-rosewood-qld-4340-2016336635,145000,is-sold,Sold by private treaty 20 Oct 2020,20201020,Lot 1/3 Vista Crescent,ROSEWOOD,QLD,4340,-27.6278248,152.586609,,,,VacantLand,Vacant land,False,900,m2,False
2016336710,listing,/18-70-kunkala-court-rosewood-qld-4340-2016336710,180000,is-sold,Sold by private treaty 09 Nov 2020,20201109,18/70 Kunkala Court,ROSEWOOD,QLD,4340,-27.6281452,152.585724,,,,VacantLand,Vacant land,False,1125,m2,False
2016349547,listing,/14-makepeace-street-rosewood-qld-4340-2016349547,256000,is-sold,Sold by private treaty 23 Nov 2020,20201123,14 Makepeace Street,ROSEWOOD,QLD,4340,-27.6380768,152.588425,3,1,4,House,House,False,708,m2,False
2016360164,listing,/56-dellvene-cres-rosewood-qld-4340-2016360164,279000,is-sold,Sold by private treaty 16 Oct 2020,20201016,56 Dellvene Cres,ROSEWOOD,QLD,4340,-27.6335945,152.593857,4,1,2,House,House,False,873,m2,False
2016367166,listing,/146-grants-rd-lower-mount-walker-qld-4340-2016367166,597500,is-sold,Sold by private treaty 27 Oct 2020,20201027,146 GRANTS RD,LOWER MOUNT WALKER,QLD,4340,-27.7020168,152.524048,4,1,10,House,House,False,160300,m2,False
2016379435,listing,/71-mill-street-rosewood-qld-4340-2016379435,287500,is-sold,Sold by private treaty 26 Oct 2020,20201026,71 Mill Street,ROSEWOOD,QLD,4340,-27.6416588,152.598389,2,1,1,House,House,False,2023,m2,False
2016402779,listing,/17-alfred-st-grandchester-qld-4340-2016402779,455000,is-sold,Sold by private treaty 02 Nov 2020,20201102,17 Alfred St,GRANDCHESTER,QLD,4340,-27.6586323,152.468277,4,1,8,House,House,False,7258,m2,False
2016403419,listing,/24-kunkala-ct-rosewood-qld-4340-2016403419,380000,is-sold,Sold by private treaty 07 Oct 2020,20201007,24 Kunkala Ct,ROSEWOOD,QLD,4340,-27.6265755,152.58461,4,2,2,House,House,False,800,m2,False
2016437333,listing,/106-john-st-rosewood-qld-4340-2016437333,265000,is-sold,Sold by private treaty 06 Oct 2020,20201006,106 John St,ROSEWOOD,QLD,4340,-27.63287,152.589264,3,2,2,House,House,False,1196,m2,False
2016451970,listing,/1-yates-street-rosewood-qld-4340-2016451970,215000,is-sold,Sold by private treaty 26 Oct 2020,20201026,1 YATES STREET,ROSEWOOD,QLD,4340,-27.6334076,152.588028,3,1,2,House,House,False,1012,m2,False
2016457651,listing,/461-rosewood-laidley-rd-lanefield-qld-4340-2016457651,1160000,is-sold,Sold by private treaty 08 Oct 2020,20201008,461 Rosewood Laidley Rd,LANEFIELD,QLD,4340,-27.6481838,152.54155,3,1,6,Rural,Rural,True,80.4,ha,False
2016472656,listing,/92-john-st-rosewood-qld-4340-2016472656,550000,is-sold,Sold by private treaty 22 Oct 2020,20201022,92 John St,ROSEWOOD,QLD,4340,-27.6350555,152.589645,6,2,6,House,House,False,4240,m2,False
2016481440,listing,/1142-1126-mount-walker-west-road-mount-walker-west-qld-4340-2016481440,,is-sold,Sold by private treaty 29 Oct 2020,20201029,1142/1126 Mount Walker West Road,MOUNT WALKER WEST,QLD,4340,-27.7693348,152.503723,3,2,35,Rural,Rural,True,214.7,ha,False
2016513209,listing,/24-waight-st-rosewood-qld-4340-2016513209,335000,is-sold,Sold by private treaty 02 Nov 2020,20201102,24 Waight St,ROSEWOOD,QLD,4340,-27.6296139,152.585083,3,2,2,House,House,False,1012,m2,False
2016536690,listing,/536-hiddenvale-rd-calvert-qld-4340-2016536690,960000,is-sold,Sold by private treaty 21 Oct 2020,20201021,536 Hiddenvale Rd,CALVERT,QLD,4340,-27.7047539,152.49263,2,1,8,Rural,Rural,True,80.92,ha,False
2013589046,listing,/lot-7-rosewood-warrill-view-road-lower-mount-walker-qld-4340-2013589046,399000,is-sold,Sold by private treaty 22 Aug 2020,20200822,Lot 7 RosewoodWarrill View Road,LOWER MOUNT WALKER,QLD,4340,-27.64652,152.591034,,,,VacantLand,Vacant land,False,161874,m2,False
2014144297,listing,/55-albert-street-rosewood-qld-4340-2014144297,305000,is-sold,Sold by private treaty 27 Aug 2020,20200827,55 Albert Street,ROSEWOOD,QLD,4340,-27.6356831,152.589584,3,1,2,House,House,False,2031,m2,False
2015420205,listing,/5-siding-crt-rosewood-qld-4340-2015420205,280000,is-sold,Sold by private treaty 18 Sep 2020,20200918,5 Siding Crt,ROSEWOOD,QLD,4340,-27.62457,152.585449,4,2,2,House,House,False,650,m2,False
2015502004,listing,/23-matthew-st-rosewood-qld-4340-2015502004,360000,is-sold,Sold by private treaty 25 Sep 2020,20200925,23 Matthew St,ROSEWOOD,QLD,4340,-27.63969,152.5955,4,2,2,House,House,False,1659,m2,False
2015641181,listing,/183-185-mill-street-rosewood-qld-4340-2015641181,415000,is-sold,Sold by private treaty 25 Sep 2020,20200925,183-185 Mill Street,ROSEWOOD,QLD,4340,-27.64076,152.608383,4,2,4,House,House,True,2.14,ha,False
2015696418,listing,/5-dellvene-cres-rosewood-qld-4340-2015696418,255000,is-sold,Sold by private treaty 29 Jul 2020,20200729,5 Dellvene Cres,ROSEWOOD,QLD,4340,-27.6335163,152.594681,4,1,1,House,House,False,663,m2,False
2016109130,listing,/7-school-rd-grandchester-qld-4340-2016109130,255000,is-sold,Sold by private treaty 28 Jul 2020,20200728,7 School Rd,GRANDCHESTER,QLD,4340,-27.6652,152.462219,2,1,3,House,House,True,2.02,ha,False
2016125582,listing,/271-stevens-road-ashwell-qld-4340-2016125582,1300000,is-sold,Sold by private treaty 25 Aug 2020,20200825,271 Stevens Road,ASHWELL,QLD,4340,-27.62189,152.545029,4,3,7,House,House,False,696059,m2,False
2016138648,listing,/160-mount-walker-west-road-lower-mount-walker-qld-4340-2016138648,1175000,is-sold,Sold by private treaty 05 Sep 2020,20200905,160 Mount Walker West Road,LOWER MOUNT WALKER,QLD,4340,-27.70153,152.5461,5,2,11,Rural,Rural,True,56.94,ha,False
2016201791,listing,/210-hornbuckles-rd-calvert-qld-4340-2016201791,430000,is-sold,Sold by private treaty 24 Jul 2020,20200724,210 Hornbuckles Rd,CALVERT,QLD,4340,-27.6915932,152.491364,2,1,5,AcreageSemiRural,Acreage / Semi-Rural,True,13.46,ha,False
2016281226,listing,/lot-1-jensen-west-lane-rosevale-qld-4340-2016281226,400000,is-sold,Sold by private treaty 25 Sep 2020,20200925,Lot 1 Jensen West Lane,ROSEVALE,QLD,4340,-27.8522167,152.481857,5,1,6,Rural,Rural,True,21.8,ha,False
2016281341,listing,/lot-2-jensen-west-lane-rosevale-qld-4340-2016281341,460000,is-sold,Sold by private treaty 25 Sep 2020,20200925,Lot 2 Jensen West Lane,ROSEVALE,QLD,4340,-27.8522167,152.481857,,,,Rural,Rural,True,20.83,ha,False
2016282444,listing,/2-ahearn-street-rosewood-qld-4340-2016282444,305000,is-sold,Sold by private treaty 10 Aug 2020,20200810,2 Ahearn Street,ROSEWOOD,QLD,4340,-27.63112,152.5866,3,2,2,House,House,False,809,m2,False
2016334627,listing,/21-royal-george-lane-rosewood-qld-4340-2016334627,380000,is-sold,Sold by private treaty 29 Jul 2020,20200729,21 Royal George Lane,ROSEWOOD,QLD,4340,-27.64181,152.5909,3,2,2,House,House,False,835,m2,False
2016339112,listing,/33-park-rd-grandchester-qld-4340-2016339112,467000,is-sold,Sold by private treaty 18 Aug 2020,20200818,33 Park Rd,GRANDCHESTER,QLD,4340,-27.6563358,152.47052,3,2,5,House,House,True,2.02,ha,False
2016366471,listing,/rosewood-qld-4340-2016366471,,is-sold,Sold by private treaty 17 Sep 2020,20200917,,ROSEWOOD,QLD,4340,-27.63875,152.592865,4,3,2,House,House,False,703,m2,False
2016405480,listing,/15-matthew-st-rosewood-qld-4340-2016405480,385000,is-sold,Sold by private treaty 26 Sep 2020,20200926,15 Matthew St,ROSEWOOD,QLD,4340,-27.6404057,152.595688,3,2,4,House,House,False,1658,m2,False
2016422336,listing,/22-bernadette-cres-rosewood-qld-4340-2016422336,270000,is-sold,Sold by private treaty 10 Sep 2020,20200910,22 Bernadette Cres,ROSEWOOD,QLD,4340,-27.636198,152.595963,3,1,,House,House,False,630,m2,False
2016482893,listing,/146-henderson-rd-lanefield-qld-4340-2016482893,415000,is-sold,Sold by private treaty 01 Oct 2020,20201001,146 Henderson Rd,LANEFIELD,QLD,4340,-27.6438046,152.536545,3,1,3,House,House,False,161874,m2,False
2016487727,listing,/126-matthew-street-rosewood-qld-4340-2016487727,350000,is-sold,Sold by private treaty 04 Oct 2020,20201004,126 Matthew Street,ROSEWOOD,QLD,4340,-27.632761,152.591919,3,2,5,House,House,False,981,m2,False
2013959176,listing,/879-930-rosewood-laidley-road-calvert-qld-4340-2013959176,150000,is-sold,Sold by private treaty 22 Jul 2020,20200722,879-930 Rosewood-Laidley Road,CALVERT,QLD,4340,-27.6571827,152.505768,,,,VacantLand,Vacant land,True,16.18,ha,False
2014874600,listing,/422-sugarloaf-road-mount-forbes-qld-4340-2014874600,490000,is-sold,Sold by private treaty 22 Jul 2020,20200722,422 Sugarloaf Road,MOUNT FORBES,QLD,4340,-27.7459679,152.618973,3,1,4,AcreageSemiRural,Acreage / Semi-Rural,True,7.71,ha,False
2015406878,listing,/3-albert-street-rosewood-qld-4340-2015406878,160000,is-sold,Sold by private treaty 17 Jul 2020,20200717,3 Albert Street,ROSEWOOD,QLD,4340,-27.64173,152.592072,,,,VacantLand,Vacant land,False,701,m2,False
2015756389,listing,/87-kunkala-ct-rosewood-qld-4340-2015756389,160000,is-sold,Sold by private treaty 10 Jul 2020,20200710,87 Kunkala Ct,ROSEWOOD,QLD,4340,-27.6278381,152.584824,,,,VacantLand,Vacant land,False,901,m2,False
2015854383,listing,/10-trevlac-street-rosewood-qld-4340-2015854383,145000,is-sold,Sold by private treaty 02 Jul 2020,20200702,10 Trevlac Street,ROSEWOOD,QLD,4340,-27.631813,152.59288,,,2,VacantLand,Vacant land,False,1204,m2,False
2015940205,listing,/65-71-ebenezer-rd-ebenezer-qld-4340-2015940205,520000,is-sold,Sold by private treaty 30 Jun 2020,20200630,65-71 Ebenezer Rd,EBENEZER,QLD,4340,-27.6714211,152.599518,4,2,9,House,House,True,2.54,ha,False
2015950973,listing,/28-matthew-street-rosewood-qld-4340-2015950973,560000,is-sold,Sold by private treaty 14 May 2020,20200514,28 Matthew Street,ROSEWOOD,QLD,4340,-27.6394615,152.594681,5,3,2,House,House,False,800,m2,False
2015990881,listing,/17-madden-lane-rosewood-qld-4340-2015990881,230000,is-sold,Sold by private treaty 18 May 2020,20200518,17 Madden Lane,ROSEWOOD,QLD,4340,-27.644577,152.594452,3,1,2,House,House,False,1012,m2,False
2015997309,listing,/7-ivy-hansens-road-tallegalla-qld-4340-2015997309,480000,is-sold,Sold by private treaty 16 Jul 2020,20200716,7 Ivy Hansens Road,TALLEGALLA,QLD,4340,-27.5903778,152.542389,5,2,2,AcreageSemiRural,Acreage / Semi-Rural,True,7.56,ha,False
2015997777,listing,/272-328-grandchester-mt-mort-rd-grandchester-qld-4340-2015997777,589000,is-sold,Sold by private treaty 10 Jun 2020,20200610,272-328 Grandchester Mt-Mort Rd,GRANDCHESTER,QLD,4340,-27.68554,152.468292,3,2,,House,House,True,40.43,ha,False
2016017836,listing,/15-monarch-street-rosewood-qld-4340-2016017836,357500,is-sold,Sold by private treaty 19 Jun 2020,20200619,15 Monarch Street,ROSEWOOD,QLD,4340,-27.6438026,152.602249,4,3,2,Duplex,Duplex,False,680,m2,False
2016036722,listing,/22-william-st-rosewood-qld-4340-2016036722,275000,is-sold,Sold by private treaty 01 May 2020,20200501,22 William St,ROSEWOOD,QLD,4340,-27.64077,152.590332,4,1,4,House,House,False,1177,m2,False
2016054813,listing,/43-gatton-st-grandchester-qld-4340-2016054813,498000,is-sold,Sold by private treaty 26 Jun 2020,20200626,43 Gatton St,GRANDCHESTER,QLD,4340,-27.6591644,152.46283,4,2,8,House,House,True,1.72,ha,False
2016107082,listing,/112-john-street-rosewood-qld-4340-2016107082,295000,is-sold,Sold by private treaty 10 Jul 2020,20200710,112 John Street,ROSEWOOD,QLD,4340,-27.6323757,152.589127,3,1,2,House,House,False,894,m2,False
2016140007,listing,/21-greet-rd-ashwell-qld-4340-2016140007,285000,is-sold,Sold by private treaty 02 Jun 2020,20200602,21 Greet Rd,ASHWELL,QLD,4340,-27.62831,152.544785,,,,VacantLand,Vacant land,True,3.87,ha,False
2016213223,listing,/lot-66-old-rosevale-rd-rosevale-qld-4340-2016213223,290000,is-sold,Sold by private treaty 05 Jun 2020,20200605,LOT 66 Old Rosevale Rd,ROSEVALE,QLD,4340,-27.85669,152.5365,,,,Rural,Rural,True,32.37,ha,False
2016230859,listing,/329-tallegalla-two-tree-hill-road-tallegalla-qld-4340-2016230859,457000,is-sold,Sold by private treaty 19 May 2020,20200519,329 Tallegalla Two Tree Hill Road,TALLEGALLA,QLD,4340,-27.5804863,152.565155,4,1,3,House,House,False,8191,m2,False
2016281147,listing,/35-jensen-lane-rosevale-qld-4340-2016281147,860000,is-sold,Sold by private treaty 16 Jul 2020,20200716,35 Jensen Lane,ROSEVALE,QLD,4340,-27.8794441,152.480927,5,1,6,Rural,Rural,True,42.63,ha,False
2016281362,listing,/18-just-street-rosewood-qld-4340-2016281362,156500,is-sold,Sold by private treaty 20 Jul 2020,20200720,18 Just Street,ROSEWOOD,QLD,4340,-27.63248,152.585449,3,1,,House,House,False,1012,m2,False
2016329384,listing,/101-dobelis-road-mount-forbes-qld-4340-2016329384,902000,is-sold,Sold at auction 24 Jul 2020,20200724,101 Dobelis Road,MOUNT FORBES,QLD,4340,-27.7506371,152.596756,,,,Rural,Rural,True,55.91,ha,False
2014851370,listing,/42-christensen-road-mount-walker-qld-4340-2014851370,750000,is-sold,Sold by private treaty 24 Apr 2020,20200424,42 Christensen Road,MOUNT WALKER,QLD,4340,-27.744709,152.555374,4,2,4,House,House,True,15.38,ha,False
2014955922,listing,/31-bassett-lane-rosewood-qld-4340-2014955922,302500,is-sold,Sold by private treaty 26 Feb 2020,20200226,31 Bassett Lane,ROSEWOOD,QLD,4340,-27.64187,152.602539,4,2,2,House,House,False,510,m2,False
2015165569,listing,/20-albert-st-rosewood-qld-4340-2015165569,320000,is-sold,Sold by private treaty 14 Apr 2020,20200414,20 Albert St,ROSEWOOD,QLD,4340,-27.6411819,152.590927,3,1,2,House,House,False,2023,m2,False
2015270335,listing,/234-eder-brothers-road-mount-walker-qld-4340-2015270335,1300000,is-sold,Sold by private treaty 27 Feb 2020,20200227,234 Eder Brothers Road,MOUNT WALKER,QLD,4340,-27.80426,152.54071,4,2,8,Rural,Rural,True,80.22,ha,False
2015445004,listing,/15-yates-street-rosewood-qld-4340-2015445004,325000,is-sold,Sold by private treaty 14 Feb 2020,20200214,15 Yates Street,ROSEWOOD,QLD,4340,-27.6338882,152.5865,5,1,6,House,House,False,1014,m2,False
2015450378,listing,/lot-1-tallegalla-road-tallegalla-qld-4340-2015450378,335000,is-sold,Sold by private treaty 28 Feb 2020,20200228,Lot 1 Tallegalla Road,TALLEGALLA,QLD,4340,-27.593401,152.557114,,,,Rural,Rural,True,8.09,ha,False
2015530236,listing,/286-mt-walker-west-rd-lower-mount-walker-qld-4340-2015530236,380000,is-sold,Sold by private treaty 30 Apr 2020,20200430,286 Mt Walker West Rd,LOWER MOUNT WALKER,QLD,4340,-27.7052479,152.537354,3,1,3,House,House,True,1.26,ha,False
2015849375,listing,/476-rosewood-laidley-rd-lanefield-qld-4340-2015849375,420000,is-sold,Sold by private treaty 10 Feb 2020,20200210,476 Rosewood Laidley Rd,LANEFIELD,QLD,4340,-27.65151,152.545776,3,1,4,House,House,False,6368,m2,False
2015943724,listing,/51-bernadette-crescent-rosewood-qld-4340-2015943724,250000,is-sold,Sold by private treaty 03 Apr 2020,20200403,51 Bernadette Crescent,ROSEWOOD,QLD,4340,-27.63608,152.594971,3,1,1,House,House,False,655,m2,False
2015969743,listing,/lot-461-schimkes-road-rosevale-qld-4340-2015969743,,is-sold,Sold by private treaty 12 Mar 2020,20200312,Lot 461 Schimkes Road,ROSEVALE,QLD,4340,-27.8522167,152.481857,,,,VacantLand,Vacant land,True,38.43,ha,False
2015986572,listing,/1-ahearn-st-rosewood-qld-4340-2015986572,290000,is-sold,Sold by private treaty 24 Feb 2020,20200224,1 Ahearn St,ROSEWOOD,QLD,4340,-27.6306686,152.586456,4,1,2,House,House,False,769,m2,False
2016009795,listing,/1222-karrabin-rosewood-rd-rosewood-qld-4340-2016009795,200000,is-sold,Sold by private treaty 28 Feb 2020,20200228,1222 Karrabin Rosewood Rd,ROSEWOOD,QLD,4340,-27.6305637,152.600052,2,1,2,House,House,False,2023,m2,False
2016024330,listing,/3-bennett-st-rosewood-qld-4340-2016024330,215000,is-sold,Sold by private treaty 02 Apr 2020,20200402,3 Bennett St,ROSEWOOD,QLD,4340,-27.6384487,152.59523,2,1,3,House,House,False,708,m2,False
2016044878,listing,/1-sippels-rd-grandchester-qld-4340-2016044878,200000,is-sold,Sold by private treaty 11 Mar 2020,20200311,1 Sippels Rd,GRANDCHESTER,QLD,4340,-27.67061,152.461441,2,1,2,House,House,True,3.28,ha,False
2016050046,listing,/18-yates-st-rosewood-qld-4340-2016050046,260000,is-sold,Sold by private treaty 14 Apr 2020,20200414,18 Yates St,ROSEWOOD,QLD,4340,-27.6344852,152.586136,3,1,1,House,House,False,961,m2,False
2016058365,listing,/7-berlin-street-rosewood-qld-4340-2016058365,282500,is-sold,Sold by private treaty 11 Mar 2020,20200311,7 Berlin Street,ROSEWOOD,QLD,4340,-27.6301422,152.5896,3,1,2,House,House,False,1012,m2,False
2016122895,listing,/1557-mt-walker-west-road-rosevale-qld-4340-2016122895,1400000,is-sold,Sold at auction 15 Apr 2020,20200415,1557 Mt Walker West Road,ROSEVALE,QLD,4340,-27.81742,152.4991,,,,Rural,Rural,True,219.3,ha,False
2016201726,listing,/3-5-wilson-street-calvert-qld-4340-2016201726,61000,is-sold,Sold by private treaty 16 Apr 2020,20200416,3-5 Wilson Street,CALVERT,QLD,4340,-27.6656246,152.517334,,,,VacantLand,Vacant land,False,2025,m2,False
2016230533,listing,/106-yarrow-road-rosewood-qld-4340-2016230533,175000,is-sold,Sold by private treaty 20 Mar 2020,20200320,106 Yarrow Road,ROSEWOOD,QLD,4340,-27.6315212,152.616684,,,,VacantLand,Vacant land,False,4044,m2,False
2016230540,listing,/68-john-street-rosewood-qld-4340-2016230540,370000,is-sold,Sold by private treaty 17 Mar 2020,20200317,68 John Street,ROSEWOOD,QLD,4340,-27.63791,152.5915,3,2,2,House,House,False,1568,m2,False
2013277368,listing,/79-albert-street-rosewood-qld-4340-2013277368,175000,is-sold,Sold by private treaty 12 Dec 2019,20191212,79 Albert Street,ROSEWOOD,QLD,4340,-27.6318741,152.588043,2,1,1,House,House,False,971,m2,False
2014376800,listing,/10-royal-george-lane-rosewood-qld-4340-2014376800,213000,is-sold,Sold by private treaty 04 Dec 2019,20191204,10 Royal George Lane,ROSEWOOD,QLD,4340,-27.6416512,152.592316,2,1,1,House,House,False,658,m2,False
2014376832,listing,/50-symes-st-grandchester-qld-4340-2014376832,195000,is-sold,Sold by private treaty 27 Nov 2019,20191127,50 Symes St,GRANDCHESTER,QLD,4340,-27.6612453,152.463257,3,1,,House,House,False,1114,m2,False
2014554908,listing,/2381-tarome-road-rosevale-qld-4340-2014554908,660000,is-sold,Sold by private treaty 01 Jan 2020,20200101,2381 Tarome Road,ROSEVALE,QLD,4340,-27.88514,152.48172,2,1,16,Rural,Rural,True,24.27,ha,False
2014633131,listing,/800-rosewood-warrill-view-rd-lower-mount-walker-qld-4340-2014633131,,is-sold,Sold by private treaty 13 Dec 2019,20191213,800 Rosewood Warrill View Rd,LOWER MOUNT WALKER,QLD,4340,-27.70149,152.561447,,,,VacantLand,Vacant land,True,12.59,ha,False
2014634480,listing,/785-rosewood-warrill-view-rd-lower-mount-walker-qld-4340-2014634480,660000,is-sold,Sold by private treaty 13 Dec 2019,20191213,785 Rosewood Warrill View Rd,LOWER MOUNT WALKER,QLD,4340,-27.697,152.563965,,,,VacantLand,Vacant land,True,5.01,ha,False
2014952812,listing,/166-168-mt-forbes-road-ebenezer-qld-4340-2014952812,640000,is-sold,Sold by private treaty 01 Nov 2019,20191101,166-168 Mt Forbes Road,EBENEZER,QLD,4340,-27.6870842,152.60762,4,3,7,House,House,True,4.17,ha,False
2014958854,listing,/12-perrys-cres-rosewood-qld-4340-2014958854,310000,is-sold,Sold by private treaty 13 Jan 2020,20200113,12 Perrys Cres,ROSEWOOD,QLD,4340,-27.6253319,152.5854,4,2,2,House,House,False,746,m2,False
2015350488,listing,/22-normanton-close-rosewood-qld-4340-2015350488,540000,is-sold,Sold by private treaty 16 Jan 2020,20200116,22 Normanton Close,ROSEWOOD,QLD,4340,-27.62685,152.585892,3,2,5,House,House,False,991,m2,False
2015450368,listing,/1178-karrabin-rosewood-road-rosewood-qld-4340-2015450368,295000,is-sold,Sold by private treaty 21 Jan 2020,20200121,1178 Karrabin Rosewood Road,ROSEWOOD,QLD,4340,-27.6276,152.603577,4,1,1,House,House,False,2024,m2,False
2015517845,listing,/29-elavesor-rd-rosevale-qld-4340-2015517845,530000,is-sold,Sold by private treaty 07 Feb 2020,20200207,29 Elavesor Rd,ROSEVALE,QLD,4340,-27.86807,152.48587,5,2,4,AcreageSemiRural,Acreage / Semi-Rural,True,9.32,ha,False
2015528582,listing,/164-matthew-street-rosewood-qld-4340-2015528582,285000,is-sold,Sold by private treaty 16 Nov 2019,20191116,164 MATTHEW STREET,ROSEWOOD,QLD,4340,-27.6296577,152.590637,3,1,2,House,House,False,857,m2,False
2015618759,listing,/11-bennett-street-rosewood-qld-4340-2015618759,320000,is-sold,Sold by private treaty 09 Dec 2019,20191209,11 Bennett Street,ROSEWOOD,QLD,4340,-27.6381435,152.596085,3,1,5,House,House,False,633,m2,False
2015628317,listing,/65-mill-st-rosewood-qld-4340-2015628317,187000,is-sold,Sold by private treaty 07 Feb 2020,20200207,65 Mill St,ROSEWOOD,QLD,4340,-27.6418781,152.597839,2,1,2,House,House,False,674,m2,False
2015832260,listing,/33-birru-pl-rosewood-qld-4340-2015832260,327500,is-sold,Sold by private treaty 19 Dec 2019,20191219,33 Birru Pl,ROSEWOOD,QLD,4340,-27.6244946,152.585175,4,2,2,House,House,False,650,m2,False
2015843302,listing,/67-mill-st-rosewood-qld-4340-2015843302,247000,is-sold,Sold by private treaty 10 Jan 2020,20200110,67 Mill St,ROSEWOOD,QLD,4340,-27.6418438,152.598068,3,1,,House,House,False,2023,m2,False
2015853037,listing,/27-albert-st-rosewood-qld-4340-2015853037,252500,is-sold,Sold by private treaty 10 Jan 2020,20200110,27 Albert St,ROSEWOOD,QLD,4340,-27.6393948,152.591156,3,1,7,House,House,False,1339,m2,False
2015892711,listing,/45-birru-place-rosewood-qld-4340-2015892711,325000,is-sold,Sold by private treaty 28 Dec 2019,20191228,45 Birru Place,ROSEWOOD,QLD,4340,-27.62393,152.585434,4,2,2,House,House,False,801,m2,False
2015900982,listing,/75-matthew-st-rosewood-qld-4340-2015900982,280000,is-sold,Sold by private treaty 10 Jan 2020,20200110,75 Matthew St,ROSEWOOD,QLD,4340,-27.6358814,152.594116,3,1,2,House,House,False,1391,m2,False
2016230592,listing,/1-2-6-monarch-street-rosewood-qld-4340-2016230592,391500,is-sold,Sold by private treaty 17 Jan 2020,20200117,1 & 2/6 Monarch Street,ROSEWOOD,QLD,4340,-27.6433353,152.601913,5,3,2,House,House,False,800,m2,False
2013050812,listing,/lot-29-vassallo-drive-rosewood-qld-4340-2013050812,,is-sold,Sold by private treaty 27 Sep 2019,20190927,Lot 29 Vassallo Drive,ROSEWOOD,QLD,4340,-27.63875,152.592865,,,,VacantLand,Vacant land,False,510,m2,False
2014745379,listing,/77-mckenna-road-mount-walker-qld-4340-2014745379,500000,is-sold,Sold by private treaty 26 Sep 2019,20190926,77 McKenna Road,MOUNT WALKER,QLD,4340,-27.7135315,152.5014,3,2,3,House,House,True,36.42,ha,False
2014751842,listing,/128-matthew-street-rosewood-qld-4340-2014751842,220000,is-sold,Sold by private treaty 25 Oct 2019,20191025,128 Matthew Street,ROSEWOOD,QLD,4340,-27.63253,152.591827,3,1,2,House,House,False,981,m2,False
