id,listingType,url,price,tagClassName,tagText,date,street,suburb,state,postcode,lat,lng,beds,baths,parking,propertyType,propertyTypeFormatted,isRural,landSize,landUnit,isRetirement
2018346085,listing,/1-45-highview-avenue-gatton-qld-4343-2018346085,333000,is-sold,Sold by private treaty 28 Feb 2023,20230228,1/45 Highview Avenue,GATTON,QLD,4343,-27.5702362,152.281677,3,3,3,Duplex,Duplex,False,300.0,m2,False
2017673586,listing,/10-rogers-drive-gatton-qld-4343-2017673586,Price Withheld,is-sold,Sold by private treaty 13 Jan 2023,20230113,10 Rogers Drive,GATTON,QLD,4343,-27.5710926,152.284561,7,7,7,Rural,Rural,True,1716.0,m2,False
2017909975,listing,/27-metcalf-street-gatton-qld-4343-2017909975,440000,is-sold,Sold by private treaty 12 Jan 2023,20230112,27 Metcalf Street,GATTON,QLD,4343,-27.5745125,152.28096,4,4,4,House,House,False,774.0,m2,False
2018106755,listing,/10-marika-drive-gatton-qld-4343-2018106755,Price Withheld,is-sold,Sold by private treaty 01 Feb 2023,20230201,10 Marika Drive,GATTON,QLD,4343,-27.5719471,152.278259,3,3,3,House,House,False,660.0,m2,False
2018149053,listing,/73-spencer-street-gatton-qld-4343-2018149053,510000,is-sold,Sold by private treaty 24 Dec 2022,20221224,73 Spencer Street,GATTON,QLD,4343,-27.5577221,152.27327,3,3,3,House,House,False,1214.0,m2,False
2018171178,listing,/41-woodlands-road-gatton-qld-4343-2018171178,460000,is-sold,Sold by private treaty 30 Jan 2023,20230130,41 Woodlands Road,GATTON,QLD,4343,-27.5625172,152.283752,4,4,4,Duplex,Duplex,False,898.0,m2,False
2018177600,listing,/18-andrews-drive-gatton-qld-4343-2018177600,460000,is-sold,Sold by private treaty 17 Jan 2023,20230117,18 Andrews Drive,GATTON,QLD,4343,-27.5694847,152.285233,4,4,4,House,House,False,952.0,m2,False
2018178020,listing,/15-dwyer-street-gatton-qld-4343-2018178020,370000,is-sold,Sold by private treaty 24 Jan 2023,20230124,15 Dwyer Street,GATTON,QLD,4343,-27.5506268,152.284225,3,3,3,House,House,False,706.0,m2,False
2018194931,listing,/2-25-lake-apex-drive-gatton-qld-4343-2018194931,292000,is-sold,Sold by private treaty 23 Dec 2022,20221223,2/25 Lake Apex Drive,GATTON,QLD,4343,-27.56976,152.271866,3,3,3,Townhouse,Townhouse,False,336.0,m2,False
2018199617,listing,/1-odea-court-gatton-qld-4343-2018199617,500000,is-sold,Sold by private treaty 02 Feb 2023,20230202,1 Odea Court,GATTON,QLD,4343,-27.56836,152.281235,4,4,4,House,House,False,709.0,m2,False
2018221433,listing,/42-cleary-street-gatton-qld-4343-2018221433,320000,is-sold,Sold by private treaty 16 Jan 2023,20230116,42 Cleary Street,GATTON,QLD,4343,-27.5673332,152.272125,3,3,3,House,House,False,622.0,m2,False
2018228454,listing,/17-andrews-drive-gatton-qld-4343-2018228454,600000,is-sold,Sold by private treaty 19 Jan 2023,20230119,17 Andrews Drive,GATTON,QLD,4343,-27.570509,152.28479,4,4,4,House,House,False,979.0,m2,False
2018230082,listing,/15-hill-street-gatton-qld-4343-2018230082,370000,is-sold,Sold by private treaty 13 Feb 2023,20230213,15 Hill Street,GATTON,QLD,4343,-27.5676022,152.2753,3,3,3,House,House,False,708.0,m2,False
2018238670,listing,/46-fitzgerald-street-gatton-qld-4343-2018238670,440000,is-sold,Sold by private treaty 30 Jan 2023,20230130,46 Fitzgerald Street,GATTON,QLD,4343,-27.5617981,152.289673,4,4,4,House,House,False,704.0,m2,False
2018254919,listing,/2-18-skinner-street-gatton-qld-4343-2018254919,Price Withheld,is-sold,Sold by private treaty 08 Feb 2023,20230208,2/18 Skinner Street,GATTON,QLD,4343,-27.5520535,152.284714,2,2,2,ApartmentUnitFlat,Apartment / Unit / Flat,False,395.0,m2,False
2018259427,listing,/14-27-29-princess-street-gatton-qld-4343-2018259427,260000,is-sold,Sold by private treaty 23 Jan 2023,20230123,14/27-29 Princess Street,GATTON,QLD,4343,-27.5496,152.283264,2,2,2,ApartmentUnitFlat,Apartment / Unit / Flat,False,92.0,m2,False
2018261897,listing,/23-legend-drive-adare-qld-4343-2018261897,665000,is-sold,Sold by private treaty 21 Jan 2023,20230121,23 Legend Drive,ADARE,QLD,4343,-27.49699,152.317444,4,4,4,House,House,True,1.1,ha,False
2018279157,listing,/10-legend-drive-adare-qld-4343-2018279157,472500,is-sold,Sold by private treaty 03 Feb 2023,20230203,10 Legend Drive,ADARE,QLD,4343,-27.5007381,152.31781,3,3,3,AcreageSemiRural,Acreage / Semi-Rural,True,0.0,m2,False
2018289631,listing,/14-legend-drive-adare-qld-4343-2018289631,Price Withheld,is-sold,Sold by private treaty 20 Feb 2023,20230220,14 Legend Drive,ADARE,QLD,4343,-27.4998531,152.31781,4,4,4,AcreageSemiRural,Acreage / Semi-Rural,True,1.17,ha,False
2018301160,listing,/25-falconer-street-gatton-qld-4343-2018301160,370000,is-sold,Sold by private treaty 16 Feb 2023,20230216,25 Falconer Street,GATTON,QLD,4343,-27.565937,152.286972,3,3,3,House,House,False,800.0,m2,False
2017574177,listing,/459-ropeley-rockside-road-ropeley-qld-4343-2017574177,735000,is-sold,Sold by private treaty 24 Nov 2022,20221124,459 Ropeley Rockside Road,ROPELEY,QLD,4343,-27.649498,152.256653,3,3,3,House,House,False,8094.0,m2,False
2017825056,listing,/2-smith-street-gatton-qld-4343-2017825056,390000,is-sold,Sold by private treaty 08 Dec 2022,20221208,2 Smith Street,GATTON,QLD,4343,-27.5644226,152.27446,3,3,3,House,House,False,1012.0,m2,False
2017866787,listing,/22-falconer-street-gatton-qld-4343-2017866787,285000,is-sold,Sold by private treaty 01 Dec 2022,20221201,22 Falconer Street,GATTON,QLD,4343,-27.5662575,152.2867,4,4,4,House,House,False,855.0,m2,False
2017895878,listing,/lot-25-old-ropeley-road-ropeley-qld-4343-2017895878,500000,is-sold,Sold by private treaty 07 Dec 2022,20221207,Lot 25 Old Ropeley Road,ROPELEY,QLD,4343,-27.6275368,152.2508,NaN,NaN,NaN,Rural,Rural,True,20.0,ha,False
2017895949,listing,/lot-149-old-ropeley-road-ropeley-qld-4343-2017895949,300000,is-sold,Sold by private treaty 22 Dec 2022,20221222,Lot 149 Old Ropeley Road,ROPELEY,QLD,4343,-27.6154289,152.2444,NaN,NaN,NaN,Rural,Rural,True,4.45,ha,False
2017980185,listing,/14-buaraba-street-gatton-qld-4343-2017980185,340000,is-sold,Sold by private treaty 24 Nov 2022,20221124,14 Buaraba Street,GATTON,QLD,4343,-27.5551872,152.286011,3,3,3,House,House,False,809.0,m2,False
2018092461,listing,/96-woodlands-road-gatton-qld-4343-2018092461,357000,is-sold,Sold by private treaty 07 Dec 2022,20221207,96 Woodlands Road,GATTON,QLD,4343,-27.56743,152.283722,3,3,3,House,House,False,696.0,m2,False
2018118378,listing,/172-ambrose-road-lower-tenthill-qld-4343-2018118378,750000,is-sold,Sold by private treaty 28 Nov 2022,20221128,172 Ambrose Road,LOWER TENTHILL,QLD,4343,-27.6135311,152.255051,4,4,4,Rural,Rural,True,17.42,ha,False
2018120506,listing,/25-spencer-street-gatton-qld-4343-2018120506,470000,is-sold,Sold by private treaty 16 Dec 2022,20221216,25 Spencer Street,GATTON,QLD,4343,-27.55624,152.268,4,4,4,House,House,False,1012.0,m2,False
2018126744,listing,/15-falconer-street-gatton-qld-4343-2018126744,520000,is-sold,Sold by private treaty 21 Dec 2022,20221221,15 Falconer Street,GATTON,QLD,4343,-27.565773,152.286011,4,4,4,House,House,False,800.0,m2,False
2018131796,listing,/5-24-logan-street-gatton-qld-4343-2018131796,Price Withheld,is-sold,Sold by private treaty 30 Nov 2022,20221130,5/24 Logan Street,GATTON,QLD,4343,-27.5633678,152.273636,2,2,2,ApartmentUnitFlat,Apartment / Unit / Flat,False,312.0,m2,False
2018139709,listing,/2-79-woodlands-road-gatton-qld-4343-2018139709,250000,is-sold,Sold by private treaty 17 Nov 2022,20221117,2/79 Woodlands Road,GATTON,QLD,4343,-27.5668049,152.283112,2,2,2,Townhouse,Townhouse,False,72.0,m2,False
2018156202,listing,/11-logan-street-gatton-qld-4343-2018156202,400000,is-sold,Sold by private treaty 05 Dec 2022,20221205,11 Logan Street,GATTON,QLD,4343,-27.5619278,152.273453,3,3,3,House,House,False,774.0,m2,False
2018178507,listing,/30-colquhouns-road-lower-tenthill-qld-4343-2018178507,710000,is-sold,Sold by private treaty 10 Dec 2022,20221210,30 Colquhouns Road,LOWER TENTHILL,QLD,4343,-27.6059189,152.25116,4,4,4,AcreageSemiRural,Acreage / Semi-Rural,True,16.19,ha,False
2018215806,listing,/17-6-beryl-place-gatton-qld-4343-2018215806,Price Withheld,is-sold,Sold by private treaty 17 Nov 2022,20221117,17/6 Beryl Place,GATTON,QLD,4343,-27.5636082,152.291962,2,2,2,ApartmentUnitFlat,Apartment / Unit / Flat,False,0.0,m2,False
2018215894,listing,/15-6-beryl-place-gatton-qld-4343-2018215894,Price Withheld,is-sold,Sold by private treaty 17 Nov 2022,20221117,15/6 Beryl Place,GATTON,QLD,4343,-27.5636082,152.291962,2,2,2,ApartmentUnitFlat,Apartment / Unit / Flat,False,185.0,m2,False
2018216151,listing,/80-woodlands-road-gatton-qld-4343-2018216151,492500,is-sold,Sold 14 Dec 2022,20221214,80 WOODLANDS ROAD,GATTON,QLD,4343,-27.5659637,152.284058,4,4,4,House,House,False,1000.0,m2,False
2018223594,listing,/34-allan-cunningham-drive-gatton-qld-4343-2018223594,480000,is-sold,Sold by private treaty 30 Nov 2022,20221130,34 Allan Cunningham Drive,GATTON,QLD,4343,-27.5849934,152.271118,4,4,4,House,House,False,1071.0,m2,False
2018246353,listing,/12-legend-drive-adare-qld-4343-2018246353,525000,is-sold,Sold by private treaty 22 Nov 2022,20221122,12 Legend Drive,ADARE,QLD,4343,-27.5003242,152.318039,3,3,3,AcreageSemiRural,Acreage / Semi-Rural,True,1.17,ha,False
2018250297,listing,/50-whittle-street-gatton-qld-4343-2018250297,Price Withheld,is-sold,Sold by private treaty 16 Dec 2022,20221216,50 WHITTLE STREET,GATTON,QLD,4343,-27.5667343,152.275009,3,3,3,House,House,False,741.0,m2,False
2014078936,listing,/237-edwards-rd-gatton-qld-4343-2014078936,Price Withheld,is-sold,Sold by private treaty 01 Nov 2022,20221101,237 Edwards Rd,GATTON,QLD,4343,-27.5953026,152.309921,3,3,3,Rural,Rural,True,9.31,ha,False
2018000892,listing,/6-banksia-court-morton-vale-qld-4343-2018000892,515000,is-sold,Sold by private treaty 01 Nov 2022,20221101,6 Banksia Court,MORTON VALE,QLD,4343,-27.46908,152.398483,4,4,4,House,House,False,10100.0,m2,False
2018014865,listing,/255-tenthill-creek-road-lower-tenthill-qld-4343-2018014865,650000,is-sold,Sold by private treaty 04 Nov 2022,20221104,255 Tenthill Creek Road,LOWER TENTHILL,QLD,4343,-27.5887127,152.250916,4,4,4,House,House,True,5.11,ha,False
2018018337,listing,/lot-13-fords-road-adare-qld-4343-2018018337,526000,is-sold,Sold by private treaty 08 Nov 2022,20221108,Lot 13 Fords Road,ADARE,QLD,4343,-27.5337219,152.2549,3,3,3,House,House,False,20000.0,m2,False
2018043036,listing,/3-cardinal-close-gatton-qld-4343-2018043036,420000,is-sold,Sold by private treaty 04 Nov 2022,20221104,3 Cardinal Close,GATTON,QLD,4343,-27.56477,152.289764,4,4,4,House,House,False,824.0,m2,False
2018047904,listing,/49-woodlands-road-gatton-qld-4343-2018047904,322500,is-sold,Sold by private treaty 08 Nov 2022,20221108,49 Woodlands Road,GATTON,QLD,4343,-27.56342,152.2836,3,3,3,House,House,False,784.0,m2,False
2018054434,listing,/16-banksia-road-gatton-qld-4343-2018054434,535000,is-sold,Sold by private treaty 26 Oct 2022,20221026,16 Banksia Road,GATTON,QLD,4343,-27.58226,152.2729,4,4,4,House,House,False,3001.0,m2,False
2018059583,listing,/117-woodlands-road-gatton-qld-4343-2018059583,325000,is-sold,Sold by private treaty 07 Nov 2022,20221107,117 Woodlands Road,GATTON,QLD,4343,-27.5705662,152.282623,3,3,3,House,House,False,659.0,m2,False
2018097405,listing,/102-robeck-road-gatton-qld-4343-2018097405,Price Withheld,is-sold,Sold by private treaty 07 Nov 2022,20221107,102 Robeck Road,GATTON,QLD,4343,-27.5908623,152.310913,NaN,NaN,NaN,VacantLand,Vacant land,True,2.0,ha,False
2018106970,listing,/1-18-skinner-street-gatton-qld-4343-2018106970,270000,is-sold,Sold by private treaty 21 Oct 2022,20221021,1/18 Skinner Street,GATTON,QLD,4343,-27.5520744,152.284882,2,2,2,ApartmentUnitFlat,Apartment / Unit / Flat,False,392.0,m2,False
2018111244,listing,/149-railway-street-gatton-qld-4343-2018111244,322500,is-sold,Sold by private treaty 27 Oct 2022,20221027,149 Railway Street,GATTON,QLD,4343,-27.5660954,152.272568,4,4,4,House,House,False,1114.0,m2,False
2018129748,listing,/8-gassman-street-gatton-qld-4343-2018129748,650000,is-sold,Sold by private treaty 27 Oct 2022,20221027,8 Gassman Street,GATTON,QLD,4343,-27.5729961,152.280777,4,4,4,House,House,False,1091.0,m2,False
2018160574,listing,/8-o-brien-street-gatton-qld-4343-2018160574,340000,is-sold,Sold by private treaty 04 Nov 2022,20221104,8 O'Brien Street,GATTON,QLD,4343,-27.56715,152.273666,3,3,3,House,House,False,678.0,m2,False
2018191111,listing,/3-kurrajong-road-gatton-qld-4343-2018191111,527000,is-sold,Sold by private treaty 14 Nov 2022,20221114,3 Kurrajong Road,GATTON,QLD,4343,-27.58323,152.2686,4,4,4,House,House,False,3195.0,m2,False
2018199186,listing,/4-hallas-street-gatton-qld-4343-2018199186,350000,is-sold,Sold by private treaty 16 Nov 2022,20221116,4 Hallas Street,GATTON,QLD,4343,-27.555521,152.282669,3,3,3,House,House,False,809.0,m2,False
2018214708,listing,/18-6-beryl-place-gatton-qld-4343-2018214708,Price Withheld,is-sold,Sold by private treaty 17 Nov 2022,20221117,18/6 Beryl Place,GATTON,QLD,4343,-27.5636082,152.291962,2,2,2,ApartmentUnitFlat,Apartment / Unit / Flat,False,213.0,m2,False
2018215820,listing,/16-6-beryl-place-gatton-qld-4343-2018215820,Price Withheld,is-sold,Sold by private treaty 17 Nov 2022,20221117,16/6 Beryl Place,GATTON,QLD,4343,-27.5636082,152.291962,2,2,2,ApartmentUnitFlat,Apartment / Unit / Flat,False,227.0,m2,False
2018215912,listing,/14-6-beryl-place-gatton-qld-4343-2018215912,Price Withheld,is-sold,Sold by private treaty 17 Nov 2022,20221117,14/6 Beryl Place,GATTON,QLD,4343,-27.5636082,152.291962,2,2,2,ApartmentUnitFlat,Apartment / Unit / Flat,False,209.0,m2,False
2018215938,listing,/13-6-beryl-place-gatton-qld-4343-2018215938,Price Withheld,is-sold,Sold by private treaty 17 Nov 2022,20221117,13/6 Beryl Place,GATTON,QLD,4343,-27.5636082,152.291962,2,2,2,ApartmentUnitFlat,Apartment / Unit / Flat,False,183.0,m2,False
2018221125,listing,/21-rogers-drive-gatton-qld-4343-2018221125,610000,is-sold,Sold by private treaty 10 Nov 2022,20221110,21 Rogers Drive,GATTON,QLD,4343,-27.5708313,152.28624,5,5,5,House,House,False,1034.0,m2,False
2017604887,listing,/126-railway-street-gatton-qld-4343-2017604887,350000,is-sold,Sold by private treaty 29 Sep 2022,20220929,126 Railway Street,GATTON,QLD,4343,-27.56527,152.274109,4,4,4,House,House,False,1113.0,m2,False
2017717349,listing,/20-buaraba-street-gatton-qld-4343-2017717349,360000,is-sold,Sold by private treaty 13 Oct 2022,20221013,20 Buaraba Street,GATTON,QLD,4343,-27.5546589,152.2861,3,3,3,House,House,False,809.0,m2,False
2017849935,listing,/28-smith-street-gatton-qld-4343-2017849935,520000,is-sold,Sold by private treaty 07 Oct 2022,20221007,28 Smith Street,GATTON,QLD,4343,-27.5652733,152.27684,4,4,4,House,House,False,1176.0,m2,False
2017875573,listing,/4-allan-street-gatton-qld-4343-2017875573,300000,is-sold,Sold by private treaty 19 Oct 2022,20221019,4 Allan Street,GATTON,QLD,4343,-27.5550938,152.281647,3,3,3,House,House,False,789.0,m2,False
2017895717,listing,/lot-33-old-ropeley-road-ropeley-qld-4343-2017895717,444000,is-sold,Sold by private treaty 22 Sep 2022,20220922,Lot 33 Old Ropeley Road,ROPELEY,QLD,4343,-27.6275368,152.2508,NaN,NaN,NaN,Rural,Rural,True,0.0,m2,False
2017900037,listing,/273-old-toowoomba-road-gatton-qld-4343-2017900037,515000,is-sold,Sold by private treaty 30 Sep 2022,20220930,273 Old Toowoomba Road,GATTON,QLD,4343,-27.5581055,152.2397,4,4,4,House,House,False,1800.0,m2,False
2017913327,listing,/7-cockatoo-dr-adare-qld-4343-2017913327,697000,is-sold,Sold by private treaty 30 Sep 2022,20220930,7 Cockatoo Dr,ADARE,QLD,4343,-27.5032234,152.323166,7,7,7,House,House,True,1.86,ha,False
2017915047,listing,/54-princess-street-gatton-qld-4343-2017915047,160000,is-sold,Sold by private treaty 01 Oct 2022,20221001,54 Princess Street,GATTON,QLD,4343,-27.55032,152.285736,NaN,NaN,NaN,VacantLand,Vacant land,False,759.0,m2,False
2017924430,listing,/59-cochrane-street-gatton-qld-4343-2017924430,420000,is-sold,Sold by private treaty 15 Sep 2022,20220915,59 Cochrane Street,GATTON,QLD,4343,-27.56055,152.273911,3,3,3,House,House,False,1012.0,m2,False
2017940781,listing,/17-metcalf-street-gatton-qld-4343-2017940781,455000,is-sold,Sold by private treaty 06 Oct 2022,20221006,17 Metcalf Street,GATTON,QLD,4343,-27.5744228,152.279236,4,4,4,Rural,Rural,True,739.0,m2,False
2018004780,listing,/2-4-kilmister-court-gatton-qld-4343-2018004780,400000,is-sold,Sold by private treaty 13 Sep 2022,20220913,2/4 Kilmister Court,GATTON,QLD,4343,-27.5692043,152.286987,3,3,3,ApartmentUnitFlat,Apartment / Unit / Flat,False,741.0,m2,False
2018010325,listing,/34-spotted-gum-road-gatton-qld-4343-2018010325,495000,is-sold,Sold by private treaty 16 Oct 2022,20221016,34 Spotted Gum Road,GATTON,QLD,4343,-27.5837841,152.2915,4,4,4,House,House,False,3006.0,m2,False
2018010647,listing,/unit-6-4-skinner-street-gatton-qld-4343-2018010647,Price Withheld,is-sold,Sold by private treaty 04 Oct 2022,20221004,Unit 6/4 Skinner Street,GATTON,QLD,4343,-27.55236,152.282654,2,2,2,ApartmentUnitFlat,Apartment / Unit / Flat,False,93.0,m2,False
2018021673,listing,/8-kurrajong-road-gatton-qld-4343-2018021673,550000,is-sold,Sold by private treaty 13 Sep 2022,20220913,8 Kurrajong Road,GATTON,QLD,4343,-27.5838871,152.267838,4,4,4,House,House,False,3016.0,m2,False
2018031200,listing,/54-allan-gatton-qld-4343-2018031200,375000,is-sold,Sold by private treaty 19 Sep 2022,20220919,54 ALLAN,GATTON,QLD,4343,-27.5492573,152.282761,4,4,4,House,House,False,1012.0,m2,False
2018033376,listing,/28-marika-drive-gatton-qld-4343-2018033376,400000,is-sold,Sold by private treaty 14 Sep 2022,20220914,28 Marika Drive,GATTON,QLD,4343,-27.5730171,152.279312,3,3,3,House,House,False,699.0,m2,False
2018049780,listing,/10-cockatoo-drive-adare-qld-4343-2018049780,650000,is-sold,Sold by private treaty 19 Sep 2022,20220919,10 Cockatoo Drive,ADARE,QLD,4343,-27.5014019,152.324814,5,5,5,AcreageSemiRural,Acreage / Semi-Rural,True,7533.0,m2,False
2018113018,listing,/44-spencer-street-gatton-qld-4343-2018113018,425000,is-sold,Sold by private treaty 10 Oct 2022,20221010,44 Spencer Street,GATTON,QLD,4343,-27.557373,152.269852,4,4,4,House,House,False,1009.0,m2,False
2018228994,listing,/25-continental-court-gatton-qld-4343-2018228994,750000,is-sold,Sold by private treaty 06 Oct 2022,20221006,25 Continental Court,GATTON,QLD,4343,-27.5910988,152.255447,4,4,4,House,House,False,3107.0,m2,False
2018288265,listing,/334-old-toowoomba-road-placid-hills-qld-4343-2018288265,750000,is-sold,Sold by private treaty 15 Sep 2022,20220915,334 Old Toowoomba Road,PLACID HILLS,QLD,4343,-27.5558567,152.2455,4,4,4,House,House,False,3000.0,m2,False
2017509281,listing,/32-karina-court-placid-hills-qld-4343-2017509281,1000000,is-sold,Sold by private treaty 22 Aug 2022,20220822,32 KARINA COURT,PLACID HILLS,QLD,4343,-27.5568371,152.2179,5,5,5,House,House,True,6.07,ha,False
2017771272,listing,/18-jensen-street-gatton-qld-4343-2017771272,350000,is-sold,Sold by private treaty 16 Aug 2022,20220816,18 Jensen Street,GATTON,QLD,4343,-27.5632668,152.280045,4,4,4,House,House,False,1171.0,m2,False
2017776054,listing,/16-strong-street-gatton-qld-4343-2017776054,275000,is-sold,Sold by private treaty 22 Aug 2022,20220822,16 Strong Street,GATTON,QLD,4343,-27.55213,152.285324,3,3,3,House,House,False,544.0,m2,False
2017782665,listing,/1-hunter-street-gatton-qld-4343-2017782665,540000,is-sold,Sold by private treaty 12 Aug 2022,20220812,1 Hunter Street,GATTON,QLD,4343,-27.5642948,152.280319,4,4,4,House,House,False,697.0,m2,False
2017825232,listing,/30-cockatoo-drive-adare-qld-4343-2017825232,590000,is-sold,Sold by private treaty 31 Aug 2022,20220831,30 Cockatoo Drive,ADARE,QLD,4343,-27.4969234,152.326569,4,4,4,House,House,False,7644.0,m2,False
2017864189,listing,/14-sharoy-court-gatton-qld-4343-2017864189,606000,is-sold,Sold by private treaty 13 Aug 2022,20220813,14 Sharoy Court,GATTON,QLD,4343,-27.5556049,152.240723,4,4,4,House,House,False,1884.0,m2,False
2017880187,listing,/1-2-lockyer-drive-lake-clarendon-qld-4343-2017880187,260000,is-sold,Sold by private treaty 09 Aug 2022,20220809,1/2 Lockyer Drive,LAKE CLARENDON,QLD,4343,-27.5164413,152.322159,NaN,NaN,NaN,VacantLand,Vacant land,False,4274.0,m2,False
2017886958,listing,/4-hood-street-gatton-qld-4343-2017886958,415000,is-sold,Sold by private treaty 15 Aug 2022,20220815,4 Hood Street,GATTON,QLD,4343,-27.5601654,152.2772,4,4,4,Rural,Rural,True,898.0,m2,False
2017895831,listing,/lot-24-old-ropeley-road-ropeley-qld-4343-2017895831,480000,is-sold,Sold by private treaty 06 Sep 2022,20220906,Lot 24 Old Ropeley Road,ROPELEY,QLD,4343,-27.6275368,152.2508,NaN,NaN,NaN,Rural,Rural,True,0.0,m2,False
2017898235,listing,/17-cleary-street-gatton-qld-4343-2017898235,325000,is-sold,Sold by private treaty 05 Sep 2022,20220905,17 Cleary Street,GATTON,QLD,4343,-27.5682774,152.274551,3,3,3,House,House,False,567.0,m2,False
2017902449,listing,/65-peta-drive-woodlands-qld-4343-2017902449,210000,is-sold,Sold by private treaty 30 Aug 2022,20220830,65 Peta Drive,WOODLANDS,QLD,4343,-27.5972366,152.291229,NaN,NaN,NaN,VacantLand,Vacant land,False,20000.0,m2,False
2017925057,listing,/35-smith-street-gatton-qld-4343-2017925057,315000,is-sold,Sold by private treaty 02 Sep 2022,20220902,35 Smith Street,GATTON,QLD,4343,-27.5648232,152.278076,3,3,3,House,House,False,1257.0,m2,False
2017943074,listing,/24-marika-drive-gatton-qld-4343-2017943074,345000,is-sold,Sold by private treaty 02 Sep 2022,20220902,24 Marika Drive,GATTON,QLD,4343,-27.5727577,152.279083,3,3,3,House,House,False,699.0,m2,False
2017950728,listing,/109-olive-grove-drive-adare-qld-4343-2017950728,675000,is-sold,Sold by private treaty 19 Aug 2022,20220819,109 Olive Grove Drive,ADARE,QLD,4343,-27.5131035,152.31488,5,5,5,Rural,Rural,True,1.63,ha,False
2017979517,listing,/2-81-old-college-road-gatton-qld-4343-2017979517,320000,is-sold,Sold by private treaty 26 Aug 2022,20220826,2/81 Old College Road,GATTON,QLD,4343,-27.5537262,152.286453,3,3,3,ApartmentUnitFlat,Apartment / Unit / Flat,False,109.0,m2,False
2017979885,listing,/104-brigalow-street-placid-hills-qld-4343-2017979885,700000,is-sold,Sold by private treaty 23 Aug 2022,20220823,104 Brigalow Street,PLACID HILLS,QLD,4343,-27.5555172,152.2225,5,5,5,Rural,Rural,True,2.04,ha,False
2018022729,listing,/4-tew-court-gatton-qld-4343-2018022729,350000,is-sold,Sold by private treaty 05 Sep 2022,20220905,4 Tew Court,GATTON,QLD,4343,-27.5675144,152.2888,3,3,3,House,House,False,720.0,m2,False
2018023051,listing,/66-highview-avenue-gatton-qld-4343-2018023051,500000,is-sold,Sold by private treaty 07 Sep 2022,20220907,66 Highview Avenue,GATTON,QLD,4343,-27.5695724,152.28241,4,4,4,House,House,False,717.0,m2,False
2018028583,listing,/69-william-street-gatton-qld-4343-2018028583,345000,is-sold,Sold by private treaty 31 Aug 2022,20220831,69 William Street,GATTON,QLD,4343,-27.5632114,152.277252,3,3,3,House,House,False,1490.0,m2,False
2018055919,listing,/7-o-brien-street-gatton-qld-4343-2018055919,297000,is-sold,Sold by private treaty 11 Aug 2022,20220811,7 O'Brien Street,GATTON,QLD,4343,-27.5669956,152.273117,3,3,3,House,House,False,809.0,m2,False
2010931894,listing,/10-78-east-street-gatton-qld-4343-2010931894,100000,is-sold,Sold by private treaty 01 Aug 2022,20220801,10/78 East Street,GATTON,QLD,4343,-27.56187,152.273,NaN,NaN,NaN,VacantLand,Vacant land,False,1221.0,m2,False
2017676507,listing,/lot-5-gatton-esk-road-spring-creek-qld-4343-2017676507,Price Withheld,is-sold,Sold by private treaty 28 Jul 2022,20220728,Lot 5 Gatton - Esk Road,SPRING CREEK,QLD,4343,-27.4701748,152.345215,NaN,NaN,NaN,Rural,Rural,True,2.0,ha,False
2017685010,listing,/1-6-harch-street-gatton-qld-4343-2017685010,265000,is-sold,Sold by private treaty 07 Jul 2022,20220707,1/6 Harch Street,GATTON,QLD,4343,-27.560133,152.274719,2,2,2,ApartmentUnitFlat,Apartment / Unit / Flat,False,111.0,m2,False
2017690578,listing,/73-william-street-gatton-qld-4343-2017690578,420000,is-sold,Sold by private treaty 11 Jul 2022,20220711,73 William Street,GATTON,QLD,4343,-27.5636139,152.277161,6,6,6,House,House,False,1626.0,m2,False
2017729414,listing,/5-hood-street-gatton-qld-4343-2017729414,Price Withheld,is-sold,Sold by private treaty 28 Jul 2022,20220728,5 Hood Street,GATTON,QLD,4343,-27.560173,152.276657,6,6,6,Rural,Rural,True,0.0,m2,False
2017771150,listing,/50-fitzgerald-street-gatton-qld-4343-2017771150,435000,is-sold,Sold by private treaty 11 Jul 2022,20220711,50 Fitzgerald Street,GATTON,QLD,4343,-27.56156,152.289352,4,4,4,House,House,False,672.0,m2,False
2017771259,listing,/8-spotted-gum-road-gatton-qld-4343-2017771259,630000,is-sold,Sold by private treaty 11 Jul 2022,20220711,8 Spotted Gum Road,GATTON,QLD,4343,-27.587841,152.290482,4,4,4,House,House,False,3001.0,m2,False
2017781986,listing,/3-skinner-street-gatton-qld-4343-2017781986,350000,is-sold,Sold by private treaty 13 Jul 2022,20220713,3 Skinner Street,GATTON,QLD,4343,-27.5513859,152.282852,5,5,5,House,House,False,688.0,m2,False
2017802629,listing,/229-229-huntingdale-cresent-placid-hills-qld-4343-2017802629,Price Withheld,is-sold,Sold by private treaty 02 Aug 2022,20220802,229/229 Huntingdale Cresent,PLACID HILLS,QLD,4343,-27.5562458,152.235977,2,2,2,House,House,True,2.05,ha,False
2017851165,listing,/29-banksia-road-gatton-qld-4343-2017851165,725000,is-sold,Sold by private treaty 22 Jul 2022,20220722,29 Banksia Road,GATTON,QLD,4343,-27.5849667,152.273132,4,4,4,House,House,False,3950.0,m2,False
2017881927,listing,/54-jensen-street-gatton-qld-4343-2017881927,460000,is-sold,Sold by private treaty 02 Aug 2022,20220802,54 Jensen Street,GATTON,QLD,4343,-27.5668163,152.2795,4,4,4,House,House,False,700.0,m2,False
2017900996,listing,/11-crestview-avenue-gatton-qld-4343-2017900996,400000,is-sold,Sold by private treaty 13 Jul 2022,20220713,11 Crestview Avenue,GATTON,QLD,4343,-27.57261,152.278214,5,5,5,House,House,False,719.0,m2,False
2017902176,listing,/96-davey-road-gatton-qld-4343-2017902176,450000,is-sold,Sold by private treaty 08 Jul 2022,20220708,96 Davey Road,GATTON,QLD,4343,-27.5713,152.281036,4,4,4,House,House,False,840.0,m2,False
2017934546,listing,/50-crestview-avenue-gatton-qld-4343-2017934546,380000,is-sold,Sold by private treaty 03 Aug 2022,20220803,50 Crestview Avenue,GATTON,QLD,4343,-27.5731583,152.281921,3,3,3,House,House,False,825.0,m2,False
2017935228,listing,/4-buaraba-street-gatton-qld-4343-2017935228,295000,is-sold,Sold by private treaty 21 Jul 2022,20220721,4 Buaraba Street,GATTON,QLD,4343,-27.556263,152.2858,4,4,4,House,House,False,1333.0,m2,False
2017941691,listing,/59-highview-ave-gatton-qld-4343-2017941691,400000,is-sold,Sold by private treaty 01 Aug 2022,20220801,59 Highview Ave,GATTON,QLD,4343,-27.56881,152.282059,4,4,4,House,House,False,838.0,m2,False
2017943359,listing,/5-31-princess-street-gatton-qld-4343-2017943359,250000,is-sold,Sold by private treaty 01 Aug 2022,20220801,5/31 Princess Street,GATTON,QLD,4343,-27.54919,152.283524,2,2,2,ApartmentUnitFlat,Apartment / Unit / Flat,False,92.0,m2,False
2017948621,listing,/22-smith-street-gatton-qld-4343-2017948621,330000,is-sold,Sold by private treaty 02 Aug 2022,20220802,22 Smith Street,GATTON,QLD,4343,-27.5650063,152.276382,3,3,3,House,House,False,1012.0,m2,False
2017967390,listing,/27-rogers-drive-gatton-qld-4343-2017967390,540000,is-sold,Sold by private treaty 29 Jul 2022,20220729,27 Rogers Drive,GATTON,QLD,4343,-27.5702934,152.286835,4,4,4,House,House,False,730.0,m2,False
2017983772,listing,/10-6-beryl-place-gatton-qld-4343-2017983772,305000,is-sold,Sold by private treaty 09 Jul 2022,20220709,10/6 Beryl Place,GATTON,QLD,4343,-27.5636082,152.291962,2,2,2,ApartmentUnitFlat,Apartment / Unit / Flat,False,203.0,m2,False
2014782990,listing,/120-cochrane-street-gatton-qld-4343-2014782990,700000,is-sold,Sold by private treaty 29 Jun 2022,20220629,120 Cochrane Street,GATTON,QLD,4343,-27.5636387,152.2824,NaN,NaN,NaN,VacantLand,Vacant land,False,12200.0,m2,False
2017330363,listing,/37-allan-cunningham-dve-gatton-qld-4343-2017330363,Price Withheld,is-sold,Sold by private treaty 15 Jun 2022,20220615,37 Allan Cunningham Dve,GATTON,QLD,4343,-27.5849934,152.271118,6,6,6,Duplex,Duplex,False,890.0,m2,False
2017352918,listing,/34-rangeview-drive-gatton-qld-4343-2017352918,515000,is-sold,Sold by private treaty 24 Jun 2022,20220624,34 Rangeview Drive,GATTON,QLD,4343,-27.58079,152.275467,4,4,4,Rural,Rural,True,2.01,ha,False
2017582744,listing,/5-4-skinner-street-gatton-qld-4343-2017582744,207000,is-sold,Sold by private treaty 16 Jun 2022,20220616,5/4 Skinner Street,GATTON,QLD,4343,-27.5522652,152.282684,2,2,2,ApartmentUnitFlat,Apartment / Unit / Flat,False,93.0,m2,False
2017602974,listing,/15-gassman-street-gatton-qld-4343-2017602974,325000,is-sold,Sold by private treaty 24 Jun 2022,20220624,15 Gassman Street,GATTON,QLD,4343,-27.5726051,152.280914,3,3,3,House,House,False,1055.0,m2,False
2017647312,listing,/50-woodlands-road-gatton-qld-4343-2017647312,573000,is-sold,Sold by private treaty 01 Jul 2022,20220701,50 Woodlands Road,GATTON,QLD,4343,-27.5635376,152.284225,4,4,4,House,House,False,870.0,m2,False
2017673155,listing,/110-railway-street-gatton-qld-4343-2017673155,Price Withheld,is-sold,Sold by private treaty 01 Jul 2022,20220701,110 Railway Street,GATTON,QLD,4343,-27.5634861,152.275009,6,6,6,ApartmentUnitFlat,Apartment / Unit / Flat,False,1012.0,m2,False
2017678897,listing,/17-caffey-connection-road-caffey-qld-4343-2017678897,320000,is-sold,Sold by private treaty 16 Jun 2022,20220616,17 Caffey Connection Road,CAFFEY,QLD,4343,-27.6962948,152.221,4,4,4,House,House,False,1227.0,m2,False
2017706339,listing,/15-jubilee-street-gatton-qld-4343-2017706339,315000,is-sold,Sold by private treaty 06 Jul 2022,20220706,15 Jubilee Street,GATTON,QLD,4343,-27.5547161,152.286667,3,3,3,House,House,False,809.0,m2,False
2017712653,listing,/6-buaraba-street-gatton-qld-4343-2017712653,342000,is-sold,Sold by private treaty 24 Jun 2022,20220624,6 Buaraba Street,GATTON,QLD,4343,-27.5559082,152.285873,3,3,3,House,House,False,809.0,m2,False
2017738361,listing,/28-hill-st-gatton-qld-4343-2017738361,325000,is-sold,Sold by private treaty 24 Jun 2022,20220624,28 Hill St,GATTON,QLD,4343,-27.5688934,152.275833,3,3,3,House,House,False,759.0,m2,False
2017765730,listing,/2-cockatoo-drive-gatton-qld-4343-2017765730,560000,is-sold,Sold by private treaty 30 Jun 2022,20220630,2 COCKATOO DRIVE,GATTON,QLD,4343,-27.5056057,152.323669,4,4,4,House,House,False,8156.0,m2,False
2017782276,listing,/37-nangara-road-morton-vale-qld-4343-2017782276,595000,is-sold,Sold by private treaty 20 Jun 2022,20220620,37 Nangara Road,MORTON VALE,QLD,4343,-27.4705582,152.401047,4,4,4,House,House,False,10100.0,m2,False
2017824649,listing,/68-whittle-street-gatton-qld-4343-2017824649,370000,is-sold,Sold by private treaty 21 Jun 2022,20220621,68 Whittle Street,GATTON,QLD,4343,-27.5686989,152.274734,3,3,3,House,House,False,620.0,m2,False
2017844715,listing,/6-huntley-street-gatton-qld-4343-2017844715,600000,is-sold,Sold by private treaty 23 Jun 2022,20220623,6 Huntley Street,GATTON,QLD,4343,-27.5570717,152.276962,4,4,4,House,House,False,750.0,m2,False
2017858815,listing,/15-brolga-way-adare-qld-4343-2017858815,651000,is-sold,Sold by private treaty 21 Jun 2022,20220621,15 Brolga Way,ADARE,QLD,4343,-27.4980564,152.32373,4,4,4,AcreageSemiRural,Acreage / Semi-Rural,True,9995.0,m2,False
2017864683,listing,/12-lergessner-court-gatton-qld-4343-2017864683,460000,is-sold,Sold by private treaty 18 Jun 2022,20220618,12 Lergessner Court,GATTON,QLD,4343,-27.5630569,152.290817,4,4,4,House,House,False,1049.0,m2,False
2017878483,listing,/13-27-princess-street-gatton-qld-4343-2017878483,Price Withheld,is-sold,Sold by private treaty 24 Jun 2022,20220624,13/27 Princess Street,GATTON,QLD,4343,-27.5495033,152.2833,2,2,2,ApartmentUnitFlat,Apartment / Unit / Flat,False,0.0,m2,False
2017885244,listing,/25-buaraba-street-gatton-qld-4343-2017885244,435000,is-sold,Sold by private treaty 29 Jun 2022,20220629,25 Buaraba Street,GATTON,QLD,4343,-27.5529423,152.285965,3,3,3,Rural,Rural,True,0.0,m2,False
2017890010,listing,/12-feldhahn-street-gatton-qld-4343-2017890010,280000,is-sold,Sold by private treaty 04 Jul 2022,20220704,12 Feldhahn Street,GATTON,QLD,4343,-27.55205,152.283585,2,2,2,House,House,False,852.0,m2,False
2014459748,listing,/39-162-wallers-road-ringwood-qld-4343-2014459748,450000,is-sold,Sold by private treaty 27 May 2022,20220527,39 & 162 Wallers Road,RINGWOOD,QLD,4343,-27.51703,152.230148,2,2,2,Rural,Rural,True,199.71,ha,False
2017550160,listing,/55-woodlands-road-gatton-qld-4343-2017550160,380000,is-sold,Sold by private treaty 25 May 2022,20220525,55 Woodlands Road,GATTON,QLD,4343,-27.5639648,152.2835,4,4,4,House,House,False,784.0,m2,False
2017658886,listing,/11-jacana-drive-adare-qld-4343-2017658886,250000,is-sold,Sold by private treaty 26 May 2022,20220526,11 Jacana Drive,ADARE,QLD,4343,-27.5040531,152.3209,NaN,NaN,NaN,VacantLand,Vacant land,True,1.03,ha,False
2017694777,listing,/91-old-college-road-gatton-qld-4343-2017694777,850000,is-sold,Sold by private treaty 14 Jun 2022,20220614,91 Old College Road,GATTON,QLD,4343,-27.5537262,152.287842,4,4,4,House,House,False,21000.0,m2,False
2017703225,listing,/74-old-college-road-gatton-qld-4343-2017703225,360000,is-sold,Sold by private treaty 30 May 2022,20220530,74 Old College Road,GATTON,QLD,4343,-27.5541515,152.2855,3,3,3,House,House,False,1214.0,m2,False
2017731924,listing,/6-ropeley-rockside-road-ropeley-qld-4343-2017731924,257000,is-sold,Sold by private treaty 26 May 2022,20220526,6 Ropeley Rockside Road,ROPELEY,QLD,4343,-27.626976,152.2322,NaN,NaN,NaN,Rural,Rural,True,2.06,ha,False
2017750145,listing,/gatton-qld-4343-2017750145,850000,is-sold,Sold by private treaty 01 Jun 2022,20220601,NaN,GATTON,QLD,4343,-27.5570717,152.276962,3,3,3,Rural,Rural,True,9.78,ha,False
2017755798,listing,/31-tallaringa-drive-adare-qld-4343-2017755798,500000,is-sold,Sold by private treaty 30 May 2022,20220530,31 Tallaringa Drive,ADARE,QLD,4343,-27.5071735,152.326492,1,1,1,House,House,True,3.99,ha,False
2017760299,listing,/20-south-street-gatton-qld-4343-2017760299,325000,is-sold,Sold by private treaty 30 May 2022,20220530,20 South Street,GATTON,QLD,4343,-27.5727634,152.277161,3,3,3,House,House,False,620.0,m2,False
2017792283,listing,/12-goltz-court-gatton-qld-4343-2017792283,302500,is-sold,Sold by private treaty 10 Jun 2022,20220610,12 Goltz Court,GATTON,QLD,4343,-27.56189,152.281876,4,4,4,House,House,False,653.0,m2,False
2017812306,listing,/17-crestview-avenue-gatton-qld-4343-2017812306,475000,is-sold,Sold by private treaty 06 Jun 2022,20220606,17 Crestview Avenue,GATTON,QLD,4343,-27.5730476,152.278671,4,4,4,House,House,False,840.0,m2,False
2017817731,listing,/1-4-skinner-street-gatton-qld-4343-2017817731,236000,is-sold,Sold by private treaty 30 May 2022,20220530,1/4 Skinner Street,GATTON,QLD,4343,-27.55179,152.28273,3,3,3,ApartmentUnitFlat,Apartment / Unit / Flat,False,106.0,m2,False
2017822975,listing,/49-placid-drive-placid-hills-qld-4343-2017822975,650000,is-sold,Sold by private treaty 02 Jun 2022,20220602,49 Placid Drive,PLACID HILLS,QLD,4343,-27.5545578,152.238739,5,5,5,VacantLand,Vacant land,False,1801.0,m2,False
2017824851,listing,/33-numera-court-adare-qld-4343-2017824851,755500,is-sold,Sold by private treaty 03 Jun 2022,20220603,33 Numera Court,ADARE,QLD,4343,-27.5316944,152.254486,4,4,4,Rural,Rural,True,2.0,ha,False
2017829343,listing,/2-park-lane-gatton-qld-4343-2017829343,272000,is-sold,Sold by private treaty 07 Jun 2022,20220607,2 Park Lane,GATTON,QLD,4343,-27.554966,152.2795,4,4,4,Rural,Rural,True,787.0,m2,False
2017835376,listing,/35-dwyer-street-gatton-qld-4343-2017835376,292000,is-sold,Sold by private treaty 02 Jun 2022,20220602,35 Dwyer Street,GATTON,QLD,4343,-27.5509624,152.286316,4,4,4,House,House,False,701.0,m2,False
2017837153,listing,/7-maragon-crt-lake-clarendon-qld-4343-2017837153,230000,is-sold,Sold by private treaty 09 Jun 2022,20220609,7 Maragon Crt,LAKE CLARENDON,QLD,4343,-27.5210972,152.357071,NaN,NaN,NaN,VacantLand,Vacant land,False,3040.0,m2,False
2017852384,listing,/91-davey-road-gatton-qld-4343-2017852384,420000,is-sold,Sold by private treaty 06 Jun 2022,20220606,91 Davey Road,GATTON,QLD,4343,-27.570797,152.280548,3,3,3,House,House,False,788.0,m2,False
2017859339,listing,/22-bauhinia-street-gatton-qld-4343-2017859339,410000,is-sold,Sold by private treaty 13 Jun 2022,20220613,22 Bauhinia Street,GATTON,QLD,4343,-27.5663948,152.277344,4,4,4,House,House,False,744.0,m2,False
2017927648,listing,/4-lillian-street-gatton-qld-4343-2017927648,430000,is-sold,Sold by private treaty 25 May 2022,20220525,4 Lillian Street,GATTON,QLD,4343,-27.5706978,152.279312,4,4,4,House,House,False,794.0,m2,False
2016812789,listing,/30-40-hennessy-street-gatton-qld-4343-2016812789,130000,is-sold,Sold by private treaty 18 May 2022,20220518,30/40 Hennessy Street,GATTON,QLD,4343,-27.5659676,152.287949,NaN,NaN,NaN,VacantLand,Vacant land,False,779.0,m2,False
2017138543,listing,/23-byrne-street-gatton-qld-4343-2017138543,190000,is-sold,Sold by private treaty 06 May 2022,20220506,23 Byrne Street,GATTON,QLD,4343,-27.5508633,152.281784,3,3,3,House,House,False,411.0,m2,False
2017607480,listing,/11-bauhinia-bauhinia-street-gatton-qld-4343-2017607480,Price Withheld,is-sold,Sold by private treaty 13 May 2022,20220513,11 Bauhinia Bauhinia Street,GATTON,QLD,4343,-27.5655518,152.276031,3,3,3,House,House,False,830.0,m2,False
2017615355,listing,/89-parklea-drive-placid-hills-qld-4343-2017615355,612500,is-sold,Sold by private treaty 18 May 2022,20220518,89 Parklea Drive,PLACID HILLS,QLD,4343,-27.5576515,152.247574,4,4,4,House,House,False,3047.0,m2,False
2017646879,listing,/7-kookaburra-drive-gatton-qld-4343-2017646879,595000,is-sold,Sold by private treaty 10 May 2022,20220510,7 Kookaburra Drive,GATTON,QLD,4343,-27.582449,152.269287,4,4,4,House,House,False,4124.0,m2,False
2017677640,listing,/21-cockatoo-drive-adare-qld-4343-2017677640,565000,is-sold,Sold by private treaty 09 May 2022,20220509,21 Cockatoo Drive,ADARE,QLD,4343,-27.4973812,152.325562,4,4,4,House,House,False,7732.0,m2,False
2017679267,listing,/7-woodside-drive-gatton-qld-4343-2017679267,680000,is-sold,Sold by private treaty 06 May 2022,20220506,7 Woodside Drive,GATTON,QLD,4343,-27.5860729,152.272751,4,4,4,House,House,False,902.0,m2,False
2017686462,listing,/3-peters-street-gatton-qld-4343-2017686462,336000,is-sold,Sold by private treaty 24 May 2022,20220524,3 Peters Street,GATTON,QLD,4343,-27.5522327,152.284042,3,3,3,House,House,False,905.0,m2,False
2017703411,listing,/3-strong-street-gatton-qld-4343-2017703411,230000,is-sold,Sold by private treaty 06 May 2022,20220506,3 Strong Street,GATTON,QLD,4343,-27.5530453,152.284683,2,2,2,House,House,False,799.0,m2,False
2017710049,listing,/7-dawson-drive-gatton-qld-4343-2017710049,420000,is-sold,Sold by private treaty 04 May 2022,20220504,7 Dawson Drive,GATTON,QLD,4343,-27.56743,152.282059,3,3,3,House,House,False,673.0,m2,False
2017711380,listing,/2-4-skinner-street-gatton-qld-4343-2017711380,220000,is-sold,Sold by private treaty 13 May 2022,20220513,2/4 Skinner Street,GATTON,QLD,4343,-27.551878,152.282715,3,3,3,ApartmentUnitFlat,Apartment / Unit / Flat,False,106.0,m2,False
2017715161,listing,/301-gatton-esk-rd-adare-qld-4343-2017715161,310000,is-sold,Sold at auction 20 May 2022,20220520,"301 Gatton Esk Rd,",ADARE,QLD,4343,-27.523838,152.31575,3,3,3,Rural,Rural,True,0.0,m2,False
2017737736,listing,/30-andrews-drive-gatton-qld-4343-2017737736,480000,is-sold,Sold by private treaty 13 May 2022,20220513,30 Andrews Drive,GATTON,QLD,4343,-27.5704422,152.284,4,4,4,House,House,False,874.0,m2,False
2017760227,listing,/30-mountain-view-drive-adare-qld-4343-2017760227,385000,is-sold,Sold by private treaty 18 May 2022,20220518,30 Mountain View Drive,ADARE,QLD,4343,-27.53763,152.30397,4,4,4,Rural,Rural,True,8918.0,m2,False
2017760327,listing,/107-woodlands-road-gatton-qld-4343-2017760327,400000,is-sold,Sold by private treaty 18 May 2022,20220518,107 Woodlands Road,GATTON,QLD,4343,-27.56971,152.282608,4,4,4,House,House,False,672.0,m2,False
2017762349,listing,/9-hood-street-gatton-qld-4343-2017762349,285000,is-sold,Sold by private treaty 16 May 2022,20220516,9 Hood Street,GATTON,QLD,4343,-27.5605431,152.276611,4,4,4,House,House,False,812.0,m2,False
2017776151,listing,/77-william-street-gatton-qld-4343-2017776151,195000,is-sold,Sold by private treaty 10 May 2022,20220510,77 William Street,GATTON,QLD,4343,-27.563942,152.277115,NaN,NaN,NaN,VacantLand,Vacant land,False,880.0,m2,False
2017788789,listing,/12-falconer-gatton-qld-4343-2017788789,370000,is-sold,Sold by private treaty 09 May 2022,20220509,12 Falconer,GATTON,QLD,4343,-27.5662117,152.2855,3,3,3,House,House,False,896.0,m2,False
2017809909,listing,/3-dawson-drive-gatton-qld-4343-2017809909,425000,is-sold,Sold by private treaty 18 May 2022,20220518,3 Dawson Drive,GATTON,QLD,4343,-27.5677128,152.282776,3,3,3,Rural,Rural,True,0.0,m2,False
2017814443,listing,/18-koala-crescent-gatton-qld-4343-2017814443,630000,is-sold,Sold by private treaty 25 May 2022,20220525,18 Koala Crescent,GATTON,QLD,4343,-27.579443,152.2683,4,4,4,House,House,False,3071.0,m2,False
2012864919,listing,/lester-road-morton-vale-qld-4343-2012864919,1400000,is-sold,Sold by private treaty 22 Apr 2022,20220422,Lester Road,MORTON VALE,QLD,4343,-27.4888515,152.3887,3,3,3,Rural,Rural,True,47.67,ha,False
2017529091,listing,/99-railway-street-gatton-qld-4343-2017529091,450000,is-sold,Sold by private treaty 12 Apr 2022,20220412,99 Railway Street,GATTON,QLD,4343,-27.56195,152.274734,4,4,4,House,House,False,1012.0,m2,False
2017583142,listing,/257-old-ropeley-road-ropeley-qld-4343-2017583142,690000,is-sold,Sold by private treaty 27 Apr 2022,20220427,257 Old Ropeley Road,ROPELEY,QLD,4343,-27.6257286,152.251465,4,4,4,Rural,Rural,True,6.07,ha,False
2017592371,listing,/66-whittle-street-gatton-qld-4343-2017592371,403000,is-sold,Sold by private treaty 12 Apr 2022,20220412,66 Whittle Street,GATTON,QLD,4343,-27.5685062,152.274643,5,5,5,House,House,False,718.0,m2,False
2017597311,listing,/69-whittle-street-gatton-qld-4343-2017597311,470000,is-sold,Sold by private treaty 11 Apr 2022,20220411,69 Whittle Street,GATTON,QLD,4343,-27.56845,152.274216,5,5,5,House,House,False,817.0,m2,False
2017611886,listing,/60-whittle-street-gatton-qld-4343-2017611886,280000,is-sold,Sold by private treaty 23 Apr 2022,20220423,60 Whittle Street,GATTON,QLD,4343,-27.5675888,152.274811,3,3,3,House,House,False,741.0,m2,False
2017631747,listing,/17-buaraba-street-gatton-qld-4343-2017631747,300000,is-sold,Sold by private treaty 26 Apr 2022,20220426,17 Buaraba Street,GATTON,QLD,4343,-27.5546017,152.285645,3,3,3,House,House,False,1012.0,m2,False
2017646717,listing,/unit-3-71-woodlands-rd-gatton-qld-4343-2017646717,340000,is-sold,Sold by private treaty 21 Apr 2022,20220421,Unit 3/71 Woodlands Rd,GATTON,QLD,4343,-27.5657558,152.2833,3,3,3,ApartmentUnitFlat,Apartment / Unit / Flat,False,113.0,m2,False
2017660430,listing,/11-beavan-street-gatton-qld-4343-2017660430,290000,is-sold,Sold by private treaty 01 May 2022,20220501,11 Beavan Street,GATTON,QLD,4343,-27.5517635,152.278137,3,3,3,House,House,False,439.0,m2,False
2017662706,listing,/56-whittle-st-gatton-qld-4343-2017662706,285000,is-sold,Sold by private treaty 11 Apr 2022,20220411,56 Whittle st,GATTON,QLD,4343,-27.5672932,152.275116,3,3,3,House,House,False,742.0,m2,False
2017664529,listing,/48-placid-drive-gatton-qld-4343-2017664529,715000,is-sold,Sold by private treaty 11 Apr 2022,20220411,48 Placid Drive,GATTON,QLD,4343,-27.5547981,152.239441,5,5,5,House,House,False,1800.0,m2,False
2017665554,listing,/9-mountain-view-drive-adare-qld-4343-2017665554,600100,is-sold,Sold by private treaty 11 Apr 2022,20220411,9 Mountain View Drive,ADARE,QLD,4343,-27.5367241,152.3025,4,4,4,House,House,False,4192.0,m2,False
2017666596,listing,/366-ropeley-rockside-road-ropeley-qld-4343-2017666596,396000,is-sold,Sold by private treaty 29 Apr 2022,20220429,366 Ropeley Rockside Road,ROPELEY,QLD,4343,-27.64202,152.254517,4,4,4,Rural,Rural,True,2.0,ha,False
2017685851,listing,/24-archer-rd-spring-creek-qld-4343-2017685851,Price Withheld,is-sold,Sold at auction 22 Apr 2022,20220422,24 Archer Rd,SPRING CREEK,QLD,4343,-27.4492531,152.350876,1,1,1,House,House,True,8.08,ha,False
2017696569,listing,/232-petersens-road-upper-tenthill-qld-4343-2017696569,1015000,is-sold,Sold by private treaty 28 Apr 2022,20220428,232 Petersens Road,UPPER TENTHILL,QLD,4343,-27.63578,152.210785,6,6,6,House,House,True,5.03,ha,False
2017707373,listing,/5-fitzpatrick-court-lake-clarendon-qld-4343-2017707373,573000,is-sold,Sold by private treaty 22 Apr 2022,20220422,5 Fitzpatrick Court,LAKE CLARENDON,QLD,4343,-27.52253,152.320648,4,4,4,House,House,False,3720.0,m2,False
2017717078,listing,/71-crowleys-lane-gatton-qld-4343-2017717078,810000,is-sold,Sold by private treaty 21 Apr 2022,20220421,71 Crowleys Lane,GATTON,QLD,4343,-27.569952,152.297165,3,3,3,House,House,True,16.2,ha,False
2017724297,listing,/36-hill-street-gatton-qld-4343-2017724297,395000,is-sold,Sold by private treaty 11 Apr 2022,20220411,36 Hill Street,GATTON,QLD,4343,-27.5696335,152.275742,3,3,3,House,House,False,663.0,m2,False
2017729265,listing,/3-archer-rd-spring-creek-qld-4343-2017729265,400000,is-sold,Sold by private treaty 20 Apr 2022,20220420,3 Archer Rd,SPRING CREEK,QLD,4343,-27.45731,152.3491,NaN,NaN,NaN,VacantLand,Vacant land,True,4.48,ha,False
2017753005,listing,/32-allan-street-gatton-qld-4343-2017753005,420000,is-sold,Sold by private treaty 28 Apr 2022,20220428,32 Allan Street,GATTON,QLD,4343,-27.5516472,152.2823,3,3,3,House,House,False,1012.0,m2,False
2010931911,listing,/57-old-college-road-gatton-qld-4343-2010931911,285000,is-sold,Sold by private treaty 11 Apr 2022,20220411,57 Old College Road,GATTON,QLD,4343,-27.5535,152.2836,3,3,3,House,House,False,1348.0,m2,False
2014698210,listing,/49-hickey-st-gatton-qld-4343-2014698210,205000,is-sold,Sold by private treaty 07 Apr 2022,20220407,49 Hickey St,GATTON,QLD,4343,-27.5558033,152.2828,5,5,5,House,House,False,688.0,m2,False
2015743647,listing,/25-old-college-road-gatton-qld-4343-2015743647,300000,is-sold,Sold by private treaty 09 Apr 2022,20220409,25 Old College Road,GATTON,QLD,4343,-27.5526028,152.279892,4,4,4,House,House,False,2552.0,m2,False
2016084284,listing,/a-b-36-buaraba-street-gatton-qld-4343-2016084284,410000,is-sold,Sold by private treaty 31 Mar 2022,20220331,A & B/36 Buaraba Street,GATTON,QLD,4343,-27.5513649,152.286514,5,5,5,SemiDetached,Semi-Detached,False,1000.0,m2,False
2017206176,listing,/8-horizon-court-adare-qld-4343-2017206176,80000,is-sold,Sold by private treaty 08 Apr 2022,20220408,8 Horizon Court,ADARE,QLD,4343,-27.5367985,152.306412,NaN,NaN,NaN,VacantLand,Vacant land,False,4055.0,m2,False
2017426327,listing,/22-whittle-street-gatton-qld-4343-2017426327,375000,is-sold,Sold by private treaty 07 Apr 2022,20220407,22 Whittle Street,GATTON,QLD,4343,-27.5636711,152.276062,5,5,5,House,House,False,1012.0,m2,False
2017511416,listing,/9-miller-court-gatton-qld-4343-2017511416,440000,is-sold,Sold by private treaty 08 Apr 2022,20220408,9 Miller Court,GATTON,QLD,4343,-27.5619812,152.288574,4,4,4,House,House,False,753.0,m2,False
2017518782,listing,/15-cockatoo-drive-adare-qld-4343-2017518782,517000,is-sold,Sold by private treaty 25 Mar 2022,20220325,15 Cockatoo Drive,ADARE,QLD,4343,-27.4999,152.32486,4,4,4,House,House,False,9563.0,m2,False
2017524747,listing,/8-jackson-court-gatton-qld-4343-2017524747,539999,is-sold,Sold by private treaty 08 Apr 2022,20220408,8 Jackson Court,GATTON,QLD,4343,-27.5631218,152.289169,5,5,5,House,House,False,858.0,m2,False
2017529998,listing,/lot-1-razorback-rd-fordsdale-qld-4343-2017529998,Price Withheld,is-sold,Sold by private treaty 07 Apr 2022,20220407,Lot 1 Razorback Rd,FORDSDALE,QLD,4343,-27.7456169,152.116257,1,1,1,Rural,Rural,True,10.93,ha,False
2017535908,listing,/7-spotted-gum-road-gatton-qld-4343-2017535908,465000,is-sold,Sold by private treaty 29 Mar 2022,20220329,7 Spotted Gum Road,GATTON,QLD,4343,-27.5876465,152.291229,4,4,4,House,House,False,3002.0,m2,False
2017554580,listing,/91-edwards-road-gatton-qld-4343-2017554580,820000,is-sold,Sold by private treaty 06 Apr 2022,20220406,91 Edwards Road,GATTON,QLD,4343,-27.5932388,152.2938,4,4,4,House,House,False,20000.0,m2,False
2017554798,listing,/8-park-lane-gatton-qld-4343-2017554798,135000,is-sold,Sold by private treaty 28 Mar 2022,20220328,8 Park Lane,GATTON,QLD,4343,-27.5545864,152.279648,NaN,NaN,NaN,VacantLand,Vacant land,False,506.0,m2,False
2017578719,listing,/11-reisenleiter-avenue-gatton-qld-4343-2017578719,495000,is-sold,Sold by private treaty 04 Apr 2022,20220404,11 Reisenleiter Avenue,GATTON,QLD,4343,-27.5690022,152.28064,4,4,4,House,House,False,776.0,m2,False
2017579738,listing,/2-18-east-street-gatton-qld-4343-2017579738,295000,is-sold,Sold by private treaty 01 Apr 2022,20220401,2/18 East Street,GATTON,QLD,4343,-27.555521,152.275345,3,3,3,ApartmentUnitFlat,Apartment / Unit / Flat,False,140.0,m2,False
2017596054,listing,/61-davey-road-gatton-qld-4343-2017596054,360000,is-sold,Sold by private treaty 08 Apr 2022,20220408,61 Davey Road,GATTON,QLD,4343,-27.5704956,152.277191,3,3,3,House,House,False,640.0,m2,False
2017666791,listing,/4-4-skinner-street-gatton-qld-4343-2017666791,205000,is-sold,Sold by private treaty 28 Mar 2022,20220328,4/4 Skinner Street,GATTON,QLD,4343,-27.5521278,152.2827,2,2,2,ApartmentUnitFlat,Apartment / Unit / Flat,False,93.0,m2,False
2017697227,listing,/47-fitzgerald-street-gatton-qld-4343-2017697227,380000,is-sold,Sold by private treaty 05 Apr 2022,20220405,47 Fitzgerald Street,GATTON,QLD,4343,-27.5614967,152.290039,4,4,4,House,House,False,700.0,m2,False
2017698015,listing,/9-sharoy-court-gatton-qld-4343-2017698015,679000,is-sold,Sold by private treaty 04 Apr 2022,20220404,9 Sharoy Court,GATTON,QLD,4343,-27.5549641,152.240189,4,4,4,House,House,False,1800.0,m2,False
2017703337,listing,/38-parklea-drive-placid-hills-qld-4343-2017703337,605000,is-sold,Sold by private treaty 05 Apr 2022,20220405,38 Parklea Drive,PLACID HILLS,QLD,4343,-27.5573444,152.252792,4,4,4,House,House,False,3083.0,m2,False
2014467538,listing,/5-7-allan-street-gatton-qld-4343-2014467538,260000,is-sold,Sold by private treaty 10 Mar 2022,20220310,5/7 ALLAN STREET,GATTON,QLD,4343,-27.5550137,152.28093,3,3,3,Rural,Rural,True,159.0,m2,False
2017502459,listing,/280-lefthand-branch-road-lefthand-branch-qld-4343-2017502459,410000,is-sold,Sold by private treaty 07 Mar 2022,20220307,280 Lefthand Branch Road,LEFTHAND BRANCH,QLD,4343,-27.7714787,152.254761,NaN,1.0,NaN,Rural,Rural,True,36.42,ha,False
2017508071,listing,/2-william-street-gatton-qld-4343-2017508071,433000,is-sold,Sold by private treaty 11 Mar 2022,20220311,2 William Street,GATTON,QLD,4343,-27.5563622,152.2799,3,3,3,House,House,False,830.0,m2,False
2017516887,listing,/5-71-woodlands-road-gatton-qld-4343-2017516887,245000,is-sold,Sold by private treaty 08 Mar 2022,20220308,5/71 Woodlands Road,GATTON,QLD,4343,-27.565609,152.283386,3,3,3,ApartmentUnitFlat,Apartment / Unit / Flat,False,105.0,m2,False
2017518891,listing,/13-fielding-road-college-view-qld-4343-2017518891,289000,is-sold,Sold by private treaty 09 Mar 2022,20220309,13 Fielding Road,COLLEGE VIEW,QLD,4343,-27.55833,152.34967,3,3,3,House,House,False,1125.0,m2,False
2017535909,listing,/9-spotted-gum-road-gatton-qld-4343-2017535909,225000,is-sold,Sold by private treaty 08 Mar 2022,20220308,9 Spotted Gum Road,GATTON,QLD,4343,-27.5873985,152.291473,NaN,NaN,NaN,VacantLand,Vacant land,False,3100.0,m2,False
2017550254,listing,/38-mckay-street-gatton-qld-4343-2017550254,372000,is-sold,Sold by private treaty 04 Mar 2022,20220304,38 McKay Street,GATTON,QLD,4343,-27.5683613,152.286285,4,4,4,House,House,False,800.0,m2,False
2017556403,listing,/11-harch-street-gatton-qld-4343-2017556403,495000,is-sold,Sold by private treaty 14 Mar 2022,20220314,11 Harch Street,GATTON,QLD,4343,-27.55944,152.274536,4,4,4,House,House,False,739.0,m2,False
2017579698,listing,/4-cardinal-close-gatton-qld-4343-2017579698,430000,is-sold,Sold by private treaty 17 Mar 2022,20220317,4 Cardinal Close,GATTON,QLD,4343,-27.56464,152.289169,4,4,4,House,House,False,800.0,m2,False
2017605493,listing,/42-huntingdale-crescent-placid-hills-qld-4343-2017605493,910000,is-sold,Sold by private treaty 07 Mar 2022,20220307,42 Huntingdale Crescent,PLACID HILLS,QLD,4343,-27.5577488,152.227325,5,5,5,House,House,True,2.0,ha,False
2017607144,listing,/70-old-college-road-gatton-qld-4343-2017607144,280000,is-sold,Sold by private treaty 15 Mar 2022,20220315,70 Old College Road,GATTON,QLD,4343,-27.5541172,152.284958,3,3,3,House,House,False,827.0,m2,False
2017611247,listing,/21-falconer-street-gatton-qld-4343-2017611247,400000,is-sold,Sold by private treaty 12 Mar 2022,20220312,21 Falconer Street,GATTON,QLD,4343,-27.5658169,152.2866,4,4,4,House,House,False,800.0,m2,False
2017611809,listing,/30-kurrajong-drive-gatton-qld-4343-2017611809,500000,is-sold,Sold by private treaty 12 Mar 2022,20220312,30 Kurrajong Drive,GATTON,QLD,4343,-27.586834,152.270065,4,4,4,House,House,False,3000.0,m2,False
2017612606,listing,/30-old-college-road-gatton-qld-4343-2017612606,330000,is-sold,Sold by private treaty 10 Mar 2022,20220310,30 Old College Road,GATTON,QLD,4343,-27.5535851,152.280045,3,3,3,House,House,False,708.0,m2,False
2017618620,listing,/8-dwyer-street-gatton-qld-4343-2017618620,295000,is-sold,Sold by private treaty 14 Mar 2022,20220314,8 Dwyer Street,GATTON,QLD,4343,-27.5508938,152.28331,3,3,3,Rural,Rural,True,0.0,m2,False
2017618919,listing,/3-6-harch-street-gatton-qld-4343-2017618919,240000,is-sold,Sold by private treaty 22 Mar 2022,20220322,3/6 Harch Street,GATTON,QLD,4343,-27.5570717,152.276962,2,2,2,Rural,Rural,True,0.0,m2,False
2017625860,listing,/112-railway-street-gatton-qld-4343-2017625860,401000,is-sold,Sold by private treaty 07 Mar 2022,20220307,112 Railway Street,GATTON,QLD,4343,-27.5636463,152.27475,4,4,4,House,House,False,1012.0,m2,False
2017649382,listing,/7-kurrajong-road-gatton-qld-4343-2017649382,670000,is-sold,Sold by private treaty 08 Mar 2022,20220308,7 Kurrajong Road,GATTON,QLD,4343,-27.5840263,152.268478,5,5,5,House,House,False,3453.0,m2,False
2017651698,listing,/27-hickey-street-gatton-qld-4343-2017651698,270000,is-sold,Sold by private treaty 11 Mar 2022,20220311,27 Hickey Street,GATTON,QLD,4343,-27.55511,152.27977,3,3,3,Rural,Rural,True,718.0,m2,False
2017659967,listing,/58-golf-links-drive-gatton-qld-4343-2017659967,389000,is-sold,Sold by private treaty 18 Mar 2022,20220318,58 Golf Links Drive,GATTON,QLD,4343,-27.56097,152.289948,3,3,3,House,House,False,680.0,m2,False
2013437916,listing,/35-gumtip-drive-adare-qld-4343-2013437916,580000,is-sold,Sold by private treaty 25 Feb 2022,20220225,35 Gumtip Drive,ADARE,QLD,4343,-27.5379467,152.2879,4,4,4,House,House,False,8180.0,m2,False
2013878915,listing,/6-mountain-view-drive-gatton-qld-4343-2013878915,480000,is-sold,Sold by private treaty 21 Feb 2022,20220221,6 Mountain View Drive,GATTON,QLD,4343,-27.5351944,152.303238,4,4,4,House,House,False,5695.0,m2,False
2014155745,listing,/6-mountain-view-drive-gatton-qld-4343-2014155745,480000,is-sold,Sold by private treaty 21 Feb 2022,20220221,6 Mountain View Drive,GATTON,QLD,4343,-27.5351944,152.303238,4,4,4,House,House,False,5695.0,m2,False
2016078131,listing,/1007-gatton-esk-road-spring-creek-qld-4343-2016078131,1180000,is-sold,Sold by private treaty 01 Mar 2022,20220301,1007 Gatton-Esk Road,SPRING CREEK,QLD,4343,-27.470787,152.3438,8,8,8,House,House,True,16.61,ha,False
2017373523,listing,/7-goltz-court-gatton-qld-4343-2017373523,635000,is-sold,Sold by private treaty 15 Feb 2022,20220215,7 Goltz Court,GATTON,QLD,4343,-27.5624638,152.28299,8,8,8,House,House,False,776.0,m2,False
2017390201,listing,/5-crestview-avenue-gatton-qld-4343-2017390201,440000,is-sold,Sold by private treaty 17 Feb 2022,20220217,5 Crestview Avenue,GATTON,QLD,4343,-27.5722466,152.2779,4,4,4,House,House,False,866.0,m2,False
2017448800,listing,/65-tillack-road-gatton-qld-4343-2017448800,250000,is-sold,Sold by private treaty 25 Feb 2022,20220225,65 Tillack Road,GATTON,QLD,4343,-27.5892982,152.303131,NaN,NaN,NaN,VacantLand,Vacant land,False,20000.0,m2,False
2017455237,listing,/71-old-college-road-gatton-qld-4343-2017455237,330000,is-sold,Sold by private treaty 11 Feb 2022,20220211,71 Old College Road,GATTON,QLD,4343,-27.5537128,152.285233,3,3,3,House,House,False,809.0,m2,False
2017459183,listing,/17-fielding-road-college-view-qld-4343-2017459183,Price Withheld,is-sold,Sold by private treaty 01 Mar 2022,20220301,17 Fielding Road,COLLEGE VIEW,QLD,4343,-27.557888,152.349533,3,3,3,Rural,Rural,True,1125.0,m2,False
2017477316,listing,/54-davey-road-gatton-qld-4343-2017477316,290000,is-sold,Sold by private treaty 15 Feb 2022,20220215,54 DAVEY ROAD,GATTON,QLD,4343,-27.5708485,152.276535,3,3,3,House,House,False,612.0,m2,False
2017498877,listing,/6-kyle-close-placid-hills-qld-4343-2017498877,480500,is-sold,Sold by private treaty 11 Feb 2022,20220211,6 Kyle Close,PLACID HILLS,QLD,4343,-27.5567646,152.250687,4,4,4,House,House,False,3066.0,m2,False
2017499445,listing,/46-mayfield-road-placid-hills-qld-4343-2017499445,720000,is-sold,Sold by private treaty 03 Mar 2022,20220303,46 Mayfield Road,PLACID HILLS,QLD,4343,-27.55793,152.231537,4,4,4,Rural,Rural,True,2.0,ha,False
2017500558,listing,/54-old-college-road-gatton-qld-4343-2017500558,290000,is-sold,Sold by private treaty 24 Feb 2022,20220224,54 Old College Road,GATTON,QLD,4343,-27.55389,152.283127,4,4,4,House,House,False,842.0,m2,False
2017509892,listing,/6-mill-street-gatton-qld-4343-2017509892,310000,is-sold,Sold by private treaty 14 Feb 2022,20220214,6 Mill Street,GATTON,QLD,4343,-27.5502911,152.280518,3,3,3,House,House,False,810.0,m2,False
2017521428,listing,/lawes-qld-4343-2017521428,532000,is-sold,Sold by private treaty 13 Feb 2022,20220213,NaN,LAWES,QLD,4343,-27.55251,152.335541,NaN,NaN,NaN,VacantLand,Vacant land,True,16.34,ha,False
2017590334,listing,/1-buaraba-street-gatton-qld-4343-2017590334,325000,is-sold,Sold by private treaty 22 Feb 2022,20220222,1 Buaraba Street,GATTON,QLD,4343,-27.5556164,152.285461,3,3,3,House,House,False,688.0,m2,False
2017596685,listing,/21-rogers-drive-gatton-qld-4343-2017596685,550000,is-sold,Sold by private treaty 23 Feb 2022,20220223,21 Rogers Drive,GATTON,QLD,4343,-27.5707359,152.286148,4,4,4,House,House,False,1034.0,m2,False
2017603532,listing,/82-highview-avenue-gatton-qld-4343-2017603532,460000,is-sold,Sold by private treaty 28 Feb 2022,20220228,82 Highview Avenue,GATTON,QLD,4343,-27.5680943,152.2826,5,5,5,House,House,False,717.0,m2,False
2017605429,listing,/vinegar-hill-qld-4343-2017605429,725000,is-sold,Sold by private treaty 21 Feb 2022,20220221,NaN,VINEGAR HILL,QLD,4343,-27.5049744,152.257935,5,5,5,Rural,Rural,True,1.78,ha,False
2016798126,listing,/20-mountain-view-drive-adare-qld-4343-2016798126,425000,is-sold,Sold by private treaty 02 Feb 2022,20220202,20 Mountain View Drive,ADARE,QLD,4343,-27.5371761,152.301865,4,4,4,House,House,True,1.74,ha,False
2017086058,listing,/68-old-college-road-gatton-qld-4343-2017086058,219000,is-sold,Sold by private treaty 27 Jan 2022,20220127,68 Old College Road,GATTON,QLD,4343,-27.5540352,152.284775,3,3,3,AcreageSemiRural,Acreage / Semi-Rural,True,809.0,m2,False
2017086333,listing,/66-old-college-road-gatton-qld-4343-2017086333,219000,is-sold,Sold by private treaty 27 Jan 2022,20220127,66 Old College Road,GATTON,QLD,4343,-27.55407,152.284546,3,3,3,AcreageSemiRural,Acreage / Semi-Rural,True,799.0,m2,False
2017263279,listing,/237-edwards-road-gatton-qld-4343-2017263279,Price Withheld,is-sold,Sold by private treaty 03 Feb 2022,20220203,237 Edwards Road,GATTON,QLD,4343,-27.5953159,152.308487,3,3,3,AcreageSemiRural,Acreage / Semi-Rural,True,9.06,ha,False
2017329907,listing,/270-cole-gully-road-lefthand-branch-qld-4343-2017329907,590000,is-sold,Sold by private treaty 10 Feb 2022,20220210,270 Cole Gully Road,LEFTHAND BRANCH,QLD,4343,-27.8455238,152.290482,NaN,NaN,NaN,Rural,Rural,True,64.78,ha,False
2017353291,listing,/54-hunter-street-gatton-qld-4343-2017353291,325000,is-sold,Sold by private treaty 03 Feb 2022,20220203,54 Hunter Street,GATTON,QLD,4343,-27.56941,152.280182,3,3,3,NewHouseLand,New House & Land,False,1039.0,m2,False
2017365950,listing,/24-buaraba-street-gatton-qld-4343-2017365950,332300,is-sold,Sold by private treaty 02 Feb 2022,20220202,24 BUARABA STREET,GATTON,QLD,4343,-27.55363,152.286316,5,5,5,House,House,False,502.0,m2,False
2017386397,listing,/45-fitzgerald-st-gatton-qld-4343-2017386397,410000,is-sold,Sold by private treaty 26 Jan 2022,20220126,45 Fitzgerald St,GATTON,QLD,4343,-27.5615368,152.290222,4,4,4,House,House,False,717.0,m2,False
2017427334,listing,/12-spencer-street-gatton-qld-4343-2017427334,280000,is-sold,Sold by private treaty 31 Jan 2022,20220131,12 Spencer Street,GATTON,QLD,4343,-27.5562477,152.266083,2,2,2,House,House,False,812.0,m2,False
2017429566,listing,/624-mount-sylvia-road-upper-tenthill-qld-4343-2017429566,486500,is-sold,Sold by private treaty 01 Feb 2022,20220201,624 Mount Sylvia Road,UPPER TENTHILL,QLD,4343,-27.66991,152.221725,4,4,4,House,House,False,1979.0,m2,False
2017453880,listing,/30-highview-avenue-gatton-qld-4343-2017453880,480000,is-sold,Sold by private treaty 07 Feb 2022,20220207,30 Highview Avenue,GATTON,QLD,4343,-27.5703812,152.2794,4,4,4,House,House,False,789.0,m2,False
2017467816,listing,/387-back-mount-sylvia-road-mount-sylvia-qld-4343-2017467816,89000,is-sold,Sold by private treaty 28 Jan 2022,20220128,387 Back Mount Sylvia Road,MOUNT SYLVIA,QLD,4343,-27.7213135,152.219513,NaN,NaN,NaN,Rural,Rural,True,911.0,m2,False
2017470304,listing,/19-gaul-street-gatton-qld-4343-2017470304,235000,is-sold,Sold by private treaty 03 Feb 2022,20220203,19 Gaul Street,GATTON,QLD,4343,-27.5537643,152.280182,2,2,2,House,House,False,620.0,m2,False
2017479321,listing,/6-woodside-drive-gatton-qld-4343-2017479321,500000,is-sold,Sold by private treaty 10 Feb 2022,20220210,6 Woodside Drive,GATTON,QLD,4343,-27.5859718,152.272049,4,4,4,House,House,False,855.0,m2,False
2017483224,listing,/28-mckay-street-gatton-qld-4343-2017483224,330000,is-sold,Sold by private treaty 04 Feb 2022,20220204,28 McKay Street,GATTON,QLD,4343,-27.568924,152.28537,3,3,3,House,House,False,1000.0,m2,False
2017495552,listing,/7-ivy-court-gatton-qld-4343-2017495552,425000,is-sold,Sold by private treaty 28 Jan 2022,20220128,7 Ivy Court,GATTON,QLD,4343,-27.554903,152.283127,3,3,3,House,House,False,779.0,m2,False
2017500781,listing,/69-spencer-street-gatton-qld-4343-2017500781,410000,is-sold,Sold by private treaty 08 Feb 2022,20220208,69 Spencer Street,GATTON,QLD,4343,-27.5575085,152.2729,3,3,3,House,House,False,1295.0,m2,False
2017546615,listing,/6-kookaburra-drive-gatton-qld-4343-2017546615,640000,is-sold,Sold by private treaty 07 Feb 2022,20220207,6 Kookaburra Drive,GATTON,QLD,4343,-27.5817337,152.269577,4,4,4,Rural,Rural,True,3331.0,m2,False
2017566343,listing,/gatton-qld-4343-2017566343,478000,is-sold,Sold by private treaty 08 Feb 2022,20220208,NaN,GATTON,QLD,4343,-27.5570717,152.276962,4,4,4,Rural,Rural,True,1010.0,m2,False
2017703131,listing,/142-forestry-road-adare-qld-4343-2017703131,523500,is-sold,Sold by private treaty 09 Feb 2022,20220209,142 Forestry Road,ADARE,QLD,4343,-27.52431,152.24971,4,4,4,House,House,False,9591.0,m2,False
2015174305,listing,/32-red-gum-drive-gatton-qld-4343-2015174305,163000,is-sold,Sold by private treaty 18 Jan 2022,20220118,32 Red Gum Drive,GATTON,QLD,4343,-27.5884,152.292679,NaN,NaN,NaN,VacantLand,Vacant land,False,3337.0,m2,False
2016963400,listing,/9-hemdon-st-gatton-qld-4343-2016963400,310000,is-sold,Sold by private treaty 23 Dec 2021,20211223,9 Hemdon St,GATTON,QLD,4343,-27.5714855,152.2796,2,2,2,House,House,False,731.0,m2,False
2017048446,listing,/26-reisenleiter-avenue-gatton-qld-4343-2017048446,442390,is-sold,Sold by private treaty 14 Jan 2022,20220114,26 Reisenleiter Avenue,GATTON,QLD,4343,-27.5673676,152.281464,7,7,7,House,House,False,760.0,m2,False
2017083127,listing,/54-princess-street-gatton-qld-4343-2017083127,149000,is-sold,Sold by private treaty 22 Dec 2021,20211222,54 Princess Street,GATTON,QLD,4343,-27.55032,152.285736,NaN,NaN,NaN,VacantLand,Vacant land,False,759.0,m2,False
2017217936,listing,/9-golf-links-drive-gatton-qld-4343-2017217936,415000,is-sold,Sold by private treaty 24 Jan 2022,20220124,9 Golf Links Drive,GATTON,QLD,4343,-27.5579815,152.2859,4,4,4,Duplex,Duplex,False,809.0,m2,False
2017310372,listing,/2-lergessner-court-gatton-qld-4343-2017310372,395000,is-sold,Sold by private treaty 11 Jan 2022,20220111,2 Lergessner Court,GATTON,QLD,4343,-27.5626087,152.29187,4,4,4,House,House,False,782.0,m2,False
2017318606,listing,/15-andrews-drive-gatton-qld-4343-2017318606,490000,is-sold,Sold by private treaty 10 Jan 2022,20220110,15 Andrews Drive,GATTON,QLD,4343,-27.5703831,152.2851,4,4,4,House,House,False,1022.0,m2,False
2017352700,listing,/1-odea-court-gatton-qld-4343-2017352700,440000,is-sold,Sold by private treaty 23 Dec 2021,20211223,1 Odea Court,GATTON,QLD,4343,-27.56836,152.281219,4,4,4,House,House,False,709.0,m2,False
2017392649,listing,/unit-4-18-east-street-gatton-qld-4343-2017392649,306000,is-sold,Sold by private treaty 13 Jan 2022,20220113,Unit 4/18 East Street,GATTON,QLD,4343,-27.5555687,152.275513,3,3,3,ApartmentUnitFlat,Apartment / Unit / Flat,False,0.0,m2,False
2017422988,listing,/1-9-andrews-drive-gatton-qld-4343-2017422988,280000,is-sold,Sold by private treaty 22 Dec 2021,20211222,1/9 Andrews Drive,GATTON,QLD,4343,-27.5699387,152.285583,3,3,3,Duplex,Duplex,False,520.0,m2,False
2017432400,listing,/53-hennessy-gatton-qld-4343-2017432400,525000,is-sold,Sold by private treaty 24 Jan 2022,20220124,53 hennessy,GATTON,QLD,4343,-27.567009,152.2894,4,4,4,House,House,False,822.0,m2,False
2017435342,listing,/27-cochrane-street-gatton-qld-4343-2017435342,425000,is-sold,Sold by private treaty 21 Jan 2022,20220121,27 Cochrane Street,GATTON,QLD,4343,-27.5592976,152.26947,3,3,3,House,House,False,1523.0,m2,False
2017450263,listing,/117-brigalow-street-placid-hills-qld-4343-2017450263,630000,is-sold,Sold by private treaty 24 Dec 2021,20211224,117 Brigalow Street,PLACID HILLS,QLD,4343,-27.554491,152.220627,4,4,4,AcreageSemiRural,Acreage / Semi-Rural,True,2.0,ha,False
2017450602,listing,/136-forestry-road-adare-qld-4343-2017450602,450000,is-sold,Sold by private treaty 23 Dec 2021,20211223,136 Forestry Road,ADARE,QLD,4343,-27.5249043,152.249557,4,4,4,AcreageSemiRural,Acreage / Semi-Rural,True,1.29,ha,False
2017454794,listing,/18-falconer-street-gatton-qld-4343-2017454794,450000,is-sold,Sold by private treaty 14 Jan 2022,20220114,18 Falconer Street,GATTON,QLD,4343,-27.5662346,152.2862,4,4,4,House,House,False,891.0,m2,False
2017463205,listing,/246-gatton-esk-rd-lake-clarendon-qld-4343-2017463205,439000,is-sold,Sold by private treaty 10 Jan 2022,20220110,246 Gatton-Esk Rd,LAKE CLARENDON,QLD,4343,-27.5284348,152.3179,3,3,3,House,House,True,10000.0,m2,False
2017465916,listing,/22-red-gum-drive-gatton-qld-4343-2017465916,565000,is-sold,Sold by private treaty 25 Jan 2022,20220125,22 Red Gum Drive,GATTON,QLD,4343,-27.5889511,152.290634,4,4,4,House,House,False,3004.0,m2,False
2017508271,listing,/12-ford-street-gatton-qld-4343-2017508271,300000,is-sold,Sold by private treaty 10 Jan 2022,20220110,12 Ford Street,GATTON,QLD,4343,-27.5547161,152.284409,3,3,3,House,House,False,809.0,m2,False
2017517502,listing,/lot-101-fords-road-adare-qld-4343-2017517502,715000,is-sold,Sold by private treaty 12 Jan 2022,20220112,Lot 101 Fords Road,ADARE,QLD,4343,-27.5351582,152.277954,NaN,NaN,NaN,Rural,Rural,True,26.71,ha,False
2017538970,listing,/243-forestry-road-ringwood-qld-4343-2017538970,650000,is-sold,Sold by private treaty 20 Jan 2022,20220120,243 Forestry Road,RINGWOOD,QLD,4343,-27.509901,152.239044,NaN,NaN,NaN,AcreageSemiRural,Acreage / Semi-Rural,True,50.48,ha,False
2013624120,listing,/1-7-allan-street-gatton-qld-4343-2013624120,185000,is-sold,Sold by private treaty 16 Dec 2021,20211216,1/7 Allan Street,GATTON,QLD,4343,-27.5548725,152.281265,3,3,3,ApartmentUnitFlat,Apartment / Unit / Flat,False,116.0,m2,False
2016417141,listing,/6-36-smith-street-gatton-qld-4343-2016417141,208000,is-sold,Sold by private treaty 07 Dec 2021,20211207,6/36 Smith Street,GATTON,QLD,4343,-27.5657654,152.277771,4,4,4,ApartmentUnitFlat,Apartment / Unit / Flat,False,114.0,m2,False
2016818965,listing,/6-ironbark-road-gatton-qld-4343-2016818965,189000,is-sold,Sold by private treaty 12 Dec 2021,20211212,6 Ironbark Road,GATTON,QLD,4343,-27.5863972,152.29213,NaN,NaN,NaN,Rural,Rural,True,0.0,m2,False
2017071907,listing,/252-lefthand-branch-road-upper-tenthill-qld-4343-2017071907,773000,is-sold,Sold by private treaty 08 Dec 2021,20211208,252 Lefthand Branch Road,UPPER TENTHILL,QLD,4343,-27.75801,152.225266,4,4,4,Farm,Farm,True,21.74,ha,False
2017118191,listing,/53-robeck-road-gatton-qld-4343-2017118191,190000,is-sold,Sold by private treaty 07 Dec 2021,20211207,53 Robeck Road,GATTON,QLD,4343,-27.5917568,152.306625,NaN,NaN,NaN,VacantLand,Vacant land,False,20000.0,m2,False
2017271046,listing,/11-jubilee-street-gatton-qld-4343-2017271046,230000,is-sold,Sold by private treaty 20 Dec 2021,20211220,11 Jubilee Street,GATTON,QLD,4343,-27.555069,152.2866,3,3,3,House,House,False,809.0,m2,False
2017306397,listing,/7-skinner-street-gatton-qld-4343-2017306397,342500,is-sold,Sold by private treaty 07 Dec 2021,20211207,7 Skinner Street,GATTON,QLD,4343,-27.5514126,152.283173,4,4,4,House,House,False,688.0,m2,False
2017314434,listing,/24-fitzgerald-street-gatton-qld-4343-2017314434,365000,is-sold,Sold by private treaty 13 Dec 2021,20211213,24 Fitzgerald Street,GATTON,QLD,4343,-27.5634747,152.288849,3,3,3,House,House,False,800.0,m2,False
2017326253,listing,/13-falconer-street-gatton-qld-4343-2017326253,325000,is-sold,Sold by private treaty 04 Dec 2021,20211204,13 Falconer Street,GATTON,QLD,4343,-27.56575,152.2858,3,3,3,House,House,False,800.0,m2,False
2017326297,listing,/66-redbank-creek-road-adare-qld-4343-2017326297,465000,is-sold,Sold by private treaty 03 Dec 2021,20211203,66 Redbank Creek Road,ADARE,QLD,4343,-27.53656,152.29155,4,4,4,House,House,True,1.52,ha,False
2017373131,listing,/9-kurrajong-road-gatton-qld-4343-2017373131,545000,is-sold,Sold by private treaty 10 Dec 2021,20211210,9 Kurrajong Road,GATTON,QLD,4343,-27.5844536,152.268417,4,4,4,House,House,False,3837.0,m2,False
2017386324,listing,/15-cleary-street-gatton-qld-4343-2017386324,270000,is-sold,Sold by private treaty 16 Dec 2021,20211216,15 Cleary Street,GATTON,QLD,4343,-27.5682659,152.274734,3,3,3,House,House,False,574.0,m2,False
2017390584,listing,/15-woodside-drive-gatton-qld-4343-2017390584,600000,is-sold,Sold by private treaty 16 Dec 2021,20211216,15 Woodside Drive,GATTON,QLD,4343,-27.58532,152.273041,4,4,4,House,House,False,902.0,m2,False
2017397581,listing,/5-gassman-street-gatton-qld-4343-2017397581,380000,is-sold,Sold by private treaty 22 Dec 2021,20211222,5 Gassman Street,GATTON,QLD,4343,-27.5724087,152.279816,3,3,3,House,House,False,882.0,m2,False
2017409091,listing,/32-jensen-street-gatton-qld-4343-2017409091,360000,is-sold,Sold by private treaty 10 Dec 2021,20211210,32 Jensen Street,GATTON,QLD,4343,-27.56482,152.279816,3,3,3,House,House,False,700.0,m2,False
2017434778,listing,/81-william-street-gatton-qld-4343-2017434778,285000,is-sold,Sold by private treaty 07 Dec 2021,20211207,81 William Street,GATTON,QLD,4343,-27.564291,152.276978,4,4,4,House,House,False,1012.0,m2,False
2017463716,listing,/12-woodside-drive-gatton-qld-4343-2017463716,385000,is-sold,Sold by private treaty 16 Dec 2021,20211216,12 Woodside Drive,GATTON,QLD,4343,-27.5859718,152.272049,3,3,3,House,House,False,820.0,m2,False
2017468207,listing,/11-bauer-street-gatton-qld-4343-2017468207,580000,is-sold,Sold by private treaty 12 Dec 2021,20211212,11 Bauer Street,GATTON,QLD,4343,-27.5683,152.283844,4,4,4,House,House,False,823.0,m2,False
2017470259,listing,/20-dwyer-street-gatton-qld-4343-2017470259,360000,is-sold,Sold by private treaty 15 Dec 2021,20211215,20 Dwyer Street,GATTON,QLD,4343,-27.5510769,152.284546,3,3,3,House,House,False,597.0,m2,False
2017478370,listing,/50-mckay-street-gatton-qld-4343-2017478370,360000,is-sold,Sold by private treaty 13 Dec 2021,20211213,50 McKay Street,GATTON,QLD,4343,-27.5675125,152.28743,3,3,3,House,House,False,800.0,m2,False
2016108265,listing,/34-propeller-place-gatton-qld-4343-2016108265,175000,is-sold,Sold by private treaty 22 Nov 2021,20211122,34 Propeller Place,GATTON,QLD,4343,-27.5885582,152.258759,NaN,NaN,NaN,VacantLand,Vacant land,False,2643.0,m2,False
2016993672,listing,/193-millers-rd-adare-qld-4343-2016993672,1400000,is-sold,Sold by private treaty 17 Nov 2021,20211117,193 Millers Rd,ADARE,QLD,4343,-27.4823914,152.326736,5,5,5,Rural,Rural,True,56.66,ha,False
2017031627,listing,/69-old-college-road-gatton-qld-4343-2017031627,212500,is-sold,Sold by private treaty 26 Nov 2021,20211126,69 Old College Road,GATTON,QLD,4343,-27.5537148,152.285049,3,3,3,House,House,False,799.0,m2,False
2017040136,listing,/2-4-kilmister-court-gatton-qld-4343-2017040136,280000,is-sold,Sold by private treaty 01 Dec 2021,20211201,2/4 Kilmister Court,GATTON,QLD,4343,-27.5692043,152.286987,3,3,3,ApartmentUnitFlat,Apartment / Unit / Flat,False,741.0,m2,False
2017041930,listing,/black-duck-creek-qld-4343-2017041930,655000,is-sold,Sold by private treaty 03 Dec 2021,20211203,NaN,BLACK DUCK CREEK,QLD,4343,-27.8484344,152.1873,NaN,NaN,NaN,VacantLand,Vacant land,True,408.73,ha,False
2017153981,listing,/4-maragon-court-lake-clarendon-qld-4343-2017153981,705000,is-sold,Sold by private treaty 26 Nov 2021,20211126,4 Maragon Court,LAKE CLARENDON,QLD,4343,-27.522028,152.357956,6,6,6,House,House,False,3608.0,m2,False
2017198376,listing,/35-east-street-gatton-qld-4343-2017198376,275000,is-sold,Sold by private treaty 25 Nov 2021,20211125,35 East Street,GATTON,QLD,4343,-27.5570984,152.274048,2,2,2,House,House,False,764.0,m2,False
2017201197,listing,/gatton-qld-4343-2017201197,Price Withheld,is-sold,Sold by private treaty 20 Nov 2021,20211120,NaN,GATTON,QLD,4343,-27.5618134,152.273117,3,3,3,House,House,False,1452.0,m2,False
2017236527,listing,/21-murry-street-gatton-qld-4343-2017236527,405000,is-sold,Sold by private treaty 22 Nov 2021,20211122,21 Murry Street,GATTON,QLD,4343,-27.5512447,152.280228,3,3,3,House,House,False,809.0,m2,False
2017253859,listing,/369-lefthand-branch-road-lefthand-branch-qld-4343-2017253859,1000000,is-sold,Sold by private treaty 19 Nov 2021,20211119,369 Lefthand Branch Road,LEFTHAND BRANCH,QLD,4343,-27.7477112,152.24559,5,5,5,Rural,Rural,True,39.14,ha,False
2017254406,listing,/186-forestry-rd-adare-qld-4343-2017254406,625000,is-sold,Sold by private treaty 22 Nov 2021,20211122,186 Forestry Rd,ADARE,QLD,4343,-27.5187969,152.251358,2,2,2,House,House,True,47.04,ha,False
2017267374,listing,/780-woodlands-road-gatton-qld-4343-2017267374,1250000,is-sold,Sold by private treaty 19 Nov 2021,20211119,780 Woodlands Road,GATTON,QLD,4343,-27.6203117,152.286545,5,5,5,Rural,Rural,True,64.75,ha,False
2017289996,listing,/22-fitzroy-street-gatton-qld-4343-2017289996,390000,is-sold,Sold by private treaty 24 Nov 2021,20211124,22 Fitzroy Street,GATTON,QLD,4343,-27.5555649,152.268,5,5,5,Rural,Rural,True,668.0,m2,False
2017332228,listing,/7-jordan-street-gatton-qld-4343-2017332228,240000,is-sold,Sold by private treaty 23 Nov 2021,20211123,7 Jordan Street,GATTON,QLD,4343,-27.5502472,152.280975,3,3,3,House,House,False,810.0,m2,False
2017332383,listing,/9-ford-street-gatton-qld-4343-2017332383,290000,is-sold,Sold by private treaty 30 Nov 2021,20211130,9 Ford Street,GATTON,QLD,4343,-27.5551128,152.2839,2,2,2,House,House,False,812.0,m2,False
2017339639,listing,/5-hemdon-street-gatton-qld-4343-2017339639,390000,is-sold,Sold by private treaty 22 Nov 2021,20211122,5 Hemdon Street,GATTON,QLD,4343,-27.5714817,152.279037,4,4,4,House,House,False,1263.0,m2,False
2017352359,listing,/19-whittle-street-gatton-qld-4343-2017352359,360000,is-sold,Sold by private treaty 01 Dec 2021,20211201,19 Whittle Street,GATTON,QLD,4343,-27.56333,152.27565,4,4,4,House,House,False,1012.0,m2,False
2017352423,listing,/18-woodside-drive-gatton-qld-4343-2017352423,500000,is-sold,Sold by private treaty 26 Nov 2021,20211126,18 Woodside Drive,GATTON,QLD,4343,-27.5855656,152.274734,4,4,4,House,House,False,820.0,m2,False
2017385431,listing,/32-huntingdale-crescent-placid-hills-qld-4343-2017385431,610000,is-sold,Sold by private treaty 19 Nov 2021,20211119,32 Huntingdale Crescent,PLACID HILLS,QLD,4343,-27.5586014,152.227371,4,4,4,House,House,True,2.0,ha,False
2017392953,listing,/26-kelly-road-spring-creek-qld-4343-2017392953,Price Withheld,is-sold,Sold by private treaty 03 Dec 2021,20211203,26 Kelly Road,SPRING CREEK,QLD,4343,-27.46379,152.361725,NaN,NaN,2.0,VacantLand,Vacant land,True,17.71,ha,False
2014105896,listing,/21-waratah-drive-morton-vale-qld-4343-2014105896,130000,is-sold,Sold by private treaty 08 Nov 2021,20211108,21 Waratah Drive,MORTON VALE,QLD,4343,-27.4725151,152.395554,NaN,NaN,NaN,VacantLand,Vacant land,False,10000.0,m2,False
2014204187,listing,/carmichael-drive-adare-qld-4343-2014204187,Price Withheld,is-sold,Sold by private treaty 30 Oct 2021,20211030,Carmichael Drive,ADARE,QLD,4343,-27.5225487,152.258377,NaN,NaN,NaN,DevelopmentSite,Development Site,True,33.26,ha,False
2016161813,listing,/6-moran-street-gatton-qld-4343-2016161813,499000,is-sold,Sold by private treaty 02 Nov 2021,20211102,6 Moran Street,GATTON,QLD,4343,-27.5799942,152.276474,5,5,5,Rural,Rural,True,2.02,ha,False
2016163412,listing,/153a-railway-st-gatton-qld-4343-2016163412,56000,is-sold,Sold by private treaty 11 Nov 2021,20211111,153a Railway St,GATTON,QLD,4343,-27.5665531,152.271912,NaN,NaN,NaN,VacantLand,Vacant land,False,938.0,m2,False
2017182872,listing,/27-crestview-avenue-gatton-qld-4343-2017182872,338500,is-sold,Sold by private treaty 04 Nov 2021,20211104,27 Crestview Avenue,GATTON,QLD,4343,-27.5734062,152.279358,3,3,3,House,House,False,630.0,m2,False
2017189711,listing,/27-allan-street-gatton-qld-4343-2017189711,269000,is-sold,Sold by private treaty 01 Nov 2021,20211101,27 Allan Street,GATTON,QLD,4343,-27.55195,152.281738,3,3,3,House,House,False,817.0,m2,False
2017195755,listing,/2-redbank-creek-road-adare-qld-4343-2017195755,470000,is-sold,Sold by private treaty 29 Oct 2021,20211029,2 Redbank Creek Road,ADARE,QLD,4343,-27.5355682,152.285187,5,5,5,House,House,True,1.13,ha,False
2017198440,listing,/58-forestry-road-adare-qld-4343-2017198440,438000,is-sold,Sold by private treaty 01 Nov 2021,20211101,58 Forestry Road,ADARE,QLD,4343,-27.531292,152.2485,4,4,4,House,House,False,8000.0,m2,False
2017232445,listing,/22-crestview-avenue-gatton-qld-4343-2017232445,420000,is-sold,Sold by private treaty 15 Nov 2021,20211115,22 Crestview Avenue,GATTON,QLD,4343,-27.57381,152.278931,4,4,4,House,House,False,852.0,m2,False
2017300393,listing,/8-brolga-way-adare-qld-4343-2017300393,580000,is-sold,Sold by private treaty 01 Nov 2021,20211101,8 Brolga Way,ADARE,QLD,4343,-27.4970512,152.324127,4,4,4,AcreageSemiRural,Acreage / Semi-Rural,True,1.59,ha,False
2017302209,listing,/54-rangeview-dr-gatton-qld-4343-2017302209,600000,is-sold,Sold by private treaty 02 Nov 2021,20211102,54 Rangeview Dr,GATTON,QLD,4343,-27.5804386,152.2804,4,4,4,House,House,False,4818.0,m2,False
2017318685,listing,/10-banksia-court-morton-vale-qld-4343-2017318685,640000,is-sold,Sold by private treaty 10 Nov 2021,20211110,10 Banksia Court,MORTON VALE,QLD,4343,-27.468174,152.39772,4,4,4,AcreageSemiRural,Acreage / Semi-Rural,True,10000.0,m2,False
2017323213,listing,/65-rangeview-drive-gatton-qld-4343-2017323213,Price Withheld,is-sold,Sold by private treaty 08 Nov 2021,20211108,65 Rangeview Drive,GATTON,QLD,4343,-27.5792618,152.27916,4,4,4,House,House,False,2200.0,m2,False
2017368585,listing,/45-karina-street-placid-hills-qld-4343-2017368585,Price Withheld,is-sold,Sold by private treaty 17 Nov 2021,20211117,45 Karina Street,PLACID HILLS,QLD,4343,-27.5580425,152.21405,2,2,2,AcreageSemiRural,Acreage / Semi-Rural,True,1.92,ha,False
2017369352,listing,/5-andrews-drive-gatton-qld-4343-2017369352,460000,is-sold,Sold by private treaty 09 Nov 2021,20211109,5 Andrews Drive,GATTON,QLD,4343,-27.5698528,152.285965,4,4,4,Rural,Rural,True,758.0,m2,False
2017374599,listing,/23-olm-road-ropeley-qld-4343-2017374599,500000,is-sold,Sold by private treaty 17 Nov 2021,20211117,23 Olm Road,ROPELEY,QLD,4343,-27.6735573,152.261337,3,3,3,House,House,True,10000.0,m2,False
2017409639,listing,/109-olive-grove-drive-adare-qld-4343-2017409639,550000,is-sold,Sold by private treaty 13 Nov 2021,20211113,109 Olive Grove Drive,ADARE,QLD,4343,-27.5131035,152.31488,4,4,4,House,House,True,1.63,ha,False
2017412540,listing,/45-cochrane-street-gatton-qld-4343-2017412540,270000,is-sold,Sold by private treaty 15 Nov 2021,20211115,45 Cochrane Street,GATTON,QLD,4343,-27.56,152.271942,3,3,3,Rural,Rural,True,1012.0,m2,False
2017454379,listing,/90-brigalow-street-placid-hills-qld-4343-2017454379,485000,is-sold,Sold by private treaty 15 Nov 2021,20211115,90 Brigalow Street,PLACID HILLS,QLD,4343,-27.5569477,152.222046,3,3,3,AcreageSemiRural,Acreage / Semi-Rural,True,2.04,ha,False
2017536996,listing,/27-crestview-avenue-gatton-qld-4343-2017536996,338500,is-sold,Sold by private treaty 04 Nov 2021,20211104,27 Crestview Avenue,GATTON,QLD,4343,-27.5734062,152.279358,3,3,3,House,House,False,630.0,m2,False
2015857009,listing,/3-28-davis-crescent-gatton-qld-4343-2015857009,Price Withheld,is-sold,Sold by private treaty 20 Oct 2021,20211020,3/28 Davis Crescent,GATTON,QLD,4343,-27.5710449,152.285721,4,4,4,ApartmentUnitFlat,Apartment / Unit / Flat,False,145.0,m2,False
2015934934,listing,/1-lowe-street-gatton-qld-4343-2015934934,320000,is-sold,Sold by private treaty 21 Oct 2021,20211021,1 Lowe Street,GATTON,QLD,4343,-27.55661,152.272766,3,3,3,House,House,False,900.0,m2,False
2016842344,listing,/7-carmichael-drive-adare-qld-4343-2016842344,420000,is-sold,Sold by private treaty 25 Oct 2021,20211025,7 Carmichael Drive,ADARE,QLD,4343,-27.523344,152.257843,4,4,4,House,House,False,8480.0,m2,False
2017025267,listing,/5b-cardinal-close-gatton-qld-4343-2017025267,260000,is-sold,Sold by private treaty 18 Oct 2021,20211018,5B Cardinal Close,GATTON,QLD,4343,-27.5645,152.289749,3,3,3,ApartmentUnitFlat,Apartment / Unit / Flat,False,177.0,m2,False
2017107207,listing,/6-myler-court-gatton-qld-4343-2017107207,340000,is-sold,Sold by private treaty 21 Oct 2021,20211021,6 Myler Court,GATTON,QLD,4343,-27.5625267,152.2729,3,3,3,House,House,False,600.0,m2,False
2017107348,listing,/55-whittle-street-gatton-qld-4343-2017107348,259000,is-sold,Sold by private treaty 24 Oct 2021,20211024,55 Whittle Street,GATTON,QLD,4343,-27.5667839,152.27446,3,3,3,Rural,Rural,True,688.0,m2,False
2017150332,listing,/51-highview-avenue-gatton-qld-4343-2017150332,340000,is-sold,Sold by private treaty 21 Oct 2021,20211021,51 Highview Avenue,GATTON,QLD,4343,-27.5696163,152.281921,4,4,4,House,House,False,876.0,m2,False
2017190909,listing,/51-propeller-place-gatton-qld-4343-2017190909,250000,is-sold,Sold by private treaty 19 Oct 2021,20211019,51 Propeller Place,GATTON,QLD,4343,-27.5885582,152.258759,NaN,NaN,NaN,VacantLand,Vacant land,False,2728.0,m2,False
2017200331,listing,/6-wilson-street-gatton-qld-4343-2017200331,335000,is-sold,Sold by private treaty 27 Oct 2021,20211027,6 Wilson Street,GATTON,QLD,4343,-27.56671,152.286057,4,4,4,House,House,False,1050.0,m2,False
2017213789,listing,/155-railway-street-gatton-qld-4343-2017213789,260000,is-sold,Sold by private treaty 14 Oct 2021,20211014,155 Railway Street,GATTON,QLD,4343,-27.5668011,152.2718,3,3,3,House,House,False,2016.0,m2,False
2017218759,listing,/6-falconer-street-gatton-qld-4343-2017218759,255000,is-sold,Sold by private treaty 13 Oct 2021,20211013,6 Falconer Street,GATTON,QLD,4343,-27.5661259,152.284912,3,3,3,House,House,False,825.0,m2,False
2017232505,listing,/81-tillack-road-gatton-qld-4343-2017232505,495000,is-sold,Sold by private treaty 27 Oct 2021,20211027,81 Tillack Road,GATTON,QLD,4343,-27.5882874,152.304382,4,4,4,Rural,Rural,True,2.02,ha,False
2017245869,listing,/50-rogers-drive-gatton-qld-4343-2017245869,355000,is-sold,Sold by private treaty 20 Oct 2021,20211020,50 Rogers Drive,GATTON,QLD,4343,-27.56825,152.2889,4,4,4,House,House,False,727.0,m2,False
2017259791,listing,/fordsdale-qld-4343-2017259791,Price Withheld,is-sold,Sold by private treaty 19 Oct 2021,20211019,NaN,FORDSDALE,QLD,4343,-27.7295818,152.112244,NaN,NaN,NaN,VacantLand,Vacant land,True,741.65,ha,False
2017270157,listing,/21-kelly-road-spring-creek-qld-4343-2017270157,639000,is-sold,Sold by private treaty 26 Oct 2021,20211026,21 Kelly Road,SPRING CREEK,QLD,4343,-27.4608917,152.352966,3,3,3,Rural,Rural,True,4.0,ha,False
2017270726,listing,/31-hill-street-gatton-qld-4343-2017270726,269000,is-sold,Sold by private treaty 22 Oct 2021,20211022,31 Hill Street,GATTON,QLD,4343,-27.5693741,152.275131,3,3,3,House,House,False,683.0,m2,False
2017309036,listing,/lot-84-wallers-road-ringwood-qld-4343-2017309036,390000,is-sold,Sold by private treaty 25 Oct 2021,20211025,Lot 84 Wallers Road,RINGWOOD,QLD,4343,-27.51703,152.230148,NaN,NaN,2.0,VacantLand,Vacant land,True,50.3,ha,False
2017335605,listing,/16-yates-street-gatton-qld-4343-2017335605,339000,is-sold,Sold by private treaty 20 Oct 2021,20211020,16 Yates Street,GATTON,QLD,4343,-27.5615673,152.282349,3,3,3,Rural,Rural,True,675.0,m2,False
2017347924,listing,/35-maitland-street-gatton-qld-4343-2017347924,390000,is-sold,Sold by private treaty 13 Oct 2021,20211013,35 Maitland Street,GATTON,QLD,4343,-27.558651,152.270981,4,4,4,House,House,False,637.0,m2,False
2017354502,listing,/348-old-toowoomba-road-placid-hills-qld-4343-2017354502,450000,is-sold,Sold by private treaty 29 Oct 2021,20211029,348 OLD TOOWOOMBA ROAD,PLACID HILLS,QLD,4343,-27.5555248,152.2467,4,4,4,House,House,False,3000.0,m2,False
2014769020,listing,/5-ford-street-gatton-qld-4343-2014769020,245000,is-sold,Sold by private treaty 29 Sep 2021,20210929,5 Ford Street,GATTON,QLD,4343,-27.5554581,152.283752,3,3,3,House,House,False,812.0,m2,False
2015540769,listing,/4-wilson-street-gatton-qld-4343-2015540769,Price Withheld,is-sold,Sold by private treaty 23 Sep 2021,20210923,4 Wilson Street,GATTON,QLD,4343,-27.566515,152.2862,6,6,6,SemiDetached,Semi-Detached,False,1072.0,m2,False
2015852607,listing,/44-old-college-road-gatton-qld-4343-2015852607,260000,is-sold,Sold by private treaty 24 Sep 2021,20210924,44 Old College Road,GATTON,QLD,4343,-27.5537643,152.281891,5,5,5,House,House,False,832.0,m2,False
2016735665,listing,/jacana-dr-adare-qld-4343-2016735665,720000,is-sold,Sold by private treaty 27 Sep 2021,20210927,Jacana Dr,ADARE,QLD,4343,-27.50142,152.320969,4,4,4,House,House,True,1.93,ha,False
2016896736,listing,/130-goltz-road-black-duck-creek-qld-4343-2016896736,760000,is-sold,Sold by private treaty 01 Oct 2021,20211001,130 Goltz Road,BLACK DUCK CREEK,QLD,4343,-27.869112,152.173172,NaN,NaN,NaN,VacantLand,Vacant land,True,476.8,ha,False
2017068981,listing,/56-golf-links-drive-gatton-qld-4343-2017068981,355000,is-sold,Sold by private treaty 01 Oct 2021,20211001,56 Golf Links Drive,GATTON,QLD,4343,-27.5608463,152.289764,3,3,3,House,House,False,768.0,m2,False
2017084173,listing,/129-woodlands-gatton-qld-4343-2017084173,245000,is-sold,Sold by private treaty 27 Sep 2021,20210927,129 Woodlands,GATTON,QLD,4343,-27.5718575,152.282242,1,1,1,House,House,False,748.0,m2,False
2017088225,listing,/17-raymont-crescent-gatton-qld-4343-2017088225,360000,is-sold,Sold by private treaty 27 Sep 2021,20210927,17 Raymont Crescent,GATTON,QLD,4343,-27.5655231,152.290131,4,4,4,Rural,Rural,True,750.0,m2,False
2017100635,listing,/145-edwards-road-gatton-qld-4343-2017100635,275000,is-sold,Sold by private treaty 06 Oct 2021,20211006,145 Edwards Road,GATTON,QLD,4343,-27.5934162,152.29747,NaN,NaN,NaN,VacantLand,Vacant land,True,2.19,ha,False
2017100982,listing,/45-placid-drive-gatton-qld-4343-2017100982,488000,is-sold,Sold by private treaty 08 Oct 2021,20211008,45 Placid Drive,GATTON,QLD,4343,-27.554781,152.238708,4,4,4,House,House,False,1801.0,m2,False
2017124646,listing,/15-kurrajong-road-gatton-qld-4343-2017124646,460000,is-sold,Sold by private treaty 27 Sep 2021,20210927,15 Kurrajong Road,GATTON,QLD,4343,-27.5854645,152.2692,4,4,4,House,House,False,3000.0,m2,False
2017132705,listing,/1-8-east-street-gatton-qld-4343-2017132705,210000,is-sold,Sold by private treaty 20 Sep 2021,20210920,1/8 East Street,GATTON,QLD,4343,-27.5545712,152.2756,3,3,3,House,House,False,229.0,m2,False
2017137365,listing,/127-brigalow-street-placid-hills-qld-4343-2017137365,628000,is-sold,Sold by private treaty 13 Oct 2021,20211013,127 Brigalow Street,PLACID HILLS,QLD,4343,-27.5529251,152.219955,4,4,4,House,House,True,4.66,ha,False
2017141667,listing,/3-kilmister-court-gatton-qld-4343-2017141667,369000,is-sold,Sold by private treaty 23 Sep 2021,20210923,3 Kilmister Court,GATTON,QLD,4343,-27.5695438,152.286652,4,4,4,House,House,False,690.0,m2,False
2017141840,listing,/4-mcneil-street-gatton-qld-4343-2017141840,469000,is-sold,Sold by private treaty 21 Sep 2021,20210921,4 McNeil Street,GATTON,QLD,4343,-27.5670013,152.285492,4,4,4,House,House,False,717.0,m2,False
2017176568,listing,/3-avil-court-gatton-qld-4343-2017176568,435000,is-sold,Sold by private treaty 01 Oct 2021,20211001,3 Avil Court,GATTON,QLD,4343,-27.5672016,152.286377,4,4,4,House,House,False,1072.0,m2,False
2017194097,listing,/5-banksia-road-gatton-qld-4343-2017194097,680000,is-sold,Sold by private treaty 24 Sep 2021,20210924,5 Banksia Road,GATTON,QLD,4343,-27.5804787,152.273636,5,5,5,House,House,False,3070.0,m2,False
2017245347,listing,/328-fords-road-adare-qld-4343-2017245347,900000,is-sold,Sold by private treaty 08 Oct 2021,20211008,328 Fords Road,ADARE,QLD,4343,-27.5354919,152.252289,4,4,4,AcreageSemiRural,Acreage / Semi-Rural,True,37.86,ha,False
2017248572,listing,/113-osts-road-mount-sylvia-qld-4343-2017248572,390000,is-sold,Sold by private treaty 28 Sep 2021,20210928,113 Osts Road,MOUNT SYLVIA,QLD,4343,-27.7299042,152.210556,NaN,NaN,5.0,VacantLand,Vacant land,True,64.75,ha,False
2017301791,listing,/32-woodlands-road-gatton-qld-4343-2017301791,545000,is-sold,Sold by private treaty 12 Oct 2021,20211012,32 Woodlands Road,GATTON,QLD,4343,-27.5616112,152.284256,5,5,5,House,House,False,877.0,m2,False
2014022706,listing,/35-mckay-street-gatton-qld-4343-2014022706,331000,is-sold,Sold by private treaty 20 Sep 2021,20210920,35 McKay Street,GATTON,QLD,4343,-27.5669861,152.287338,5,5,5,House,House,False,949.0,m2,False
2016347040,listing,/1-31-princess-street-gatton-qld-4343-2016347040,187000,is-sold,Sold by private treaty 10 Sep 2021,20210910,1/31 Princess Street,GATTON,QLD,4343,-27.5496273,152.283447,2,2,2,ApartmentUnitFlat,Apartment / Unit / Flat,False,89.0,m2,False
2016364323,listing,/22-mountain-view-drive-adare-qld-4343-2016364323,185000,is-sold,Sold by private treaty 13 Sep 2021,20210913,22 Mountain View Drive,ADARE,QLD,4343,-27.5378876,152.300858,NaN,1.0,NaN,VacantLand,Vacant land,True,2.56,ha,False
2016552503,listing,/3-2-gaul-street-gatton-qld-4343-2016552503,185000,is-sold,Sold by private treaty 16 Sep 2021,20210916,3/2 Gaul Street,GATTON,QLD,4343,-27.55513,152.280685,2,2,2,ApartmentUnitFlat,Apartment / Unit / Flat,False,182.0,m2,False
2016900597,listing,/lot-9-beavan-street-gatton-qld-4343-2016900597,1500000,is-sold,Sold by private treaty 15 Sep 2021,20210915,Lot 9 Beavan Street,GATTON,QLD,4343,-27.5519371,152.27803,NaN,NaN,NaN,VacantLand,Vacant land,True,2.33,ha,False
2016969584,listing,/1-allan-street-gatton-qld-4343-2016969584,187000,is-sold,Sold by private treaty 17 Sep 2021,20210917,1 Allan Street,GATTON,QLD,4343,-27.5555,152.281189,2,2,2,House,House,False,612.0,m2,False
2017006574,listing,/l200-zischkes-rd-ingoldsby-qld-4343-2017006574,380000,is-sold,Sold by private treaty 08 Sep 2021,20210908,L200 Zischkes Rd,INGOLDSBY,QLD,4343,-27.6909828,152.241074,NaN,NaN,NaN,VacantLand,Vacant land,True,55.24,ha,False
2017022537,listing,/21-mckay-street-gatton-qld-4343-2017022537,285000,is-sold,Sold by private treaty 10 Sep 2021,20210910,21 McKay Street,GATTON,QLD,4343,-27.5683537,152.285461,5,5,5,House,House,False,1072.0,m2,False
2017033812,listing,/lot-112-ropeley-rockside-road-rockside-qld-4343-2017033812,350000,is-sold,Sold by private treaty 02 Sep 2021,20210902,Lot 112 Ropeley Rockside Road,ROCKSIDE,QLD,4343,-27.6976261,152.284592,NaN,NaN,3.0,VacantLand,Vacant land,True,64.01,ha,False
2017063326,listing,/27-ropehill-road-upper-tenthill-qld-4343-2017063326,575000,is-sold,Sold by private treaty 07 Sep 2021,20210907,27 Ropehill Road,UPPER TENTHILL,QLD,4343,-27.6692924,152.218948,4,4,4,House,House,False,20234.0,m2,False
2017097173,listing,/5-hill-st-gatton-qld-4343-2017097173,270000,is-sold,Sold by private treaty 02 Sep 2021,20210902,5 Hill St,GATTON,QLD,4343,-27.5666561,152.275421,3,3,3,House,House,False,708.0,m2,False
2017141733,listing,/107-william-street-gatton-qld-4343-2017141733,355000,is-sold,Sold by private treaty 06 Sep 2021,20210906,107 William Street,GATTON,QLD,4343,-27.56747,152.276474,3,3,3,House,House,False,865.0,m2,False
2017153984,listing,/511-gatton-esk-road-adare-qld-4343-2017153984,630000,is-sold,Sold by private treaty 07 Sep 2021,20210907,511 gatton-esk road,ADARE,QLD,4343,-27.5080967,152.327118,4,4,4,Rural,Rural,True,4.0,ha,False
2017184160,listing,/14-smith-street-gatton-qld-4343-2017184160,230000,is-sold,Sold by private treaty 16 Sep 2021,20210916,14 Smith Street,GATTON,QLD,4343,-27.5647545,152.2756,4,4,4,House,House,False,665.0,m2,False
2017205504,listing,/8-o-brien-street-gatton-qld-4343-2017205504,260000,is-sold,Sold by private treaty 09 Sep 2021,20210909,8 O'Brien Street,GATTON,QLD,4343,-27.567152,152.2736,3,3,3,House,House,False,678.0,m2,False
2017205764,listing,/10-wilks-street-gatton-qld-4343-2017205764,200000,is-sold,Sold by private treaty 16 Sep 2021,20210916,10 Wilks Street,GATTON,QLD,4343,-27.5547466,152.285141,3,3,3,House,House,False,706.0,m2,False
2017243123,listing,/12-kurrajong-road-gatton-qld-4343-2017243123,600000,is-sold,Sold by private treaty 11 Sep 2021,20210911,12 Kurrajong Road,GATTON,QLD,4343,-27.584465,152.267685,4,4,4,House,House,False,3336.0,m2,False
2017248530,listing,/52-edwards-road-woodlands-qld-4343-2017248530,625000,is-sold,Sold by private treaty 15 Sep 2021,20210915,52 Edwards Road,WOODLANDS,QLD,4343,-27.5938683,152.2888,4,4,4,House,House,True,2.01,ha,False
2017250366,listing,/11-fitzpatrick-crt-lake-clarendon-qld-4343-2017250366,500000,is-sold,Sold by private treaty 15 Sep 2021,20210915,11 Fitzpatrick Crt,LAKE CLARENDON,QLD,4343,-27.5211239,152.321564,4,4,4,House,House,False,3597.0,m2,False
2017255259,listing,/6-jubilee-street-gatton-qld-4343-2017255259,236500,is-sold,Sold by private treaty 10 Sep 2021,20210910,6 Jubilee Street,GATTON,QLD,4343,-27.5553169,152.287033,NaN,NaN,NaN,VacantLand,Vacant land,False,0.0,m2,False
2013104910,listing,/gatton-qld-4343-2013104910,229000,is-sold,Sold by private treaty 10 Aug 2021,20210810,NaN,GATTON,QLD,4343,-27.56358,152.279984,2,2,2,House,House,False,0.0,m2,False
2015528389,listing,/7-79-woodlands-road-gatton-qld-4343-2015528389,205000,is-sold,Sold by private treaty 30 Aug 2021,20210830,7/79 Woodlands Road,GATTON,QLD,4343,-27.5665245,152.2831,3,3,3,ApartmentUnitFlat,Apartment / Unit / Flat,False,87.0,m2,False
2015618194,listing,/95-edwards-road-gatton-qld-4343-2015618194,725000,is-sold,Sold by private treaty 30 Aug 2021,20210830,95 Edwards Road,GATTON,QLD,4343,-27.5935879,152.294342,5,5,5,House,House,False,20000.0,m2,False
2016861884,listing,/62-13-kurrajong-road-gatton-qld-4343-2016861884,198000,is-sold,Sold by private treaty 13 Aug 2021,20210813,62/13 Kurrajong Road,GATTON,QLD,4343,-27.5851059,152.269058,NaN,NaN,NaN,VacantLand,Vacant land,False,3000.0,m2,False
2016954000,listing,/6-lyons-road-lake-clarendon-qld-4343-2016954000,1080000,is-sold,Sold at auction 23 Aug 2021,20210823,6 Lyons Road,LAKE CLARENDON,QLD,4343,-27.5263653,152.340454,6,6,6,Rural,Rural,True,48.7,ha,False
2016968190,listing,/114-redbank-creek-road-adare-qld-4343-2016968190,549000,is-sold,Sold by private treaty 31 Aug 2021,20210831,114 Redbank Creek Road,ADARE,QLD,4343,-27.53719,152.296631,5,5,5,Rural,Rural,True,2.43,ha,False
2017004879,listing,/fordsdale-qld-4343-2017004879,925000,is-sold,Sold by private treaty 30 Aug 2021,20210830,NaN,FORDSDALE,QLD,4343,-27.7295818,152.112244,3,3,3,Rural,Rural,True,0.0,m2,False
2017018078,listing,/137-woodlands-road-gatton-qld-4343-2017018078,265000,is-sold,Sold by private treaty 16 Aug 2021,20210816,137 Woodlands Road,GATTON,QLD,4343,-27.5726051,152.2823,3,3,3,House,House,False,748.0,m2,False
2017019166,listing,/22-rogers-drive-gatton-qld-4343-2017019166,415000,is-sold,Sold by private treaty 16 Aug 2021,20210816,22 Rogers Drive,GATTON,QLD,4343,-27.5703945,152.285736,5,5,5,House,House,False,880.0,m2,False
2017027386,listing,/28-spotted-gum-road-gatton-qld-4343-2017027386,395000,is-sold,Sold by private treaty 17 Aug 2021,20210817,28 Spotted Gum Road,GATTON,QLD,4343,-27.5846367,152.29155,4,4,4,House,House,False,3595.0,m2,False
2017041470,listing,/52-buaraba-street-gatton-qld-4343-2017041470,197500,is-sold,Sold by private treaty 14 Aug 2021,20210814,52 Buaraba Street,GATTON,QLD,4343,-27.5511284,152.286743,4,4,4,Rural,Rural,True,1000.0,m2,False
2017065623,listing,/2-34-rogers-drive-gatton-qld-4343-2017065623,265000,is-sold,Sold by private treaty 13 Aug 2021,20210813,2/34 Rogers Drive,GATTON,QLD,4343,-27.5693417,152.287216,3,3,3,Duplex,Duplex,False,497.0,m2,False
2017086542,listing,/9-hood-street-gatton-qld-4343-2017086542,265000,is-sold,Sold by private treaty 10 Aug 2021,20210810,9 Hood Street,GATTON,QLD,4343,-27.5605431,152.276611,4,4,4,AcreageSemiRural,Acreage / Semi-Rural,True,812.0,m2,False
2017098359,listing,/115-olive-grove-dr-adare-qld-4343-2017098359,585000,is-sold,Sold by private treaty 26 Aug 2021,20210826,115 Olive Grove Dr,ADARE,QLD,4343,-27.5126057,152.314331,5,5,5,House,House,True,1.37,ha,False
2017107259,listing,/8-metcalf-street-gatton-qld-4343-2017107259,377000,is-sold,Sold by private treaty 25 Aug 2021,20210825,8 Metcalf Street,GATTON,QLD,4343,-27.5739746,152.278076,4,4,4,House,House,False,710.0,m2,False
2017166338,listing,/3-boysen-court-adare-qld-4343-2017166338,130000,is-sold,Sold by private treaty 16 Aug 2021,20210816,3 Boysen Court,ADARE,QLD,4343,-27.534399,152.3052,NaN,NaN,NaN,Rural,Rural,True,4385.0,m2,False
2017167698,listing,/51-hunter-street-gatton-qld-4343-2017167698,275000,is-sold,Sold by private treaty 18 Aug 2021,20210818,51 Hunter Street,GATTON,QLD,4343,-27.5693531,152.279724,3,3,3,House,House,False,792.0,m2,False
2017170087,listing,/7-bourke-street-adare-qld-4343-2017170087,420000,is-sold,Sold by private treaty 24 Aug 2021,20210824,7 Bourke Street,ADARE,QLD,4343,-27.53645,152.304565,4,4,4,House,House,False,4471.0,m2,False
2017217207,listing,/3-falconer-street-gatton-qld-4343-2017217207,364000,is-sold,Sold by private treaty 27 Aug 2021,20210827,3 Falconer Street,GATTON,QLD,4343,-27.5656,152.284821,3,3,3,Rural,Rural,True,0.0,m2,False
2017246215,listing,/26-red-gum-drive-gatton-qld-4343-2017246215,515000,is-sold,Sold by private treaty 01 Sep 2021,20210901,26 Red Gum Drive,GATTON,QLD,4343,-27.5888767,152.291763,4,4,4,House,House,False,3043.0,m2,False
2015392109,listing,/18-murry-street-gatton-qld-4343-2015392109,310000,is-sold,Sold by private treaty 22 Jul 2021,20210722,18 Murry Street,GATTON,QLD,4343,-27.5516586,152.28067,3,3,3,House,House,False,828.0,m2,False
2016108189,listing,/lot-60-propeller-place-gatton-qld-4343-2016108189,160000,is-sold,Sold by private treaty 30 Jul 2021,20210730,Lot 60 Propeller Place,GATTON,QLD,4343,-27.5901089,152.258209,NaN,NaN,NaN,VacantLand,Vacant land,False,2565.0,m2,False
