id,listingType,url,price,tagClassName,tagText,date,street,suburb,state,postcode,lat,lng,beds,baths,parking,propertyType,propertyTypeFormatted,isRural,landSize,landUnit,isRetirement
2017601476,listing,/lot-5-crescent-road-eumundi-qld-4562-2017601476,,is-sold,Sold by private treaty 22 Dec 2022,20221222,Lot 5 Crescent Road,EUMUNDI,QLD,4562,-26.4795837,152.951462,,,,VacantLand,Vacant land,False,1837.0,m2,False
2017775410,listing,/31-browns-road-belli-park-qld-4562-2017775410,1300000,is-sold,Sold by private treaty 25 Jan 2023,20230125,31 Browns Road,BELLI PARK,QLD,4562,-26.4976654,152.85643,4,4,4,House,House,True,4.25,ha,False
2017840613,listing,/32-trafalgar-ct-doonan-qld-4562-2017840613,,is-sold,Sold by private treaty 01 Dec 2022,20221201,32 Trafalgar Ct,DOONAN,QLD,4562,-26.4377537,152.99675,4,4,4,House,House,False,5453.0,m2,False
2018001056,listing,/27-foxtail-rise-doonan-qld-4562-2018001056,2815000,is-sold,Sold by private treaty 01 Jan 2023,20230101,27 Foxtail Rise,DOONAN,QLD,4562,-26.4292164,153.007629,4,4,4,House,House,False,9510.0,m2,False
2018005204,listing,/17-viv-hull-avenue-eumundi-qld-4562-2018005204,1410000,is-sold,Sold by private treaty 02 Dec 2022,20221202,17 Viv Hull Avenue,EUMUNDI,QLD,4562,-26.4737053,152.945938,6,6,6,House,House,False,703.0,m2,False
2018051619,listing,/16-bond-court-doonan-qld-4562-2018051619,,is-sold,Sold by private treaty 12 Jan 2023,20230112,16 Bond Court,DOONAN,QLD,4562,-26.4348183,152.992157,4,4,4,House,House,False,9475.0,m2,False
2018058942,listing,/1121-eumundi-kenilworth-road-belli-park-qld-4562-2018058942,,is-sold,Sold by private treaty 01 Feb 2023,20230201,1121 Eumundi Kenilworth Road,BELLI PARK,QLD,4562,-26.5071659,152.84967,4,4,4,Farm,Farm,True,31.82,ha,False
2018062067,listing,/218-duke-rd-doonan-qld-4562-2018062067,1550000,is-sold,Sold by private treaty 01 Dec 2022,20221201,218 Duke Rd,DOONAN,QLD,4562,-26.44982,152.990585,4,4,4,House,House,False,4621.0,m2,False
2018064206,listing,/71-119-boyle-road-belli-park-qld-4562-2018064206,872000,is-sold,Sold by private treaty 19 Dec 2022,20221219,71-119 Boyle Road,BELLI PARK,QLD,4562,-26.52455,152.777832,5,5,5,House,House,True,33.23,ha,False
2018106878,listing,/88-seib-road-eumundi-qld-4562-2018106878,960000,is-sold,Sold by private treaty 10 Feb 2023,20230210,88 Seib Road,EUMUNDI,QLD,4562,-26.4815731,152.96405,3,3,3,House,House,False,2023.0,m2,False
2018151308,listing,/1394-eumundi-noosa-road-eumundi-qld-4562-2018151308,1700000,is-sold,Sold by private treaty 07 Dec 2022,20221207,1394 Eumundi Noosa Road,EUMUNDI,QLD,4562,-26.4714355,152.964554,4,4,4,House,House,False,7646.0,m2,False
2018167104,listing,/161-duke-rd-doonan-qld-4562-2018167104,,is-sold,Sold by private treaty 01 Feb 2023,20230201,161 Duke Rd,DOONAN,QLD,4562,-26.4513969,152.995834,4,4,4,House,House,True,1.31,ha,False
2018177542,listing,/38-livistona-drive-doonan-qld-4562-2018177542,1700000,is-sold,Sold by private treaty 03 Dec 2022,20221203,38 Livistona Drive,DOONAN,QLD,4562,-26.4225883,153.016388,4,4,4,House,House,True,1.01,ha,False
2018187698,listing,/7-9-etheridge-street-eumundi-qld-4562-2018187698,670000,is-sold,Sold by private treaty 23 Feb 2023,20230223,7-9 Etheridge Street,EUMUNDI,QLD,4562,-26.47656,152.95018,,,,VacantLand,Vacant land,False,1273.0,m2,False
2018194615,listing,/38-40-charlotte-drive-weyba-downs-qld-4562-2018194615,2150000,is-sold,Sold by private treaty 17 Dec 2022,20221217,38-40 Charlotte Drive,WEYBA DOWNS,QLD,4562,-26.4444714,153.050613,4,4,4,House,House,False,5166.0,m2,False
2018196510,listing,/20-whipbird-place-doonan-qld-4562-2018196510,1480000,is-sold,Sold by private treaty 21 Dec 2022,20221221,20 Whipbird Place,DOONAN,QLD,4562,-26.4353924,153.008392,4,4,4,House,House,True,1.2,ha,False
2018198665,listing,/48-cedar-creek-road-belli-park-qld-4562-2018198665,1310000,is-sold,Sold by private treaty 03 Dec 2022,20221203,48 Cedar Creek Road,BELLI PARK,QLD,4562,-26.5152168,152.82341,3,3,3,House,House,False,0.0,m2,False
2018218977,listing,/7-booniah-court-eumundi-qld-4562-2018218977,920000,is-sold,Sold by private treaty 15 Feb 2023,20230215,7 Booniah Court,EUMUNDI,QLD,4562,-26.47264,152.946777,4,4,4,House,House,False,721.0,m2,False
2018231970,listing,/23-shields-court-eumundi-qld-4562-2018231970,2740000,is-sold,Sold by private treaty 07 Dec 2022,20221207,23 Shields Court,EUMUNDI,QLD,4562,-26.4562321,152.9668,4,4,4,House,House,False,6334.0,m2,False
2018321811,listing,/43-foxtail-rise-doonan-qld-4562-2018321811,1125000,is-sold,Sold by private treaty 23 Feb 2023,20230223,43 Foxtail Rise,DOONAN,QLD,4562,-26.4289284,153.005783,4,4,4,House,House,False,4085.0,m2,False
2018398737,listing,/70-eumundi-range-rd-eumundi-qld-4562-2018398737,3350000,is-sold,Sold by private treaty 06 Mar 2023,20230306,70 Eumundi Range Rd,EUMUNDI,QLD,4562,-26.4662323,152.956238,5,3,2,House,House,True,4.49,ha,False
2018166718,listing,/29-gees-road-eerwah-vale-qld-4562-2018166718,1150000,is-sold,Sold by private treaty 08 Mar 2023,20230308,29 Gees Road,EERWAH VALE,QLD,4562,-26.4956989,152.925125,4,2,3,House,House,False,3189,m2,False
2018262573,listing,/675-browns-creek-road-eerwah-vale-qld-4562-2018262573,1234567,is-sold,Sold by private treaty 10 Mar 2023,20230310,675 Browns Creek Road,EERWAH VALE,QLD,4562,-26.5040932,152.908569,4,2,6,House,House,True,1.16,ha,False
2017731771,listing,/185-beddington-road-doonan-qld-4562-2017731771,1950000,is-sold,Sold by private treaty 02 Nov 2022,20221102,185 Beddington Road,DOONAN,QLD,4562,-26.4378872,153.00705,4,3,4,House,House,False,4502,m2,False
2017733813,listing,/51-meadow-ct-doonan-qld-4562-2017733813,3000000,is-sold,Sold by private treaty 23 Nov 2022,20221123,51 Meadow Ct,DOONAN,QLD,4562,-26.4461288,153.001343,3,3,3,House,House,False,6215,m2,False
2017875686,listing,/10-brushbox-pl-eumundi-qld-4562-2017875686,1050000,is-sold,Sold by private treaty 07 Nov 2022,20221107,10 Brushbox Pl,EUMUNDI,QLD,4562,-26.4813519,152.947647,3,2,2,House,House,False,1206,m2,False
2017883095,listing,/1-lilly-pilly-rise-eumundi-qld-4562-2017883095,1652000,is-sold,Sold by private treaty 14 Nov 2022,20221114,1 Lilly Pilly Rise,EUMUNDI,QLD,4562,-26.45423,152.974411,4,3,6,House,House,False,6165,m2,False
2017923736,listing,/6-8-charlotte-drive-weyba-downs-qld-4562-2017923736,1550000,is-sold,Sold by private treaty 10 Nov 2022,20221110,6-8 Charlotte Drive,WEYBA DOWNS,QLD,4562,-26.4449825,153.0542,4,2,2,House,House,False,5168,m2,False
2018046649,listing,/10-avian-court-doonan-qld-4562-2018046649,1500000,is-sold,Sold by private treaty 11 Nov 2022,20221111,10 Avian Court,DOONAN,QLD,4562,-26.4335365,152.996109,5,2,8,House,House,False,4007,m2,False
2018073295,listing,/eerwah-vale-qld-4562-2018073295,960000,is-sold,Sold by private treaty 03 Nov 2022,20221103,,EERWAH VALE,QLD,4562,-26.4734631,152.892456,4,2,2,Rural,Rural,True,2,ha,False
2018079722,listing,/1127-eumundi-noosa-road-verrierdale-qld-4562-2018079722,735000,is-sold,Sold by private treaty 28 Oct 2022,20221028,1127 Eumundi Noosa Road,VERRIERDALE,QLD,4562,-26.4704552,152.98912,3,1,2,House,House,False,6788,m2,False
2018085104,listing,/111-main-camp-rd-eerwah-vale-qld-4562-2018085104,950000,is-sold,Sold by private treaty 18 Nov 2022,20221118,111 Main Camp Rd,EERWAH VALE,QLD,4562,-26.44956,152.93454,3,1,2,House,House,False,4030,m2,False
2018115890,listing,/11-william-road-eumundi-qld-4562-2018115890,960000,is-sold,Sold by private treaty 21 Nov 2022,20221121,11 William Road,EUMUNDI,QLD,4562,-26.4821949,152.950043,4,2,2,House,House,False,702,m2,False
2018117679,listing,/75-seib-rd-eumundi-qld-4562-2018117679,,is-sold,Sold by private treaty 15 Nov 2022,20221115,75 Seib Rd,EUMUNDI,QLD,4562,-26.4795589,152.964676,4,3,3,House,House,False,5665,m2,False
2018126761,listing,/563-eumundi-kenilworth-road-eerwah-vale-qld-4562-2018126761,900000,is-sold,Sold by private treaty 17 Nov 2022,20221117,563 Eumundi-Kenilworth Road,EERWAH VALE,QLD,4562,-26.4786549,152.885712,3,2,3,AcreageSemiRural,Acreage / Semi-Rural,True,7.59,ha,False
2018155715,listing,/118-lone-hand-road-eumundi-qld-4562-2018155715,1770000,is-sold,Sold by private treaty 28 Nov 2022,20221128,118 Lone Hand Road,EUMUNDI,QLD,4562,-26.4444332,152.950729,4,3,4,House,House,False,7071,m2,False
2018181839,listing,/9-clark-crescent-eumundi-qld-4562-2018181839,880000,is-sold,Sold by private treaty 19 Nov 2022,20221119,9 Clark Crescent,EUMUNDI,QLD,4562,-26.4721279,152.944473,4,2,2,House,House,False,700,m2,False
2018182298,listing,/80-wust-road-doonan-qld-4562-2018182298,1560000,is-sold,Sold by private treaty 19 Nov 2022,20221119,80 Wust Road,DOONAN,QLD,4562,-26.43988,152.994873,4,3,3,House,House,False,7931,m2,False
2018202376,listing,/276-beddington-rd-doonan-qld-4562-2018202376,2535000,is-sold,Sold by private treaty 21 Nov 2022,20221121,276 Beddington Rd,DOONAN,QLD,4562,-26.4306259,153.007446,4,3,12,House,House,False,6933,m2,False
2018222917,listing,/618-bunya-road-eumundi-qld-4562-2018222917,1200000,is-sold,Sold by private treaty 30 Nov 2022,20221130,618 Bunya Road,EUMUNDI,QLD,4562,-26.4919147,152.939926,4,2,2,House,House,False,10400,m2,False
2017032153,listing,/15-don-napier-road-eumundi-qld-4562-2017032153,1100000,is-sold,Sold by private treaty 27 Oct 2022,20221027,15 Don Napier Road,EUMUNDI,QLD,4562,-26.4807167,152.958374,,,,Rural,Rural,True,7.75,ha,False
2017562392,listing,/lot-2-70-crescent-road-eumundi-qld-4562-2017562392,,is-sold,Sold by private treaty 04 Oct 2022,20221004,Lot 2 70 Crescent Road,EUMUNDI,QLD,4562,-26.4783058,152.945343,,,,VacantLand,Vacant land,False,1845,m2,False
2017665135,listing,/1248-eumundi-kenilworth-rd-belli-park-qld-4562-2017665135,1284000,is-sold,Sold by private treaty 24 Oct 2022,20221024,1248 Eumundi Kenilworth Rd,BELLI PARK,QLD,4562,-26.5108929,152.8396,4,3,14,AcreageSemiRural,Acreage / Semi-Rural,True,1.98,ha,False
2017713083,listing,/136-duke-road-doonan-qld-4562-2017713083,1250000,is-sold,Sold by private treaty 05 Oct 2022,20221005,136 Duke Road,DOONAN,QLD,4562,-26.4542713,152.998047,3,2,3,House,House,False,37000,m2,False
2017821204,listing,/21-valley-dr-doonan-qld-4562-2017821204,3650000,is-sold,Sold by private treaty 15 Sep 2022,20220915,21 Valley Dr,DOONAN,QLD,4562,-26.4400425,152.9923,4,2,3,House,House,False,5659,m2,False
2017914265,listing,/39-marnie-crescent-doonan-qld-4562-2017914265,1296000,is-sold,Sold by private treaty 12 Oct 2022,20221012,39 Marnie Crescent,DOONAN,QLD,4562,-26.4548969,152.988754,5,2,4,House,House,True,1.62,ha,False
2017924498,listing,/776-browns-creek-road-eerwah-vale-qld-4562-2017924498,1120000,is-sold,Sold by private treaty 11 Oct 2022,20221011,776 Browns Creek Road,EERWAH VALE,QLD,4562,-26.4969673,152.908569,4,2,3,House,House,False,26304,m2,False
2017927810,listing,/63-valley-drive-doonan-qld-4562-2017927810,930000,is-sold,Sold by private treaty 12 Sep 2022,20220912,63 VALLEY DRIVE,DOONAN,QLD,4562,-26.440567,152.987137,4,2,2,House,House,False,4003,m2,False
2017930909,listing,/20-bowden-road-doonan-qld-4562-2017930909,2400000,is-sold,Sold at auction 28 Sep 2022,20220928,20 Bowden Road,DOONAN,QLD,4562,-26.46353,152.992935,7,3,5,House,House,False,7113,m2,False
2017933498,listing,/41-wattlebird-drive-doonan-qld-4562-2017933498,2450000,is-sold,Sold by private treaty 20 Sep 2022,20220920,41 Wattlebird Drive,DOONAN,QLD,4562,-26.4393578,153.009262,5,4,2,House,House,False,10100,m2,False
2017939009,listing,/61-nylana-way-doonan-qld-4562-2017939009,1650000,is-sold,Sold by private treaty 26 Sep 2022,20220926,61 Nylana Way,DOONAN,QLD,4562,-26.4287834,153.0034,3,2,2,House,House,False,4050,m2,False
2017944963,listing,/83b-seib-rd-eumundi-qld-4562-2017944963,1875000,is-sold,Sold by private treaty 27 Sep 2022,20220927,83B SEIB RD,EUMUNDI,QLD,4562,-26.4805317,152.967331,3,2,6,House,House,True,3.97,ha,False
2017951349,listing,/111-dahlia-rd-verrierdale-qld-4562-2017951349,1500000,is-sold,Sold by private treaty 14 Oct 2022,20221014,111 Dahlia Rd,VERRIERDALE,QLD,4562,-26.4899178,153.028976,4,3,7,House,House,False,5931,m2,False
2017988597,listing,/156-jocelyn-drive-eumundi-qld-4562-2017988597,1685000,is-sold,Sold by private treaty 17 Sep 2022,20220917,156 Jocelyn Drive,EUMUNDI,QLD,4562,-26.4607277,152.971436,4,3,4,House,House,False,6440,m2,False
2018015049,listing,/10-william-road-eumundi-qld-4562-2018015049,913000,is-sold,Sold by private treaty 10 Oct 2022,20221010,10 William Road,EUMUNDI,QLD,4562,-26.481699,152.950317,3,2,2,House,House,False,748,m2,False
2018039440,listing,/128-valley-drive-doonan-qld-4562-2018039440,1530000,is-sold,Sold by private treaty 19 Sep 2022,20220919,128 Valley Drive,DOONAN,QLD,4562,-26.44489,152.991348,4,2,3,AcreageSemiRural,Acreage / Semi-Rural,True,8504,m2,False
2018064144,listing,/396b-eumundi-range-road-eumundi-qld-4562-2018064144,2500000,is-sold,Sold 28 Sep 2022,20220928,396B EUMUNDI RANGE ROAD,EUMUNDI,QLD,4562,-26.454277,152.94664,5,3,4,House,House,True,2.36,ha,False
2018102473,listing,/19-lockes-lane-belli-park-qld-4562-2018102473,1420000,is-sold,Sold by private treaty 16 Oct 2022,20221016,19 Lockes Lane,BELLI PARK,QLD,4562,-26.5042343,152.856522,3,2,7,House,House,True,1.13,ha,False
2018130222,listing,/1-cash-road-eumundi-qld-4562-2018130222,1000000,is-sold,Sold at auction 27 Oct 2022,20221027,1 Cash Road,EUMUNDI,QLD,4562,-26.4713688,152.966629,3,1,1,AcreageSemiRural,Acreage / Semi-Rural,True,1.28,ha,False
2018218571,listing,/9-bonavista-crescent-doonan-qld-4562-2018218571,1910000,is-sold,Sold by private treaty 30 Sep 2022,20220930,9 Bonavista Crescent,DOONAN,QLD,4562,-26.4596024,152.9985,4,2,2,House,House,False,5808,m2,False
2017464707,listing,/363-duke-rd-doonan-qld-4562-2017464707,1600000,is-sold,Sold by private treaty 25 Aug 2022,20220825,363 Duke Rd,DOONAN,QLD,4562,-26.441597,152.984039,,,,VacantLand,Vacant land,False,7868,m2,False
2017494450,listing,/11-templeton-way-doonan-qld-4562-2017494450,2100000,is-sold,Sold by private treaty 06 Sep 2022,20220906,11 Templeton Way,DOONAN,QLD,4562,-26.44677,152.995056,4,2,4,House,House,False,9919,m2,False
2017589163,listing,/64-parkdale-avenue-doonan-qld-4562-2017589163,850000,is-sold,Sold by private treaty 23 Aug 2022,20220823,64 Parkdale Avenue,DOONAN,QLD,4562,-26.4684849,153.004333,1,1,5,House,House,False,4001,m2,False
2017696927,listing,/2-river-tree-court-eumundi-qld-4562-2017696927,1326000,is-sold,Sold by private treaty 25 Aug 2022,20220825,2 River Tree Court,EUMUNDI,QLD,4562,-26.47465,152.958725,4,3,2,House,House,False,7356,m2,False
2017795846,listing,/7-sterling-drive-eumundi-qld-4562-2017795846,1690000,is-sold,Sold by private treaty 07 Sep 2022,20220907,7 Sterling Drive,EUMUNDI,QLD,4562,-26.474968,152.9504,5,2,4,House,House,False,6022,m2,False
2017825555,listing,/65-arbour-pl-doonan-qld-4562-2017825555,2580000,is-sold,Sold by private treaty 08 Aug 2022,20220808,65 Arbour Pl,DOONAN,QLD,4562,-26.43528,152.997818,4,3,5,House,House,False,6015,m2,False
2017852786,listing,/71-grays-road-doonan-qld-4562-2017852786,1150000,is-sold,Sold by private treaty 08 Aug 2022,20220808,71 Grays Road,DOONAN,QLD,4562,-26.4533043,153.025146,3,4,3,House,House,False,6846,m2,False
2017862591,listing,/1342-eumundi-noosa-road-eumundi-qld-4562-2017862591,2050000,is-sold,Sold by private treaty 12 Aug 2022,20220812,1342 Eumundi Noosa Road,EUMUNDI,QLD,4562,-26.4719524,152.969772,7,4,10,House,House,True,4.01,ha,False
2017865780,listing,/993-eumundi-noosa-rd-doonan-qld-4562-2017865780,1690000,is-sold,Sold by private treaty 23 Aug 2022,20220823,993 Eumundi Noosa Rd,DOONAN,QLD,4562,-26.46359,152.999512,3,2,7,House,House,True,10000,m2,False
2017870801,listing,/55-arbour-place-doonan-qld-4562-2017870801,2200000,is-sold,Sold by private treaty 23 Aug 2022,20220823,55 Arbour Place,DOONAN,QLD,4562,-26.4362659,152.999161,8,6,5,House,House,False,5518,m2,False
2017894969,listing,/92-seib-rd-eumundi-qld-4562-2017894969,2420000,is-sold,Sold by private treaty 12 Sep 2022,20220912,92 Seib Rd,EUMUNDI,QLD,4562,-26.4826488,152.962234,5,2,12,House,House,True,5.26,ha,False
2017912356,listing,/111-lone-hand-rd-eumundi-qld-4562-2017912356,3210000,is-sold,Sold at auction 22 Aug 2022,20220822,111 Lone Hand Rd,EUMUNDI,QLD,4562,-26.44604,152.95015,4,3,10,House,House,True,2.05,ha,False
2017925520,listing,/15-redwood-road-doonan-qld-4562-2017925520,950000,is-sold,Sold by private treaty 18 Aug 2022,20220818,15 Redwood Road,DOONAN,QLD,4562,-26.4618816,153.0043,3,1,2,House,House,False,4938,m2,False
2017953606,listing,/48-52-sunrise-rd-eumundi-qld-4562-2017953606,3100000,is-sold,Sold by private treaty 01 Sep 2022,20220901,48-52 Sunrise Rd,EUMUNDI,QLD,4562,-26.4515514,152.963638,3,1,2,House,House,True,9.43,ha,False
2017969345,listing,/42-50-whispering-gum-avenue-eumundi-qld-4562-2017969345,2100000,is-sold,Sold by private treaty 08 Aug 2022,20220808,42-50 Whispering Gum Avenue,EUMUNDI,QLD,4562,-26.45394,152.973389,4,2,2,House,House,False,4394,m2,False
2017981305,listing,/6-kimberley-court-doonan-qld-4562-2017981305,1450000,is-sold,Sold at auction 08 Sep 2022,20220908,6 Kimberley Court,DOONAN,QLD,4562,-26.4280682,153.01,4,3,2,House,House,False,5562,m2,False
2018002537,listing,/13-balkin-road-eumundi-qld-4562-2018002537,1049000,is-sold,Sold by private treaty 22 Aug 2022,20220822,13 Balkin Road,EUMUNDI,QLD,4562,-26.4597073,152.951782,3,1,5,House,House,True,1.16,ha,False
2018015401,listing,/11-brushbox-place-eumundi-qld-4562-2018015401,1215000,is-sold,Sold by private treaty 23 Aug 2022,20220823,11 Brushbox Place,EUMUNDI,QLD,4562,-26.48155,152.94838,5,2,4,House,House,False,976,m2,False
2018019847,listing,/175-valley-drive-doonan-qld-4562-2018019847,1840000,is-sold,Sold by private treaty 29 Aug 2022,20220829,175 Valley Drive,DOONAN,QLD,4562,-26.446104,152.9945,6,2,4,House,House,False,5303,m2,False
2018046532,listing,/29-31-crescent-road-eumundi-qld-4562-2018046532,1212500,is-sold,Sold by private treaty 09 Sep 2022,20220909,29-31 Crescent Road,EUMUNDI,QLD,4562,-26.4785347,152.950348,2,1,,House,House,False,6167,m2,False
2017437236,listing,/7-9-etheridge-st-eumundi-qld-4562-2017437236,680000,is-sold,Sold by private treaty 31 May 2022,20220531,7-9 Etheridge St,EUMUNDI,QLD,4562,-26.47656,152.95018,,,,VacantLand,Vacant land,False,0,m2,False
2017536402,listing,/252-duke-road-doonan-qld-4562-2017536402,1263000,is-sold,Sold by private treaty 18 Jul 2022,20220718,252 Duke Road,DOONAN,QLD,4562,-26.4483624,152.987183,4,4,2,House,House,True,10000,m2,False
2017613898,listing,/15-paradise-drive-weyba-downs-qld-4562-2017613898,1675000,is-sold,Sold by private treaty 01 Aug 2022,20220801,15 Paradise Drive,WEYBA DOWNS,QLD,4562,-26.4407539,153.0494,4,3,2,House,House,False,5002,m2,False
2017663559,listing,/40-beddington-rd-doonan-qld-4562-2017663559,1525000,is-sold,Sold by private treaty 03 Jun 2022,20220603,40 Beddington Rd,DOONAN,QLD,4562,-26.4498272,153.010727,4,3,6,House,House,True,3.65,ha,False
2017666059,listing,/6-low-street-eumundi-qld-4562-2017666059,742500,is-sold,Sold by private treaty 13 Jun 2022,20220613,6 Low Street,EUMUNDI,QLD,4562,-26.4807529,152.952972,3,2,1,House,House,False,812,m2,False
2017669817,listing,/11-rafter-view-crest-eumundi-qld-4562-2017669817,2820000,is-sold,Sold by private treaty 16 Jun 2022,20220616,11 Rafter View Crest,EUMUNDI,QLD,4562,-26.4563236,152.972153,4,3,6,House,House,False,30800,m2,False
2017711636,listing,/8-low-street-eumundi-qld-4562-2017711636,660000,is-sold,Sold by private treaty 05 Jul 2022,20220705,8 Low Street,EUMUNDI,QLD,4562,-26.480629,152.953217,4,2,,House,House,False,820,m2,False
2017713213,listing,/273-289-sunrise-road-doonan-qld-4562-2017713213,1500000,is-sold,Sold by private treaty 18 Jul 2022,20220718,273-289 Sunrise Road,DOONAN,QLD,4562,-26.4414177,152.98082,5,3,6,AcreageSemiRural,Acreage / Semi-Rural,True,1.02,ha,False
2017737005,listing,/16-eagle-farm-cl-doonan-qld-4562-2017737005,1435000,is-sold,Sold by private treaty 14 Jun 2022,20220614,16 Eagle Farm Cl,DOONAN,QLD,4562,-26.4463482,152.989624,4,2,6,House,House,True,1.1,ha,False
2017747642,listing,/102-162-cedar-creek-road-belli-park-qld-4562-2017747642,985000,is-sold,Sold by private treaty 08 Jun 2022,20220608,102-162 Cedar Creek Road,BELLI PARK,QLD,4562,-26.52295,152.817352,,,,VacantLand,Vacant land,True,24.56,ha,False
2017765247,listing,/lot-8-475-verrierdale-rd-verrierdale-qld-4562-2017765247,,is-sold,Sold by private treaty 22 Jun 2022,20220622,Lot 8/475 Verrierdale Rd,VERRIERDALE,QLD,4562,-26.4823246,152.9967,,,,VacantLand,Vacant land,True,4.01,ha,False
2017816831,listing,/46-redwood-rd-doonan-qld-4562-2017816831,1130000,is-sold,Sold by private treaty 20 Jul 2022,20220720,46 Redwood Rd,DOONAN,QLD,4562,-26.4631424,153.007141,4,2,4,House,House,False,9995,m2,False
2017851423,listing,/23-memorial-drive-eumundi-qld-4562-2017851423,905000,is-sold,Sold by private treaty 13 Jul 2022,20220713,23 Memorial Drive,EUMUNDI,QLD,4562,-26.4838848,152.951645,4,2,6,House,House,False,1146,m2,False
2017852119,listing,/10-burrell-avenue-eumundi-qld-4562-2017852119,1200000,is-sold,Sold by private treaty 27 Jun 2022,20220627,10 Burrell Avenue,EUMUNDI,QLD,4562,-26.4719582,152.944885,4,2,2,House,House,False,700,m2,False
2017854383,listing,/41-memorial-drive-eumundi-qld-4562-2017854383,829000,is-sold,Sold by private treaty 17 Jun 2022,20220617,41 Memorial Drive,EUMUNDI,QLD,4562,-26.4805965,152.95372,3,2,2,House,House,False,683,m2,False
2017879077,listing,/7-panorama-drive-doonan-qld-4562-2017879077,4350000,is-sold,Sold by private treaty 27 Jul 2022,20220727,7 Panorama Drive,DOONAN,QLD,4562,-26.4475,152.9819,5,4,3,House,House,False,5000,m2,False
2017883943,listing,/15-whipbird-place-doonan-qld-4562-2017883943,1305000,is-sold,Sold by private treaty 14 Jul 2022,20220714,15 Whipbird Place,DOONAN,QLD,4562,-26.4375153,153.010452,4,2,1,House,House,True,1.17,ha,False
2017917241,listing,/3-lilly-pilly-rise-eumundi-qld-4562-2017917241,1600000,is-sold,Sold by private treaty 12 Jul 2022,20220712,3 Lilly Pilly Rise,EUMUNDI,QLD,4562,-26.4546967,152.974823,4,2,4,House,House,False,6201,m2,False
2017917625,listing,/1337-eumundi-noosa-road-eumundi-qld-4562-2017917625,2102000,is-sold,Sold by private treaty 08 Jun 2022,20220608,1337 Eumundi Noosa Road,EUMUNDI,QLD,4562,-26.4767,152.967773,3,2,2,House,House,True,2,ha,False
2018059965,listing,/117-127-seib-road-eumundi-qld-4562-2018059965,2670000,is-sold,Sold by private treaty 27 Jul 2022,20220727,117-127 Seib Road,EUMUNDI,QLD,4562,-26.4828434,152.969284,3,2,2,House,House,True,10.36,ha,False
2016902819,listing,/168-grays-road-doonan-qld-4562-2016902819,3200000,is-sold,Sold by private treaty 25 Apr 2022,20220425,168 Grays Road,DOONAN,QLD,4562,-26.4602852,153.025848,5,3,4,AcreageSemiRural,Acreage / Semi-Rural,True,19.89,ha,False
2016911037,listing,/115-doonan-bridge-rd-verrierdale-qld-4562-2016911037,1950000,is-sold,Sold by private treaty 10 May 2022,20220510,115 Doonan Bridge rd,VERRIERDALE,QLD,4562,-26.5040417,153.044159,,,,VacantLand,Vacant land,True,30,ha,False
2017020766,listing,/148-wust-rd-doonan-qld-4562-2017020766,2000000,is-sold,Sold by private treaty 21 May 2022,20220521,148 Wust Rd,DOONAN,QLD,4562,-26.44034,153.001465,1,1,10,VacantLand,Vacant land,True,2.61,ha,False
2017513228,listing,/6-mango-ct-doonan-qld-4562-2017513228,2100000,is-sold,Sold by private treaty 16 May 2022,20220516,6 Mango Ct,DOONAN,QLD,4562,-26.4634247,152.986664,4,3,4,House,House,True,1.69,ha,False
2017521221,listing,/37-calty-close-verrierdale-qld-4562-2017521221,1280000,is-sold,Sold by private treaty 26 Apr 2022,20220426,37 CALTY CLOSE,VERRIERDALE,QLD,4562,-26.4683952,152.99321,5,3,2,House,House,False,4001,m2,False
2017522990,listing,/26-valley-court-doonan-qld-4562-2017522990,1505000,is-sold,Sold by private treaty 25 May 2022,20220525,26 Valley Court,DOONAN,QLD,4562,-26.4436512,152.9841,4,3,2,House,House,False,7065,m2,False
2017583901,listing,/36-greenacre-road-verrierdale-qld-4562-2017583901,1100000,is-sold,Sold by private treaty 18 May 2022,20220518,36 Greenacre Road,VERRIERDALE,QLD,4562,-26.4686737,152.98056,3,2,2,House,House,False,8548,m2,False
2017615118,listing,/826-eumundi-kenilworth-road-belli-park-qld-4562-2017615118,922500,is-sold,Sold by private treaty 14 Apr 2022,20220414,826 Eumundi Kenilworth Road,BELLI PARK,QLD,4562,-26.493206,152.866516,3,1,2,House,House,True,4.11,ha,False
2017639683,listing,/157-sudholz-road-verrierdale-qld-4562-2017639683,1725000,is-sold,Sold by private treaty 23 May 2022,20220523,157 Sudholz Road,VERRIERDALE,QLD,4562,-26.4959583,153.00531,4,2,6,House,House,True,10.6,ha,False
2017651303,listing,/83-musavale-road-eerwah-vale-qld-4562-2017651303,1195000,is-sold,Sold by private treaty 16 May 2022,20220516,83 Musavale Road,EERWAH VALE,QLD,4562,-26.4688683,152.883148,2,1,2,House,House,False,32500,m2,False
2017657346,listing,/47-forest-ridge-drive-doonan-qld-4562-2017657346,2800000,is-sold,Sold by private treaty 06 May 2022,20220506,47 Forest Ridge Drive,DOONAN,QLD,4562,-26.4639359,152.985825,5,2,3,House,House,False,5803,m2,False
2017664709,listing,/17-persoonia-lane-doonan-qld-4562-2017664709,3500000,is-sold,Sold by private treaty 28 Apr 2022,20220428,17 Persoonia Lane,DOONAN,QLD,4562,-26.4417458,153.008636,9,6,10,House,House,False,7832,m2,False
2017684606,listing,/91-main-camp-road-eerwah-vale-qld-4562-2017684606,830000,is-sold,Sold by private treaty 18 Apr 2022,20220418,91 Main Camp Road,EERWAH VALE,QLD,4562,-26.4503937,152.932678,4,1,2,House,House,False,5927,m2,False
2017692028,listing,/12-clifton-place-eumundi-qld-4562-2017692028,610000,is-sold,Sold at auction 29 Apr 2022,20220429,12 Clifton Place,EUMUNDI,QLD,4562,-26.474968,152.9504,,,,VacantLand,Vacant land,False,1416,m2,False
2017711044,listing,/13-rafter-view-crest-eumundi-qld-4562-2017711044,3200000,is-sold,Sold by private treaty 30 Apr 2022,20220430,13 Rafter View Crest,EUMUNDI,QLD,4562,-26.48278,152.95,5,3,8,House,House,False,8553,m2,False
2017724441,listing,/631-eumundi-kenilworth-road-eerwah-vale-qld-4562-2017724441,1125000,is-sold,Sold by private treaty 03 May 2022,20220503,631 Eumundi Kenilworth Road,EERWAH VALE,QLD,4562,-26.48108,152.8782,3,2,2,House,House,False,44600,m2,False
2017732231,listing,/belli-park-qld-4562-2017732231,1300000,is-sold,Sold by private treaty 05 May 2022,20220505,,BELLI PARK,QLD,4562,-26.4764614,152.873672,,,,VacantLand,Vacant land,True,69.2,ha,False
2017747167,listing,/9-11-finley-road-eumundi-qld-4562-2017747167,1200000,is-sold,Sold by private treaty 25 May 2022,20220525,9-11 Finley Road,EUMUNDI,QLD,4562,-26.4645538,152.953217,3,1,4,House,House,False,9006,m2,False
2017756744,listing,/117-valley-dr-doonan-qld-4562-2017756744,1750000,is-sold,Sold by private treaty 11 May 2022,20220511,117 Valley Dr,DOONAN,QLD,4562,-26.4450474,152.9881,4,2,6,House,House,False,7626,m2,False
2017845826,listing,/21-lilly-pilly-rise-eumundi-qld-4562-2017845826,1675000,is-sold,Sold by private treaty 06 May 2022,20220506,21 Lilly Pilly Rise,EUMUNDI,QLD,4562,-26.45541,152.976578,4,3,2,House,House,False,8024,m2,False
2017012216,listing,/74-marnie-cres-doonan-qld-4562-2017012216,2650000,is-sold,Sold by private treaty 07 Apr 2022,20220407,74 Marnie Cres,DOONAN,QLD,4562,-26.45233,152.98143,,,10,VacantLand,Vacant land,True,12.06,ha,False
2017239216,listing,/173-valley-drive-doonan-qld-4562-2017239216,3175000,is-sold,Sold by private treaty 23 Mar 2022,20220323,173 Valley Drive,DOONAN,QLD,4562,-26.4458866,152.993744,5,5,12,House,House,False,5665,m2,False
2017258126,listing,/75-eumundi-range-road-eumundi-qld-4562-2017258126,2250000,is-sold,Sold by private treaty 04 Apr 2022,20220404,75 Eumundi Range Road,EUMUNDI,QLD,4562,-26.46599,152.95787,8,8,2,House,House,False,13100,m2,False
2017304666,listing,/9-13-pheasant-lane-doonan-qld-4562-2017304666,3300000,is-sold,Sold by private treaty 21 Mar 2022,20220321,9-13 Pheasant Lane,DOONAN,QLD,4562,-26.4353619,153.004776,4,3,6,House,House,False,7133,m2,False
2017496457,listing,/114-beddington-rd-doonan-qld-4562-2017496457,1300000,is-sold,Sold by private treaty 11 Apr 2022,20220411,114 Beddington Rd,DOONAN,QLD,4562,-26.4439735,153.007462,3,2,2,House,House,False,4000,m2,False
2017513684,listing,/37-43-cash-road-eumundi-qld-4562-2017513684,1220000,is-sold,Sold by private treaty 15 Mar 2022,20220315,37-43 Cash Road,EUMUNDI,QLD,4562,-26.4677734,152.967255,4,2,2,House,House,False,5808,m2,False
2017537503,listing,/81-panorama-dr-doonan-qld-4562-2017537503,2960000,is-sold,Sold by private treaty 16 Mar 2022,20220316,81 Panorama Dr,DOONAN,QLD,4562,-26.4508915,152.979858,4,3,7,House,House,False,9402,m2,False
2017546775,listing,/39-coast-view-parade-doonan-qld-4562-2017546775,2655000,is-sold,Sold by private treaty 17 Mar 2022,20220317,39 Coast View Parade,DOONAN,QLD,4562,-26.4602661,152.989853,4,3,4,House,House,False,5407,m2,False
2017555082,listing,/38-seib-road-eumundi-qld-4562-2017555082,2000000,is-sold,Sold by private treaty 07 Apr 2022,20220407,38 Seib Road,EUMUNDI,QLD,4562,-26.4778824,152.9612,5,3,5,House,House,False,7307,m2,False
2017576525,listing,/163-seib-road-eumundi-qld-4562-2017576525,2920000,is-sold,Sold by private treaty 30 Mar 2022,20220330,163 Seib Road,EUMUNDI,QLD,4562,-26.4901848,152.967468,7,4,7,House,House,True,12.61,ha,False
2017602656,listing,/49-crescent-road-eumundi-qld-4562-2017602656,1300000,is-sold,Sold by private treaty 12 Apr 2022,20220412,49 Crescent Road,EUMUNDI,QLD,4562,-26.4775333,152.94931,3,2,2,House,House,False,1570,m2,False
2017614951,listing,/49-musavale-road-eerwah-vale-qld-4562-2017614951,2250000,is-sold,Sold by private treaty 14 Apr 2022,20220414,49 Musavale Road,EERWAH VALE,QLD,4562,-26.4685631,152.888443,5,4,8,House,House,True,17.76,ha,False
2017619058,listing,/14-geebung-lane-doonan-qld-4562-2017619058,2100000,is-sold,Sold by private treaty 10 Mar 2022,20220310,14 Geebung Lane,DOONAN,QLD,4562,-26.4323826,153.004776,4,2,2,House,House,False,6173,m2,False
2017643168,listing,/163-lenehans-lane-doonan-qld-4562-2017643168,1600000,is-sold,Sold at auction 23 Mar 2022,20220323,163 Lenehans Lane,DOONAN,QLD,4562,-26.431509,153.009171,5,3,7,House,House,True,1.09,ha,False
2017643579,listing,/507-gold-creek-road-eerwah-vale-qld-4562-2017643579,1195000,is-sold,Sold by private treaty 13 Apr 2022,20220413,507 Gold Creek Road,EERWAH VALE,QLD,4562,-26.4909153,152.904922,4,2,8,House,House,True,1.53,ha,False
2017645661,listing,/10-marnie-crescent-doonan-qld-4562-2017645661,1975000,is-sold,Sold at auction 25 Mar 2022,20220325,10 Marnie Crescent,DOONAN,QLD,4562,-26.452877,152.9908,4,2,2,House,House,False,8720,m2,False
2017653646,listing,/37-wattlebird-dr-doonan-qld-4562-2017653646,1525000,is-sold,Sold by private treaty 08 Apr 2022,20220408,37 Wattlebird Dr,DOONAN,QLD,4562,-26.4399242,153.010483,4,2,8,House,House,True,1.01,ha,False
2017687338,listing,/7-babbling-brook-pl-eumundi-qld-4562-2017687338,2300000,is-sold,Sold by private treaty 19 Mar 2022,20220319,7 Babbling Brook Pl,EUMUNDI,QLD,4562,-26.4527149,152.971146,5,3,6,House,House,True,1.13,ha,False
2017725804,listing,/33-grasstree-rd-eumundi-qld-4562-2017725804,2600000,is-sold,Sold by private treaty 10 Mar 2022,20220310,33 Grasstree Rd,EUMUNDI,QLD,4562,-26.45458,152.93602,8,6,8,House,House,True,2.47,ha,False
2017727963,listing,/5-racecourse-rise-eumundi-qld-4562-2017727963,1270000,is-sold,Sold by private treaty 14 Apr 2022,20220414,5 Racecourse Rise,EUMUNDI,QLD,4562,-26.47384,152.946411,3,3,2,House,House,False,831,m2,False
2017242060,listing,/34-marnie-crescent-doonan-qld-4562-2017242060,1250000,is-sold,Sold by private treaty 11 Feb 2022,20220211,34 Marnie Crescent,DOONAN,QLD,4562,-26.4516125,152.986221,1,1,,VacantLand,Vacant land,True,1.48,ha,False
2017242327,listing,/28-crescent-road-eumundi-qld-4562-2017242327,1300000,is-sold,Sold by private treaty 06 Mar 2022,20220306,28 Crescent Road,EUMUNDI,QLD,4562,-26.4778061,152.95105,3,2,3,House,House,False,997,m2,False
2017246073,listing,/215-valley-dr-doonan-qld-4562-2017246073,,is-sold,Sold by private treaty 01 Mar 2022,20220301,215 Valley Dr,DOONAN,QLD,4562,-26.44441,152.999313,,,2,VacantLand,Vacant land,True,22.57,ha,False
2017410340,listing,/251-eumarella-rd-weyba-downs-qld-4562-2017410340,2200000,is-sold,Sold by private treaty 18 Feb 2022,20220218,251 Eumarella Rd,WEYBA DOWNS,QLD,4562,-26.4370346,153.062668,2,1,1,House,House,False,90,m2,False
2017423352,listing,/20-bowden-road-doonan-qld-4562-2017423352,,is-sold,Sold by private treaty 07 Mar 2022,20220307,20 Bowden Road,DOONAN,QLD,4562,-26.46353,152.992935,7,3,3,House,House,False,7113,m2,False
2017448825,listing,/2-kyle-court-doonan-qld-4562-2017448825,1825000,is-sold,Sold by private treaty 09 Mar 2022,20220309,2 Kyle Court,DOONAN,QLD,4562,-26.4463482,153.009842,4,3,5,House,House,False,4377,m2,False
2017460939,listing,/3-wattlebird-dr-doonan-qld-4562-2017460939,1770000,is-sold,Sold by private treaty 04 Mar 2022,20220304,3 Wattlebird Dr,DOONAN,QLD,4562,-26.43153,153.013672,5,2,4,House,House,False,4932,m2,False
2017466376,listing,/1633-eumundi-kenilworth-rd-belli-park-qld-4562-2017466376,1750000,is-sold,Sold by private treaty 18 Feb 2022,20220218,1633 Eumundi Kenilworth Rd,BELLI PARK,QLD,4562,-26.5144176,152.8007,4,2,9,House,House,True,20.03,ha,False
2017469037,listing,/34-laguna-grove-doonan-qld-4562-2017469037,1800000,is-sold,Sold by private treaty 21 Feb 2022,20220221,34 Laguna Grove,DOONAN,QLD,4562,-26.4663029,152.997452,4,2,8,House,House,False,10300,m2,False
2017476596,listing,/1-penda-court-doonan-qld-4562-2017476596,1875000,is-sold,Sold by private treaty 08 Mar 2022,20220308,1 Penda Court,DOONAN,QLD,4562,-26.4603558,153.011246,4,2,5,AcreageSemiRural,Acreage / Semi-Rural,True,7687,m2,False
2017488304,listing,/111-anderson-road-eerwah-vale-qld-4562-2017488304,1100000,is-sold,Sold by private treaty 18 Feb 2022,20220218,111 Anderson Road,EERWAH VALE,QLD,4562,-26.4921741,152.890289,1,1,10,AcreageSemiRural,Acreage / Semi-Rural,True,8.9,ha,False
2017494442,listing,/eumundi-qld-4562-2017494442,936000,is-sold,Sold by private treaty 25 Feb 2022,20220225,,EUMUNDI,QLD,4562,-26.474968,152.9504,2,1,4,House,House,False,9005,m2,False
2017535801,listing,/43-regency-road-doonan-qld-4562-2017535801,3450000,is-sold,Sold at auction 11 Feb 2022,20220211,43 Regency Road,DOONAN,QLD,4562,-26.4354286,152.989609,6,3,4,House,House,False,5989,m2,False
2017570977,listing,/57-foxtail-rise-doonan-qld-4562-2017570977,2250000,is-sold,Sold by private treaty 22 Feb 2022,20220222,57 Foxtail Rise,DOONAN,QLD,4562,-26.4274311,153.005859,4,3,5,House,House,False,4268,m2,False
2017572378,listing,/676-bunya-road-eumundi-qld-4562-2017572378,880000,is-sold,Sold by private treaty 18 Feb 2022,20220218,676 Bunya Road,EUMUNDI,QLD,4562,-26.48877,152.9437,3,1,4,House,House,False,4433,m2,False
2017590407,listing,/831-eumundi-noosa-rd-doonan-qld-4562-2017590407,1550000,is-sold,Sold by private treaty 22 Feb 2022,20220222,831 Eumundi Noosa Rd,DOONAN,QLD,4562,-26.4558449,153.011658,4,4,6,House,House,True,1.14,ha,False
2017608231,listing,/11-greenacre-road-verrierdale-qld-4562-2017608231,1600000,is-sold,Sold by private treaty 03 Mar 2022,20220303,11 Greenacre Road,VERRIERDALE,QLD,4562,-26.46977,152.9801,6,3,3,House,House,False,6107,m2,False
2017614949,listing,/1068-browns-creek-road-eerwah-vale-qld-4562-2017614949,2150000,is-sold,Sold by private treaty 03 Mar 2022,20220303,1068 Browns Creek Road,EERWAH VALE,QLD,4562,-26.4792271,152.891937,7,3,2,House,House,True,1.36,ha,False
2017725760,listing,/48-52-sunrise-rd-eumundi-qld-4562-2017725760,1630000,is-sold,Sold by private treaty 07 Mar 2022,20220307,48-52 Sunrise Rd,EUMUNDI,QLD,4562,-26.4515514,152.963638,3,1,2,House,House,False,0,m2,False
2017758906,listing,/7b-crescent-road-eumundi-qld-4562-2017758906,702500,is-sold,Sold by private treaty 10 Mar 2022,20220310,7B Crescent Road,EUMUNDI,QLD,4562,-26.4812889,152.951141,2,1,1,House,House,False,726,m2,False
2017052907,listing,/239-skyring-creek-road-belli-park-qld-4562-2017052907,730000,is-sold,Sold by private treaty 08 Feb 2022,20220208,239 Skyring Creek Road,BELLI PARK,QLD,4562,-26.4915962,152.803421,3,1,2,House,House,True,1.19,ha,False
2017221009,listing,/lot-10-butler-road-verrierdale-qld-4562-2017221009,1100000,is-sold,Sold by private treaty 27 Jan 2022,20220127,Lot 10 Butler Road,VERRIERDALE,QLD,4562,-26.4645367,153.010117,,,,VacantLand,Vacant land,True,13.39,ha,False
2017247982,listing,/2-charlotte-dr-weyba-downs-qld-4562-2017247982,2200000,is-sold,Sold by private treaty 31 Jan 2022,20220131,2 Charlotte Dr,WEYBA DOWNS,QLD,4562,-26.445013,153.054672,4,3,4,House,House,False,5260,m2,False
2017324766,listing,/35-foxtail-rise-doonan-qld-4562-2017324766,3240000,is-sold,Sold by private treaty 20 Jan 2022,20220120,35 Foxtail Rise,DOONAN,QLD,4562,-26.4299469,153.006622,4,3,9,House,House,False,5135,m2,False
2017324845,listing,/1-whipbird-pl-doonan-qld-4562-2017324845,2200000,is-sold,Sold by private treaty 31 Jan 2022,20220131,1 Whipbird Pl,DOONAN,QLD,4562,-26.4344349,153.012527,5,2,12,House,House,False,5769,m2,False
2017359069,listing,/22-laguna-gr-doonan-qld-4562-2017359069,1525000,is-sold,Sold by private treaty 10 Jan 2022,20220110,22 Laguna Gr,DOONAN,QLD,4562,-26.4651814,152.99765,4,2,3,House,House,False,8557,m2,False
2017402948,listing,/70-eumundi-range-road-eumundi-qld-4562-2017402948,3456250,is-sold,Sold by private treaty 28 Jan 2022,20220128,70 Eumundi Range Road,EUMUNDI,QLD,4562,-26.4662323,152.956238,5,3,2,House,House,False,44900,m2,False
2017406885,listing,/1143-eumundi-noosa-rd-verrierdale-qld-4562-2017406885,780000,is-sold,Sold by private treaty 14 Jan 2022,20220114,1143 Eumundi Noosa Rd,VERRIERDALE,QLD,4562,-26.4720573,152.98761,3,1,4,House,House,True,3.6,ha,False
2017440913,listing,/55-mount-eerwah-road-eerwah-vale-qld-4562-2017440913,1465000,is-sold,Sold by private treaty 20 Jan 2022,20220120,55 Mount Eerwah Road,EERWAH VALE,QLD,4562,-26.4880924,152.904938,5,3,6,House,House,True,1.53,ha,False
2017447185,listing,/355-cedar-creek-road-belli-park-qld-4562-2017447185,695000,is-sold,Sold by private treaty 14 Jan 2022,20220114,355 Cedar Creek Road,BELLI PARK,QLD,4562,-26.5400887,152.823837,2,1,4,House,House,False,20000,m2,False
2017482456,listing,/69-wust-rd-doonan-qld-4562-2017482456,1650000,is-sold,Sold by private treaty 04 Feb 2022,20220204,69 Wust Rd,DOONAN,QLD,4562,-26.4392223,152.9952,3,2,4,House,House,False,5518,m2,False
2017491013,listing,/244-duke-road-doonan-qld-4562-2017491013,1650000,is-sold,Sold by private treaty 24 Jan 2022,20220124,244 Duke Road,DOONAN,QLD,4562,-26.4489746,152.988113,5,3,2,House,House,False,10900,m2,False
2017503064,listing,/110-grays-road-doonan-qld-4562-2017503064,1440000,is-sold,Sold at auction 22 Jan 2022,20220122,110 Grays Road,DOONAN,QLD,4562,-26.4557743,153.027664,3,1,5,House,House,False,6366,m2,False
2017506639,listing,/184-doonan-bridge-road-verrierdale-qld-4562-2017506639,930000,is-sold,Sold by private treaty 31 Jan 2022,20220131,184 Doonan Bridge Road,VERRIERDALE,QLD,4562,-26.499939,153.0324,,,,VacantLand,Vacant land,True,12.3,ha,False
2017531694,listing,/73-botanica-circuit-doonan-qld-4562-2017531694,1845000,is-sold,Sold by private treaty 10 Feb 2022,20220210,73 Botanica Circuit,DOONAN,QLD,4562,-26.46595,152.991241,4,2,8,House,House,False,6002,m2,False
2017539511,listing,/12-senegal-rise-doonan-qld-4562-2017539511,2600000,is-sold,Sold by private treaty 03 Feb 2022,20220203,12 Senegal Rise,DOONAN,QLD,4562,-26.4213486,153.008392,5,3,10,House,House,True,2.14,ha,False
2017660290,listing,/7-brushbox-place-eumundi-qld-4562-2017660290,925000,is-sold,Sold by private treaty 24 Jan 2022,20220124,7 Brushbox Place,EUMUNDI,QLD,4562,-26.4815426,152.948456,4,2,2,House,House,False,800,m2,False
2017700040,listing,/102-126-sunrise-road-eumundi-qld-4562-2017700040,2600000,is-sold,Sold by private treaty 09 Feb 2022,20220209,102-126 Sunrise Road,EUMUNDI,QLD,4562,-26.448225,152.967133,3,2,9,House,House,False,33993,m2,False
2017744558,listing,/198-eumarella-road-weyba-downs-qld-4562-2017744558,2200000,is-sold,Sold by private treaty 15 Jan 2022,20220115,198 Eumarella Road,WEYBA DOWNS,QLD,4562,-26.4418545,153.053467,5,4,8,House,House,False,5004,m2,False
2017823016,listing,/10-rafter-view-crest-eumundi-qld-4562-2017823016,2900000,is-sold,Sold by private treaty 01 Feb 2022,20220201,10 Rafter View Crest,EUMUNDI,QLD,4562,-26.4587879,152.973572,4,2,2,House,House,False,9013,m2,False
2017128517,listing,/2-16-bonney-lane-belli-park-qld-4562-2017128517,2300000,is-sold,Sold by private treaty 15 Dec 2021,20211215,2-16 Bonney Lane,BELLI PARK,QLD,4562,-26.51384,152.811829,4,2,8,House,House,True,12,ha,False
2017147158,listing,/702-browns-creek-road-eerwah-vale-qld-4562-2017147158,1175000,is-sold,Sold by private treaty 17 Dec 2021,20211217,702 Browns Creek Road,EERWAH VALE,QLD,4562,-26.498848,152.908737,,,,VacantLand,Vacant land,True,26.59,ha,False
2017207723,listing,/140-duke-rd-doonan-qld-4562-2017207723,1860000,is-sold,Sold by private treaty 15 Dec 2021,20211215,140 Duke Rd,DOONAN,QLD,4562,-26.45469,152.996872,4,2,8,House,House,False,30796,m2,False
2017262642,listing,/50-58-browns-road-belli-park-qld-4562-2017262642,1155000,is-sold,Sold by private treaty 10 Dec 2021,20211210,50-58 Browns Road,BELLI PARK,QLD,4562,-26.4984074,152.8534,3,1,4,House,House,True,3.51,ha,False
2017310931,listing,/111-laguna-grove-doonan-qld-4562-2017310931,2750000,is-sold,Sold by private treaty 21 Dec 2021,20211221,111 Laguna Grove,DOONAN,QLD,4562,-26.4671879,153.003189,4,2,13,House,House,False,5053,m2,False
2017316033,listing,/43-wattlebird-drive-doonan-qld-4562-2017316033,1500000,is-sold,Sold by private treaty 17 Dec 2021,20211217,43 Wattlebird Drive,DOONAN,QLD,4562,-26.4394932,153.008286,,,,VacantLand,Vacant land,False,23600,m2,False
2017318868,listing,/24-templeton-way-doonan-qld-4562-2017318868,2745000,is-sold,Sold by private treaty 04 Jan 2022,20220104,24 Templeton Way,DOONAN,QLD,4562,-26.4491558,152.9938,4,3,3,House,House,True,1.6,ha,False
2017372379,listing,/71-fullager-drive-eumundi-qld-4562-2017372379,516000,is-sold,Sold by private treaty 13 Dec 2021,20211213,71 Fullager Drive,EUMUNDI,QLD,4562,-26.4740868,152.944427,,1,,VacantLand,Vacant land,False,1796,m2,False
2017383319,listing,/15-17-charlotte-drive-weyba-downs-qld-4562-2017383319,2067500,is-sold,Sold by private treaty 22 Dec 2021,20211222,15-17 Charlotte Drive,WEYBA DOWNS,QLD,4562,-26.44364,153.053574,4,3,4,House,House,False,5399,m2,False
2017405993,listing,/4-mango-court-doonan-qld-4562-2017405993,2580000,is-sold,Sold by private treaty 22 Dec 2021,20211222,4 Mango Court,DOONAN,QLD,4562,-26.4634361,152.985458,4,3,4,House,House,False,5482,m2,False
2017408811,listing,/5-etheridge-street-eumundi-qld-4562-2017408811,,is-sold,Sold by private treaty 17 Dec 2021,20211217,5 Etheridge Street,EUMUNDI,QLD,4562,-26.476305,152.950363,2,1,,House,House,False,726,m2,False
2017426667,listing,/2-paige-lane-doonan-qld-4562-2017426667,2800000,is-sold,Sold by private treaty 11 Dec 2021,20211211,2 Paige Lane,DOONAN,QLD,4562,-26.44389,153.009476,4,4,3,House,House,False,5161,m2,False
2017431199,listing,/967-eumundi-noosa-rd-doonan-qld-4562-2017431199,1150000,is-sold,Sold by private treaty 23 Dec 2021,20211223,967 Eumundi Noosa Rd,DOONAN,QLD,4562,-26.4636383,153.001633,4,2,5,House,House,True,10000,m2,False
2017435439,listing,/1-botanica-circuit-doonan-qld-4562-2017435439,1702000,is-sold,Sold by private treaty 14 Dec 2021,20211214,1 Botanica Circuit,DOONAN,QLD,4562,-26.46466,152.992432,4,3,5,House,House,False,10900,m2,False
2017438058,listing,/4-pacey-street-eumundi-qld-4562-2017438058,570000,is-sold,Sold at auction 18 Dec 2021,20211218,4 Pacey Street,EUMUNDI,QLD,4562,-26.4789371,152.952438,,,,VacantLand,Vacant land,False,1396,m2,False
2017451488,listing,/19-christella-place-verrierdale-qld-4562-2017451488,2500000,is-sold,Sold by private treaty 08 Jan 2022,20220108,19 Christella Place,VERRIERDALE,QLD,4562,-26.4709,152.996231,5,3,2,House,House,False,7142,m2,False
2017452238,listing,/7-blueberry-lane-eumundi-qld-4562-2017452238,1750000,is-sold,Sold at auction 17 Dec 2021,20211217,7 Blueberry Lane,EUMUNDI,QLD,4562,-26.4522133,152.972122,5,3,2,House,House,False,5418,m2,False
2017486825,listing,/33-persoonia-lane-doonan-qld-4562-2017486825,2300000,is-sold,Sold by private treaty 10 Dec 2021,20211210,33 Persoonia Lane,DOONAN,QLD,4562,-26.4408417,153.010391,4,2,2,House,House,False,6003,m2,False
2017622183,listing,/14-wilsons-lane-eerwah-vale-qld-4562-2017622183,2300000,is-sold,Sold by private treaty 07 Jan 2022,20220107,14 Wilsons Lane,EERWAH VALE,QLD,4562,-26.4706974,152.935684,6,3,6,House,House,True,18.37,ha,False
2017905849,listing,/verrierdale-qld-4562-2017905849,3994760,is-sold,Sold by private treaty 31 Dec 2021,20211231,,VERRIERDALE,QLD,4562,-26.4852142,153.02655,6,1,5,House,House,True,20.17,ha,False
2016607557,listing,/304-verrierdale-road-verrierdale-qld-4562-2016607557,2400000,is-sold,Sold by private treaty 09 Dec 2021,20211209,304 Verrierdale Road,VERRIERDALE,QLD,4562,-26.4820385,153.008652,,,,VacantLand,Vacant land,True,64.35,ha,False
2017086026,listing,/15-31-neeraway-road-eerwah-vale-qld-4562-2017086026,1125000,is-sold,Sold by private treaty 26 Nov 2021,20211126,15-31 Neeraway Road,EERWAH VALE,QLD,4562,-26.4563313,152.930115,5,3,5,House,House,False,23600,m2,False
2017119609,listing,/300-sunrise-rd-doonan-qld-4562-2017119609,2525000,is-sold,Sold by private treaty 06 Dec 2021,20211206,300 Sunrise Rd,DOONAN,QLD,4562,-26.4393482,152.9832,3,1,20,House,House,True,12.14,ha,False
2017248078,listing,/45-wust-road-doonan-qld-4562-2017248078,1420000,is-sold,Sold by private treaty 15 Nov 2021,20211115,45 Wust Road,DOONAN,QLD,4562,-26.4384575,152.991425,3,2,6,House,House,False,5571,m2,False
2017255810,listing,/42-caplick-way-eumundi-qld-4562-2017255810,855000,is-sold,Sold by private treaty 22 Nov 2021,20211122,42 Caplick Way,EUMUNDI,QLD,4562,-26.4730568,152.953934,3,2,2,House,House,False,1010,m2,False
2017265460,listing,/eerwah-vale-qld-4562-2017265460,825000,is-sold,Sold by private treaty 06 Dec 2021,20211206,,EERWAH VALE,QLD,4562,-26.4859066,152.9079,2,2,1,House,House,True,13.52,ha,False
2017282552,listing,/12-livistona-dr-doonan-qld-4562-2017282552,1855000,is-sold,Sold by private treaty 07 Dec 2021,20211207,12 Livistona Dr,DOONAN,QLD,4562,-26.4275169,153.01619,3,2,6,House,House,False,6993,m2,False
2017284020,listing,/126-memorial-drive-eumundi-qld-4562-2017284020,782000,is-sold,Sold by private treaty 22 Nov 2021,20211122,126 Memorial Drive,EUMUNDI,QLD,4562,-26.4734344,152.948792,2,1,,House,House,False,607,m2,False
2017311287,listing,/160-beddington-road-doonan-qld-4562-2017311287,1940000,is-sold,Sold by private treaty 12 Nov 2021,20211112,160 Beddington Road,DOONAN,QLD,4562,-26.440239,153.0071,5,2,2,House,House,False,8346,m2,False
2017346193,listing,/45-calty-close-verrierdale-qld-4562-2017346193,650000,is-sold,Sold by private treaty 26 Nov 2021,20211126,45 Calty Close,VERRIERDALE,QLD,4562,-26.46722,152.993073,,,,VacantLand,Vacant land,False,4000,m2,False
2017359887,listing,/164-eumarella-road-weyba-downs-qld-4562-2017359887,1150000,is-sold,Sold by private treaty 23 Nov 2021,20211123,164 Eumarella Road,WEYBA DOWNS,QLD,4562,-26.4425468,153.049728,3,1,4,House,House,False,5299,m2,False
2017377874,listing,/27-maiala-court-belli-park-qld-4562-2017377874,1400000,is-sold,Sold by private treaty 25 Nov 2021,20211125,27 Maiala Court,BELLI PARK,QLD,4562,-26.4793835,152.862381,4,2,3,House,House,True,12.01,ha,False
2017385839,listing,/10-omega-lane-eumundi-qld-4562-2017385839,920000,is-sold,Sold by private treaty 19 Nov 2021,20211119,10 Omega Lane,EUMUNDI,QLD,4562,-26.4689369,152.955063,3,1,,House,House,False,3255,m2,False
2017397479,listing,/23-whispering-gum-avenue-eumundi-qld-4562-2017397479,1870000,is-sold,Sold by private treaty 02 Dec 2021,20211202,23 Whispering Gum Avenue,EUMUNDI,QLD,4562,-26.4539623,152.971008,4,2,2,House,House,True,1.04,ha,False
2017418346,listing,/19-minura-court-doonan-qld-4562-2017418346,1050000,is-sold,Sold by private treaty 04 Dec 2021,20211204,19 Minura Court,DOONAN,QLD,4562,-26.4296875,153.000961,,,,VacantLand,Vacant land,False,7500,m2,False
2017423704,listing,/21-shields-court-eumundi-qld-4562-2017423704,1820000,is-sold,Sold by private treaty 08 Dec 2021,20211208,21 Shields Court,EUMUNDI,QLD,4562,-26.4750462,152.950745,6,4,3,House,House,False,6155,m2,False
2017428761,listing,/8-crescent-road-eumundi-qld-4562-2017428761,1051000,is-sold,Sold by private treaty 25 Nov 2021,20211125,8 Crescent Road,EUMUNDI,QLD,4562,-26.4812012,152.9518,3,1,2,House,House,False,2453,m2,False
2017431951,listing,/12-14-capricorn-court-eumundi-qld-4562-2017431951,1680000,is-sold,Sold at auction 08 Dec 2021,20211208,12 - 14 Capricorn Court,EUMUNDI,QLD,4562,-26.4452038,152.938919,3,2,4,House,House,False,5273,m2,False
2017433875,listing,/12-mallee-close-doonan-qld-4562-2017433875,1350000,is-sold,Sold by private treaty 10 Dec 2021,20211210,12 Mallee Close,DOONAN,QLD,4562,-26.4708366,153.01004,3,2,5,House,House,False,5416,m2,False
2017437083,listing,/102-laguna-grove-doonan-qld-4562-2017437083,1450000,is-sold,Sold by private treaty 03 Dec 2021,20211203,102 Laguna Grove,DOONAN,QLD,4562,-26.4694252,153.002625,3,2,4,House,House,True,1.45,ha,False
2016962430,listing,/366-skyring-creek-road-belli-park-qld-4562-2016962430,585000,is-sold,Sold by private treaty 27 Oct 2021,20211027,366 Skyring Creek Road,BELLI PARK,QLD,4562,-26.4773788,152.796509,,,,AcreageSemiRural,Acreage / Semi-Rural,True,0,m2,False
2017164553,listing,/60-duke-road-doonan-qld-4562-2017164553,2500000,is-sold,Sold by private treaty 02 Nov 2021,20211102,60 Duke Road,DOONAN,QLD,4562,-26.4538,153.004532,6,4,9,House,House,True,2.96,ha,False
2017189280,listing,/11-crescent-road-eumundi-qld-4562-2017189280,572500,is-sold,Sold by private treaty 03 Nov 2021,20211103,11 Crescent Road,EUMUNDI,QLD,4562,-26.48096,152.950623,,,,VacantLand,Vacant land,False,2039,m2,False
2017206214,listing,/2-bartle-frere-court-doonan-qld-4562-2017206214,1250000,is-sold,Sold by private treaty 28 Oct 2021,20211028,2 Bartle Frere Court,DOONAN,QLD,4562,-26.453392,152.985352,3,2,6,House,House,False,5061,m2,False
2017233434,listing,/407-cedar-creek-road-belli-park-qld-4562-2017233434,835000,is-sold,Sold by private treaty 01 Nov 2021,20211101,407 Cedar Creek Road,BELLI PARK,QLD,4562,-26.54249,152.829025,3,1,2,House,House,True,24.38,ha,False
2017241075,listing,/150-eumundi-range-road-eumundi-qld-4562-2017241075,1165000,is-sold,Sold by private treaty 01 Nov 2021,20211101,150 Eumundi Range Road,EUMUNDI,QLD,4562,-26.45949,152.95549,4,2,2,House,House,True,1.2,ha,False
2017260556,listing,/190-beddington-rd-doonan-qld-4562-2017260556,1100000,is-sold,Sold by private treaty 11 Nov 2021,20211111,190 Beddington Rd,DOONAN,QLD,4562,-26.4375134,153.006042,3,1,6,House,House,False,9499,m2,False
2017280571,listing,/139-dahlia-road-verrierdale-qld-4562-2017280571,3900000,is-sold,Sold by private treaty 01 Nov 2021,20211101,139 Dahlia Road,VERRIERDALE,QLD,4562,-26.4903278,153.025467,5,3,6,House,House,True,7.45,ha,False
2017293048,listing,/136-memorial-drive-eumundi-qld-4562-2017293048,880000,is-sold,Sold by private treaty 02 Nov 2021,20211102,136 Memorial Drive,EUMUNDI,QLD,4562,-26.4728069,152.948166,2,1,1,House,House,False,809,m2,False
2017303213,listing,/119-135-sunrise-road-eumundi-qld-4562-2017303213,1610000,is-sold,Sold by private treaty 03 Nov 2021,20211103,119-135 Sunrise Road,EUMUNDI,QLD,4562,-26.4473228,152.968582,4,3,3,House,House,True,10000,m2,False
2017311715,listing,/26-livistona-drive-doonan-qld-4562-2017311715,3660000,is-sold,Sold by private treaty 03 Nov 2021,20211103,26 Livistona Drive,DOONAN,QLD,4562,-26.42389,153.012939,5,4,2,AcreageSemiRural,Acreage / Semi-Rural,True,9712,m2,False
2017315281,listing,/25-penda-court-doonan-qld-4562-2017315281,2000000,is-sold,Sold prior to auction 27 Oct 2021,20211027,25 Penda Court,DOONAN,QLD,4562,-26.459919,153.009186,4,3,11,AcreageSemiRural,Acreage / Semi-Rural,True,5721,m2,False
2017331498,listing,/1-15-bush-tucker-court-eumundi-qld-4562-2017331498,1615000,is-sold,Sold by private treaty 03 Nov 2021,20211103,1-15 Bush Tucker Court,EUMUNDI,QLD,4562,-26.4456024,152.9725,4,2,2,House,House,False,9119,m2,False
2017349865,listing,/74-wust-road-doonan-qld-4562-2017349865,1450000,is-sold,Sold by private treaty 12 Nov 2021,20211112,74 Wust Road,DOONAN,QLD,4562,-26.4397163,152.994263,3,1,5,House,House,False,5535,m2,False
2017354091,listing,/76-beddington-rd-doonan-qld-4562-2017354091,2100000,is-sold,Sold by private treaty 30 Oct 2021,20211030,76 Beddington Rd,DOONAN,QLD,4562,-26.446888,153.008621,2,1,6,House,House,True,4.55,ha,False
2017360911,listing,/eumundi-qld-4562-2017360911,900000,is-sold,Sold by private treaty 28 Oct 2021,20211028,,EUMUNDI,QLD,4562,-26.45481,152.97052,,,,VacantLand,Vacant land,True,1.22,ha,False
2017381758,listing,/13-paige-lane-doonan-qld-4562-2017381758,2700000,is-sold,Sold by private treaty 08 Nov 2021,20211108,13 Paige Lane,DOONAN,QLD,4562,-26.4448643,153.00882,4,3,5,House,House,False,5712,m2,False
2017390791,listing,/21-elizabeth-street-eumundi-qld-4562-2017390791,1200000,is-sold,Sold by private treaty 27 Oct 2021,20211027,21 Elizabeth Street,EUMUNDI,QLD,4562,-26.4703751,152.949432,3,1,,House,House,False,0,m2,False
2017452053,listing,/150-eumundi-range-road-eumundi-qld-4562-2017452053,,is-sold,Sold by private treaty 01 Nov 2021,20211101,150 Eumundi Range Road,EUMUNDI,QLD,4562,-26.4594879,152.955475,4,2,2,House,House,True,1.2,ha,False
2017457667,listing,/246-eumarella-road-weyba-downs-qld-4562-2017457667,1290000,is-sold,Sold by private treaty 02 Nov 2021,20211102,246 Eumarella Road,WEYBA DOWNS,QLD,4562,-26.4388733,153.057236,,,,House,House,False,0,m2,False
2017000670,listing,/45-79-finley-road-eumundi-qld-4562-2017000670,1800000,is-sold,Sold by private treaty 14 Oct 2021,20211014,45-79 Finley Road,EUMUNDI,QLD,4562,-26.462738,152.947327,,,,Farm,Farm,True,12.06,ha,False
2017057082,listing,/270-308-memorial-dr-eerwah-vale-qld-4562-2017057082,1500000,is-sold,Sold by private treaty 29 Sep 2021,20210929,270-308 Memorial Dr,EERWAH VALE,QLD,4562,-26.46135,152.936722,3,2,8,House,House,True,15.09,ha,False
2017095088,listing,/37-nylana-way-doonan-qld-4562-2017095088,1985000,is-sold,Sold by private treaty 30 Sep 2021,20210930,37 Nylana Way,DOONAN,QLD,4562,-26.4305973,153.003,6,4,6,House,House,False,12140,m2,False
2017109931,listing,/87-main-camp-road-eerwah-vale-qld-4562-2017109931,625000,is-sold,Sold by private treaty 26 Oct 2021,20211026,87 Main Camp Road,EERWAH VALE,QLD,4562,-26.4503632,152.932022,2,1,1,House,House,False,9985,m2,False
2017125428,listing,/2-noakes-rd-doonan-qld-4562-2017125428,1890000,is-sold,Sold by private treaty 27 Sep 2021,20210927,2 Noakes Rd,DOONAN,QLD,4562,-26.458971,152.986115,5,4,8,House,House,False,4079,m2,False
2017157432,listing,/14-whipbird-pl-doonan-qld-4562-2017157432,1300000,is-sold,Sold by private treaty 11 Oct 2021,20211011,14 Whipbird Pl,DOONAN,QLD,4562,-26.43379,153.009186,3,1,4,House,House,False,8412,m2,False
2017172041,listing,/383-eumundi-range-road-eumundi-qld-4562-2017172041,1620000,is-sold,Sold by private treaty 08 Oct 2021,20211008,383 Eumundi Range Road,EUMUNDI,QLD,4562,-26.4517,152.9462,5,3,3,House,House,False,4711,m2,False
2017215805,listing,/216-228-sunrise-road-doonan-qld-4562-2017215805,1900000,is-sold,Sold by private treaty 13 Oct 2021,20211013,216-228 Sunrise Road,DOONAN,QLD,4562,-26.4427929,152.976334,3,2,4,House,House,False,6401,m2,False
2017224739,listing,/110-marnie-crescent-doonan-qld-4562-2017224739,1410000,is-sold,Sold by private treaty 08 Oct 2021,20211008,110 Marnie Crescent,DOONAN,QLD,4562,-26.4575825,152.98555,3,2,2,House,House,False,6898,m2,False
2017234027,listing,/280-mirbelia-place-doonan-qld-4562-2017234027,2505000,is-sold,Sold by private treaty 26 Sep 2021,20210926,280 Mirbelia Place,DOONAN,QLD,4562,-26.43429,153.015945,4,2,6,AcreageSemiRural,Acreage / Semi-Rural,True,1.78,ha,False
2017235237,listing,/6-balkin-court-eumundi-qld-4562-2017235237,1108000,is-sold,Sold by private treaty 01 Oct 2021,20211001,6 Balkin Court,EUMUNDI,QLD,4562,-26.4606514,152.950363,3,1,2,House,House,True,1.21,ha,False
2017247539,listing,/26-capricorn-court-eumundi-qld-4562-2017247539,1600000,is-sold,Sold by private treaty 05 Oct 2021,20211005,26 Capricorn Court,EUMUNDI,QLD,4562,-26.44613,152.940475,4,3,6,House,House,True,1.02,ha,False
2017256168,listing,/300-seib-road-eumundi-qld-4562-2017256168,2424000,is-sold,Sold by private treaty 15 Oct 2021,20211015,300 Seib Road,EUMUNDI,QLD,4562,-26.4969959,152.96489,4,3,6,House,House,False,51000,m2,False
2017261393,listing,/12-coast-view-parade-doonan-qld-4562-2017261393,1675000,is-sold,Sold by private treaty 19 Oct 2021,20211019,12 Coast View Parade,DOONAN,QLD,4562,-26.459837,152.98732,4,2,3,House,House,False,5676,m2,False
2017263778,listing,/83-lake-weyba-drive-weyba-downs-qld-4562-2017263778,2450000,is-sold,Sold by private treaty 24 Oct 2021,20211024,83 Lake Weyba Drive,WEYBA DOWNS,QLD,4562,-26.4387989,153.061691,6,4,3,House,House,False,4003,m2,False
2017295486,listing,/46-sunrise-road-eumundi-qld-4562-2017295486,1100000,is-sold,Sold by private treaty 16 Oct 2021,20211016,46 Sunrise Road,EUMUNDI,QLD,4562,-26.45257,152.963745,4,2,4,House,House,False,2213,m2,False
2017311913,listing,/725-browns-creek-road-eerwah-vale-qld-4562-2017311913,1210000,is-sold,Sold by private treaty 22 Oct 2021,20211022,725 Browns Creek Road,EERWAH VALE,QLD,4562,-26.5013046,152.907852,3,2,,House,House,False,8708,m2,False
2017321172,listing,/75-jocelyn-drive-eumundi-qld-4562-2017321172,,is-sold,Sold by private treaty 27 Oct 2021,20211027,75 Jocelyn Drive,EUMUNDI,QLD,4562,-26.45606,152.970474,4,2,2,House,House,False,7811,m2,False
2017495239,listing,/18-senegal-rise-doonan-qld-4562-2017495239,2250000,is-sold,Sold by private treaty 08 Oct 2021,20211008,18 Senegal Rise,DOONAN,QLD,4562,-26.421648,153.00798,4,3,2,House,House,True,1.12,ha,False
2017572387,listing,/11-lone-hand-rd-eumundi-qld-4562-2017572387,2800000,is-sold,Sold by private treaty 18 Oct 2021,20211018,11 Lone Hand Rd,EUMUNDI,QLD,4562,-26.4516315,152.955872,4,1,,House,House,True,10.12,ha,False
2016582440,listing,/366-skyring-creek-rd-belli-park-qld-4562-2016582440,575000,is-sold,Sold by private treaty 20 Sep 2021,20210920,366 Skyring Creek Rd,BELLI PARK,QLD,4562,-26.4770012,152.797028,,,,VacantLand,Vacant land,True,3.72,ha,False
2016911015,listing,/85-doonan-bridge-rd-verrierdale-qld-4562-2016911015,2950000,is-sold,Sold by private treaty 17 Sep 2021,20210917,85 Doonan Bridge Rd,VERRIERDALE,QLD,4562,-26.508173,153.042252,4,3,2,House,House,False,0,m2,False
2017004702,listing,/7-christella-place-verrierdale-qld-4562-2017004702,950000,is-sold,Sold by private treaty 06 Sep 2021,20210906,7 Christella Place,VERRIERDALE,QLD,4562,-26.4704571,152.994858,4,2,3,House,House,False,6353,m2,False
2017144704,listing,/308-eumundi-range-road-eumundi-qld-4562-2017144704,2999000,is-sold,Sold by private treaty 08 Sep 2021,20210908,308 Eumundi Range Road,EUMUNDI,QLD,4562,-26.4529266,152.952637,5,3,2,House,House,True,4.01,ha,False
2017178285,listing,/12-silvertop-road-doonan-qld-4562-2017178285,2380000,is-sold,Sold prior to auction 09 Sep 2021,20210909,12 Silvertop Road,DOONAN,QLD,4562,-26.4623814,153.011673,4,3,2,AcreageSemiRural,Acreage / Semi-Rural,True,9614,m2,False
2017179708,listing,/88-redwood-road-doonan-qld-4562-2017179708,1675000,is-sold,Sold at auction 08 Sep 2021,20210908,88 Redwood Road,DOONAN,QLD,4562,-26.4642677,153.011017,5,3,2,AcreageSemiRural,Acreage / Semi-Rural,True,5012,m2,False
2017197512,listing,/102-110-skyring-creek-road-belli-park-qld-4562-2017197512,850000,is-sold,Sold by private treaty 16 Sep 2021,20210916,102-110 Skyring Creek Road,BELLI PARK,QLD,4562,-26.5039158,152.800766,,,,VacantLand,Vacant land,True,56.32,ha,False
2017202187,listing,/20-justin-road-doonan-qld-4562-2017202187,1495000,is-sold,Sold at auction 11 Sep 2021,20210911,20 Justin Road,DOONAN,QLD,4562,-26.4554214,153.014435,3,1,4,House,House,True,2.69,ha,False
2017208262,listing,/403-413-eumundi-range-rd-eumundi-qld-4562-2017208262,1015000,is-sold,Sold by private treaty 07 Sep 2021,20210907,403-413 Eumundi Range Rd,EUMUNDI,QLD,4562,-26.4515762,152.944412,4,2,2,House,House,True,1.01,ha,False
2017208327,listing,/236-264-skyring-creek-road-belli-park-qld-4562-2017208327,1800000,is-sold,Sold by private treaty 15 Sep 2021,20210915,236-264 Skyring Creek Road,BELLI PARK,QLD,4562,-26.4901447,152.800323,4,2,11,House,House,True,18.48,ha,False
2017212895,listing,/2-10-panorama-drive-doonan-qld-4562-2017212895,890000,is-sold,Sold by private treaty 15 Sep 2021,20210915,2-10 Panorama Drive,DOONAN,QLD,4562,-26.4465027,152.981659,4,2,2,House,House,False,5751,m2,False
2017224740,listing,/22-avian-court-doonan-qld-4562-2017224740,1900000,is-sold,Sold by private treaty 14 Sep 2021,20210914,22 Avian Court,DOONAN,QLD,4562,-26.4338,152.997391,4,4,5,House,House,False,6070,m2,False
2017225995,listing,/397-gold-creek-rd-eerwah-vale-qld-4562-2017225995,900000,is-sold,Sold by private treaty 19 Sep 2021,20210919,397 Gold Creek Rd,EERWAH VALE,QLD,4562,-26.4931774,152.917358,4,3,6,House,House,True,2,ha,False
2017239391,listing,/422-gold-creek-road-eerwah-vale-qld-4562-2017239391,1111000,is-sold,Sold by private treaty 22 Sep 2021,20210922,422 Gold Creek Road,EERWAH VALE,QLD,4562,-26.4932652,152.912979,5,3,2,House,House,False,6313,m2,False
2017239429,listing,/73-botanica-circuit-doonan-qld-4562-2017239429,1730000,is-sold,Sold by private treaty 17 Sep 2021,20210917,73 Botanica Circuit,DOONAN,QLD,4562,-26.46595,152.991241,4,2,8,House,House,False,6002,m2,False
2017240227,listing,/10-finley-rd-eumundi-qld-4562-2017240227,900000,is-sold,Sold by private treaty 07 Sep 2021,20210907,10 Finley Rd,EUMUNDI,QLD,4562,-26.4638462,152.952881,3,1,1,House,House,False,0,m2,False
2017243623,listing,/18-mallee-close-doonan-qld-4562-2017243623,1375000,is-sold,Sold by private treaty 25 Sep 2021,20210925,18 Mallee Close,DOONAN,QLD,4562,-26.47099,153.011429,2,2,6,House,House,True,1.55,ha,False
2017246053,listing,/4-william-road-eumundi-qld-4562-2017246053,1079112,is-sold,Sold by private treaty 13 Sep 2021,20210913,4 William Road,EUMUNDI,QLD,4562,-26.4816246,152.950867,4,2,1,House,House,False,703,m2,False
2017247199,listing,/2-coast-view-parade-doonan-qld-4562-2017247199,2200000,is-sold,Sold prior to auction 21 Sep 2021,20210921,2 Coast View Parade,DOONAN,QLD,4562,-26.4594345,152.9863,4,2,2,AcreageSemiRural,Acreage / Semi-Rural,True,5101,m2,False
2017501371,listing,/4-senegal-rise-doonan-qld-4562-2017501371,1975000,is-sold,Sold by private treaty 16 Sep 2021,20210916,4 Senegal Rise,DOONAN,QLD,4562,-26.4212151,153.012344,4,2,5,House,House,True,1.01,ha,False
2016948726,listing,/130-duke-road-doonan-qld-4562-2016948726,760000,is-sold,Sold by private treaty 27 Aug 2021,20210827,130 Duke Road,DOONAN,QLD,4562,-26.4532146,152.9985,1,1,2,House,House,False,6000,m2,False
2016995323,listing,/30-crescent-road-eumundi-qld-4562-2016995323,830000,is-sold,Sold by private treaty 17 Aug 2021,20210817,30 Crescent Road,EUMUNDI,QLD,4562,-26.47759,152.950821,4,2,,House,House,False,1581,m2,False
2017023892,listing,/11-rangeview-street-eumundi-qld-4562-2017023892,,is-sold,Sold by private treaty 31 Aug 2021,20210831,11 Rangeview Street,EUMUNDI,QLD,4562,-26.446043,152.939835,4,3,5,House,House,False,7992,m2,False
2017050798,listing,/393-401-eumundi-range-road-eumundi-qld-4562-2017050798,1700000,is-sold,Sold by private treaty 13 Aug 2021,20210813,393-401 Eumundi Range Road,EUMUNDI,QLD,4562,-26.45186,152.94516,6,3,6,House,House,True,10000,m2,False
2017052928,listing,/1841-eumundi-kenilworth-road-belli-park-qld-4562-2017052928,1100000,is-sold,Sold by private treaty 23 Aug 2021,20210823,1841 Eumundi Kenilworth Road,BELLI PARK,QLD,4562,-26.5231724,152.788742,3,2,3,House,House,True,22.18,ha,False
2017057027,listing,/85-87-tallgum-avenue-verrierdale-qld-4562-2017057027,1140000,is-sold,Sold by private treaty 01 Sep 2021,20210901,85-87 Tallgum Avenue,VERRIERDALE,QLD,4562,-26.4647636,152.981583,3,2,6,House,House,False,6437,m2,False
2017081844,listing,/45-hatfield-road-eerwah-vale-qld-4562-2017081844,1465000,is-sold,Sold by private treaty 20 Aug 2021,20210820,45 Hatfield Road,EERWAH VALE,QLD,4562,-26.4839268,152.9415,6,3,5,House,House,True,9.17,ha,False
2017086636,listing,/4-piccabeen-street-doonan-qld-4562-2017086636,1350000,is-sold,Sold by private treaty 27 Aug 2021,20210827,4 Piccabeen Street,DOONAN,QLD,4562,-26.424984,153.011841,5,2,2,AcreageSemiRural,Acreage / Semi-Rural,True,9893,m2,False
2017098909,listing,/155-seib-road-eumundi-qld-4562-2017098909,2950000,is-sold,Sold by private treaty 20 Aug 2021,20210820,155 Seib Road,EUMUNDI,QLD,4562,-26.4877567,152.967316,3,3,3,House,House,False,19900,m2,False
2017107097,listing,/60-redwood-road-doonan-qld-4562-2017107097,1290000,is-sold,Sold by private treaty 17 Aug 2021,20210817,60 Redwood Road,DOONAN,QLD,4562,-26.4632626,153.008163,5,3,12,House,House,False,5773,m2,False
2017143733,listing,/553-eumundi-kenilworth-rd-eerwah-vale-qld-4562-2017143733,667000,is-sold,Sold by private treaty 30 Aug 2021,20210830,553 Eumundi-Kenilworth Rd,EERWAH VALE,QLD,4562,-26.4776878,152.8871,3,2,5,Rural,Rural,True,1.06,ha,False
2017149283,listing,/227-229-sunrise-road-doonan-qld-4562-2017149283,1500000,is-sold,Sold by private treaty 14 Aug 2021,20210814,227-229 Sunrise Road,DOONAN,QLD,4562,-26.4436321,152.977554,4,1,3,House,House,True,1.01,ha,False
2017150368,listing,/7-panorama-dr-doonan-qld-4562-2017150368,1350000,is-sold,Sold by private treaty 04 Aug 2021,20210804,7 Panorama Dr,DOONAN,QLD,4562,-26.4475,152.9819,6,4,2,House,House,False,5000,m2,False
2017152572,listing,/54-valley-dr-doonan-qld-4562-2017152572,1725000,is-sold,Sold by private treaty 18 Aug 2021,20210818,54 Valley Dr,DOONAN,QLD,4562,-26.4407063,152.988251,3,2,6,House,House,False,5426,m2,False
2017167767,listing,/15-clifton-place-eumundi-qld-4562-2017167767,503000,is-sold,Sold by private treaty 27 Aug 2021,20210827,15 Clifton Place,EUMUNDI,QLD,4562,-26.474968,152.9504,,,,VacantLand,Vacant land,False,1786,m2,False
2017183618,listing,/27-foxtail-rise-doonan-qld-4562-2017183618,2500000,is-sold,Sold by private treaty 28 Aug 2021,20210828,27 Foxtail Rise,DOONAN,QLD,4562,-26.4292164,153.007629,4,3,10,House,House,False,9510,m2,False
2017198271,listing,/39-arbour-place-doonan-qld-4562-2017198271,1414000,is-sold,Sold by private treaty 03 Sep 2021,20210903,39 Arbour Place,DOONAN,QLD,4562,-26.434639,152.999649,4,2,4,House,House,False,6096,m2,False
2017213994,listing,/54-botanica-circuit-doonan-qld-4562-2017213994,2151000,is-sold,Sold by private treaty 03 Sep 2021,20210903,54 Botanica Circuit,DOONAN,QLD,4562,-26.4654732,152.9881,5,2,2,House,House,True,1.66,ha,False
2017230556,listing,/29-viewland-drive-doonan-qld-4562-2017230556,615000,is-sold,Sold by private treaty 02 Sep 2021,20210902,29 Viewland Drive,DOONAN,QLD,4562,-26.4607983,152.9947,,,,VacantLand,Vacant land,False,7599,m2,False
2017233851,listing,/920-eumundi-kenilworth-road-belli-park-qld-4562-2017233851,2850000,is-sold,Sold by private treaty 03 Sep 2021,20210903,920 Eumundi Kenilworth Road,BELLI PARK,QLD,4562,-26.4968071,152.859024,9,7,5,House,House,True,36.01,ha,False
2016536047,listing,/2-livistona-drive-doonan-qld-4562-2016536047,1357000,is-sold,Sold by private treaty 23 Jul 2021,20210723,2 Livistona Drive,DOONAN,QLD,4562,-26.4301739,153.0156,5,3,6,House,House,False,10100,m2,False
2016578420,listing,/12-clifton-place-eumundi-qld-4562-2016578420,350000,is-sold,Sold by private treaty 23 Jul 2021,20210723,12 Clifton Place,EUMUNDI,QLD,4562,-26.4797916,152.948471,,,,VacantLand,Vacant land,False,1188,m2,False
2016660727,listing,/759-eumundi-noosa-rd-doonan-qld-4562-2016660727,800000,is-sold,Sold by private treaty 19 Jul 2021,20210719,759 Eumundi Noosa Rd,DOONAN,QLD,4562,-26.45143,153.0178,,,2,VacantLand,Vacant land,True,2.09,ha,False
2016886149,listing,/224-grays-road-doonan-qld-4562-2016886149,3400000,is-sold,Sold by private treaty 27 Jul 2021,20210727,224 Grays Road,DOONAN,QLD,4562,-26.4639759,153.033447,,,,VacantLand,Vacant land,True,59.08,ha,False
2016890468,listing,/556-bunya-road-eerwah-vale-qld-4562-2016890468,610000,is-sold,Sold by private treaty 20 Jul 2021,20210720,556 Bunya Road,EERWAH VALE,QLD,4562,-26.49487,152.933762,3,1,7,House,House,False,20000,m2,False
2017011796,listing,/152-lenehans-lane-doonan-qld-4562-2017011796,1165000,is-sold,Sold by private treaty 02 Aug 2021,20210802,152 Lenehans Lane,DOONAN,QLD,4562,-26.43029,153.0105,3,2,2,House,House,False,4235,m2,False
2017040698,listing,/55-mount-eerwah-road-eerwah-vale-qld-4562-2017040698,1025000,is-sold,Sold by private treaty 04 Aug 2021,20210804,55 Mount Eerwah Road,EERWAH VALE,QLD,4562,-26.4880924,152.904938,4,3,4,House,House,False,15300,m2,False
2017072349,listing,/1133-eumundi-noosa-rd-verrierdale-qld-4562-2017072349,1825000,is-sold,Sold by private treaty 02 Aug 2021,20210802,1133 Eumundi Noosa Rd,VERRIERDALE,QLD,4562,-26.47206,152.988434,4,2,8,House,House,False,0,m2,False
2017079673,listing,/42-greenacre-rd-verrierdale-qld-4562-2017079673,1040000,is-sold,Sold by private treaty 23 Jul 2021,20210723,42 Greenacre Rd,VERRIERDALE,QLD,4562,-26.4664783,152.9796,2,2,8,House,House,True,1.2,ha,False
2017084519,listing,/10-geebung-lane-doonan-qld-4562-2017084519,815000,is-sold,Sold by private treaty 04 Aug 2021,20210804,10 Geebung Lane,DOONAN,QLD,4562,-26.4308376,153.005569,,,,VacantLand,Vacant land,False,20300,m2,False
2017093481,listing,/belli-park-qld-4562-2017093481,900000,is-sold,Sold at auction 16 Jul 2021,20210716,,BELLI PARK,QLD,4562,-26.4854546,152.7871,4,2,6,House,House,False,0,m2,False
2017101624,listing,/2-lilly-pilly-rise-eumundi-qld-4562-2017101624,1340000,is-sold,Sold by private treaty 14 Jul 2021,20210714,2 Lilly Pilly Rise,EUMUNDI,QLD,4562,-26.4547977,152.974274,4,2,2,House,House,False,4630,m2,False
2017115022,listing,/74-valley-drive-doonan-qld-4562-2017115022,1460000,is-sold,Sold by private treaty 26 Jul 2021,20210726,74 Valley Drive,DOONAN,QLD,4562,-26.4420376,152.987045,4,3,4,House,House,False,5095,m2,False
2017118427,listing,/1396-eumundi-noosa-rd-eumundi-qld-4562-2017118427,720000,is-sold,Sold by private treaty 19 Jul 2021,20210719,1396 Eumundi Noosa Rd,EUMUNDI,QLD,4562,-26.471817,152.964249,,,,VacantLand,Vacant land,False,7116,m2,False
2017124620,listing,/87-95-eumundi-range-road-eumundi-qld-4562-2017124620,3550000,is-sold,Sold by private treaty 22 Jul 2021,20210722,87-95 Eumundi Range Road,EUMUNDI,QLD,4562,-26.4644642,152.95961,3,3,5,House,House,False,77400,m2,False
2017139511,listing,/62-jocelyn-drive-eumundi-qld-4562-2017139511,,is-sold,Sold by private treaty 20 Jul 2021,20210720,62 Jocelyn Drive,EUMUNDI,QLD,4562,-26.4552383,152.969116,4,3,4,House,House,False,5607,m2,False
2017152131,listing,/351-353-eumundi-range-rd-eumundi-qld-4562-2017152131,1800000,is-sold,Sold by private treaty 15 Jul 2021,20210715,351-353 Eumundi Range Rd,EUMUNDI,QLD,4562,-26.4505558,152.949158,4,2,2,House,House,True,2.47,ha,False
2017165418,listing,/69-wust-rd-doonan-qld-4562-2017165418,870000,is-sold,Sold by private treaty 23 Jul 2021,20210723,69 Wust Rd,DOONAN,QLD,4562,-26.4392223,152.9952,3,2,4,AcreageSemiRural,Acreage / Semi-Rural,True,5518,m2,False
2017501347,listing,/1-naturalist-place-doonan-qld-4562-2017501347,1900000,is-sold,Sold by private treaty 17 Jul 2021,20210717,1 Naturalist Place,DOONAN,QLD,4562,-26.4637985,152.9886,4,2,4,House,House,False,6421,m2,False
2017539876,listing,/75-paradise-dr-weyba-downs-qld-4562-2017539876,1600000,is-sold,Sold by private treaty 17 Jul 2021,20210717,75 Paradise Dr,WEYBA DOWNS,QLD,4562,-26.43819,153.0547,5,2,4,House,House,False,0,m2,False
2016667694,listing,/3-piccabeen-st-doonan-qld-4562-2016667694,1835000,is-sold,Sold by private treaty 09 Jul 2021,20210709,3 Piccabeen St,DOONAN,QLD,4562,-26.4254,153.012451,5,2,8,House,House,False,8211,m2,False
2016696177,listing,/38-viewland-drive-doonan-qld-4562-2016696177,670000,is-sold,Sold by private treaty 28 Jun 2021,20210628,38 Viewland Drive,DOONAN,QLD,4562,-26.4608383,152.996887,1,1,2,House,House,False,5138,m2,False
2016769950,listing,/135-solar-rd-eumundi-qld-4562-2016769950,2090000,is-sold,Sold by private treaty 06 Jul 2021,20210706,135 Solar Rd,EUMUNDI,QLD,4562,-26.4363289,152.965775,,,10,VacantLand,Vacant land,True,8.14,ha,False
2016877277,listing,/2-18-whyandra-cl-doonan-qld-4562-2016877277,1680000,is-sold,Sold by private treaty 24 Jun 2021,20210624,2-18 Whyandra Cl,DOONAN,QLD,4562,-26.4481869,152.993439,4,3,4,House,House,True,1.33,ha,False
2016883933,listing,/24-paddy-melon-lane-belli-park-qld-4562-2016883933,1500000,is-sold,Sold by private treaty 30 Jun 2021,20210630,24 Paddy Melon Lane,BELLI PARK,QLD,4562,-26.5076141,152.8433,4,2,7,House,House,False,135200,m2,False
2016903655,listing,/178-duke-road-doonan-qld-4562-2016903655,1050000,is-sold,Sold by private treaty 25 Jun 2021,20210625,178 Duke Road,DOONAN,QLD,4562,-26.4515,152.994827,3,2,7,House,House,False,0,m2,False
2016904414,listing,/105-panorama-dr-doonan-qld-4562-2016904414,2700000,is-sold,Sold by private treaty 01 Jul 2021,20210701,105 Panorama Dr,DOONAN,QLD,4562,-26.4539013,152.978745,4,4,5,House,House,False,6099,m2,False
2016907346,listing,/4-mallee-cl-doonan-qld-4562-2016907346,1412000,is-sold,Sold by private treaty 12 Jul 2021,20210712,4 Mallee Cl,DOONAN,QLD,4562,-26.4704,153.008,4,3,6,House,House,False,7701,m2,False
2016968832,listing,/335-duke-road-doonan-qld-4562-2016968832,2850000,is-sold,Sold by private treaty 26 Jun 2021,20210626,335 Duke Road,DOONAN,QLD,4562,-26.444128,152.981323,5,5,2,House,House,True,1.13,ha,False
2016971252,listing,/55-arbour-place-doonan-qld-4562-2016971252,2117000,is-sold,Sold by private treaty 12 Jul 2021,20210712,55 Arbour Place,DOONAN,QLD,4562,-26.4362659,152.999161,8,6,5,House,House,False,5503,m2,False
2016987599,listing,/108-main-camp-road-eerwah-vale-qld-4562-2016987599,1090000,is-sold,Sold by private treaty 09 Jul 2021,20210709,108 Main Camp Road,EERWAH VALE,QLD,4562,-26.4501286,152.93399,5,3,7,House,House,False,14200,m2,False
2016995991,listing,/18-eagle-farm-close-doonan-qld-4562-2016995991,825000,is-sold,Sold by private treaty 09 Jul 2021,20210709,18 Eagle Farm Close,DOONAN,QLD,4562,-26.4462032,152.988739,,,,VacantLand,Vacant land,False,9226,m2,False
2017008365,listing,/68-golden-rain-lane-eerwah-vale-qld-4562-2017008365,800000,is-sold,Sold by private treaty 12 Jul 2021,20210712,68 Golden Rain Lane,EERWAH VALE,QLD,4562,-26.48993,152.934769,5,3,2,House,House,False,40100,m2,False
2017008962,listing,/76-golden-rain-lane-eerwah-vale-qld-4562-2017008962,701000,is-sold,Sold by private treaty 05 Jul 2021,20210705,76 Golden Rain Lane,EERWAH VALE,QLD,4562,-26.4858036,152.93251,,,,VacantLand,Vacant land,False,182700,m2,False
2017024963,listing,/16-blueberry-lane-eumundi-qld-4562-2017024963,1165000,is-sold,Sold by private treaty 14 Jul 2021,20210714,16 Blueberry Lane,EUMUNDI,QLD,4562,-26.45167,152.973724,2,2,4,House,House,False,4960,m2,False
2017035418,listing,/42-calty-close-verrierdale-qld-4562-2017035418,810000,is-sold,Sold by private treaty 25 Jun 2021,20210625,42 Calty Close,VERRIERDALE,QLD,4562,-26.4673347,152.993851,4,2,2,House,House,False,4454,m2,False
2017079855,listing,/12-noomar-drive-doonan-qld-4562-2017079855,1070000,is-sold,Sold by private treaty 01 Jul 2021,20210701,12 Noomar Drive,DOONAN,QLD,4562,-26.4616928,152.993942,4,3,4,House,House,False,7394,m2,False
2017080031,listing,/5-crescent-road-eumundi-qld-4562-2017080031,600000,is-sold,Sold by private treaty 22 Jun 2021,20210622,5 Crescent Road,EUMUNDI,QLD,4562,-26.4824142,152.951462,,,,VacantLand,Vacant land,False,4047,m2,False
2017124973,listing,/12-justin-road-doonan-qld-4562-2017124973,975000,is-sold,Sold by private treaty 11 Jul 2021,20210711,12 Justin Road,DOONAN,QLD,4562,-26.4540024,153.01474,3,1,2,House,House,False,4387,m2,False
2017227061,listing,/270-beddington-road-doonan-qld-4562-2017227061,1550000,is-sold,Sold by private treaty 25 Jun 2021,20210625,270 Beddington Road,DOONAN,QLD,4562,-26.4311676,153.007278,5,2,4,House,House,False,5709,m2,False
2016584429,listing,/2-anderson-road-eerwah-vale-qld-4562-2016584429,1317000,is-sold,Sold by private treaty 14 May 2021,20210514,2 Anderson Road,EERWAH VALE,QLD,4562,-26.4822559,152.917191,4,2,4,House,House,False,20000,m2,False
2016632680,listing,/834-eumundi-noosa-rd-doonan-qld-4562-2016632680,535000,is-sold,Sold by private treaty 15 May 2021,20210515,834 Eumundi Noosa Rd,DOONAN,QLD,4562,-26.4535236,153.011429,,,,VacantLand,Vacant land,False,6018,m2,False
2016796050,listing,/11-senegal-rise-doonan-qld-4562-2016796050,900000,is-sold,Sold by private treaty 07 Jun 2021,20210607,11 Senegal Rise,DOONAN,QLD,4562,-26.4221916,153.007782,,,,VacantLand,Vacant land,False,10560,m2,False
2016889412,listing,/58-90-dean-road-verrierdale-qld-4562-2016889412,1900000,is-sold,Sold by private treaty 24 May 2021,20210524,58-90 Dean Road,VERRIERDALE,QLD,4562,-26.4749737,152.9939,8,3,6,House,House,True,6.6,ha,False
2016919635,listing,/223-eumarella-road-weyba-downs-qld-4562-2016919635,2385000,is-sold,Sold by private treaty 14 May 2021,20210514,223 Eumarella Road,WEYBA DOWNS,QLD,4562,-26.4386826,153.055557,5,4,5,AcreageSemiRural,Acreage / Semi-Rural,True,5000,m2,False
2016933402,listing,/408-gold-creek-road-eerwah-vale-qld-4562-2016933402,1160000,is-sold,Sold by private treaty 21 May 2021,20210521,408 Gold Creek Road,EERWAH VALE,QLD,4562,-26.4935875,152.914368,4,3,6,House,House,False,6481,m2,False
2016950079,listing,/912-918-eumundi-kenilworth-road-belli-park-qld-4562-2016950079,1100000,is-sold,Sold by private treaty 10 Jun 2021,20210610,912-918 Eumundi Kenilworth Road,BELLI PARK,QLD,4562,-26.4947815,152.863068,,,,VacantLand,Vacant land,False,202342,m2,False
2016951205,listing,/197-valley-drive-doonan-qld-4562-2016951205,1760000,is-sold,Sold by private treaty 13 May 2021,20210513,197 Valley Drive,DOONAN,QLD,4562,-26.4455585,152.996841,5,3,6,House,House,False,5119,m2,False
2016952343,listing,/343-347-sunrise-road-doonan-qld-4562-2016952343,2400000,is-sold,Sold by private treaty 29 May 2021,20210529,343-347 Sunrise Road,DOONAN,QLD,4562,-26.4385567,152.987228,5,4,8,House,House,False,5934,m2,False
2016959113,listing,/119-wust-road-doonan-qld-4562-2016959113,2550000,is-sold,Sold by private treaty 14 May 2021,20210514,119 Wust Road,DOONAN,QLD,4562,-26.4375286,152.999832,6,4,6,AcreageSemiRural,Acreage / Semi-Rural,True,5868,m2,False
2016962375,listing,/34-42-panorama-dr-doonan-qld-4562-2016962375,1100000,is-sold,Sold by private treaty 14 Jun 2021,20210614,34-42 Panorama Dr,DOONAN,QLD,4562,-26.4473476,152.979279,4,2,4,House,House,False,5002,m2,False
2016974906,listing,/201-duke-road-doonan-qld-4562-2016974906,675000,is-sold,Sold by private treaty 21 Jun 2021,20210621,201 Duke Road,DOONAN,QLD,4562,-26.44949,152.991867,,,,VacantLand,Vacant land,True,1.15,ha,False
2016983629,listing,/19-minura-court-doonan-qld-4562-2016983629,995000,is-sold,Sold by private treaty 23 May 2021,20210523,19 Minura Court,DOONAN,QLD,4562,-26.4296875,153.000961,,,,VacantLand,Vacant land,False,7456,m2,False
2016986890,listing,/1389-eumundi-noosa-road-eumundi-qld-4562-2016986890,1182500,is-sold,Sold by private treaty 20 Jun 2021,20210620,1389 Eumundi Noosa Road,EUMUNDI,QLD,4562,-26.4736233,152.964859,6,3,4,House,House,False,30000,m2,False
2016996837,listing,/391-sunrise-road-doonan-qld-4562-2016996837,2400000,is-sold,Sold by private treaty 04 Jun 2021,20210604,391 Sunrise Road,DOONAN,QLD,4562,-26.43373,152.986877,4,4,3,House,House,False,6762,m2,False
2017012700,listing,/29-meadow-court-doonan-qld-4562-2017012700,2390000,is-sold,Sold at auction 06 Jun 2021,20210606,29 Meadow Court,DOONAN,QLD,4562,-26.4456024,153.0002,4,3,2,House,House,False,7891,m2,False
2017013960,listing,/29-forest-ridge-drive-doonan-qld-4562-2017013960,2270000,is-sold,Sold by private treaty 13 Jun 2021,20210613,29 Forest Ridge Drive,DOONAN,QLD,4562,-26.4613,152.985,4,3,6,House,House,False,4575,m2,False
2017015095,listing,/9-11-finley-road-eumundi-qld-4562-2017015095,975000,is-sold,Sold at auction 11 Jun 2021,20210611,9-11 Finley Road,EUMUNDI,QLD,4562,-26.4645538,152.953217,4,1,3,House,House,False,0,m2,False
2017020769,listing,/476-494-eumundi-range-road-eumundi-qld-4562-2017020769,820000,is-sold,Sold by private treaty 15 Jun 2021,20210615,476-494 Eumundi Range Road,EUMUNDI,QLD,4562,-26.4476814,152.938812,3,2,2,House,House,False,6343,m2,False
2017026413,listing,/19-memorial-drive-eumundi-qld-4562-2017026413,665000,is-sold,Sold by private treaty 15 Jun 2021,20210615,19 Memorial Drive,EUMUNDI,QLD,4562,-26.48448,152.951233,3,1,1,House,House,False,926,m2,False
2016484496,listing,/17-sterling-drive-eumundi-qld-4562-2016484496,1435000,is-sold,Sold by private treaty 14 Apr 2021,20210414,17 Sterling Drive,EUMUNDI,QLD,4562,-26.48278,152.95,4,3,4,House,House,False,7422,m2,False
2016664906,listing,/34-coast-view-parade-doonan-qld-4562-2016664906,1409000,is-sold,Sold by private treaty 27 Apr 2021,20210427,34 Coast View Parade,DOONAN,QLD,4562,-26.4605179,152.988892,6,4,6,House,House,False,6451,m2,False
2016734055,listing,/proposed-lot-5-1396-eumundi-noosa-road-eumundi-qld-4562-2016734055,,is-sold,Sold by private treaty 19 Apr 2021,20210419,Proposed Lot 5/1396 Eumundi Noosa Road,EUMUNDI,QLD,4562,-26.4719658,152.9635,,,,VacantLand,Vacant land,True,1.48,ha,False
2016768312,listing,/83-main-camp-rd-eerwah-vale-qld-4562-2016768312,505000,is-sold,Sold by private treaty 27 Apr 2021,20210427,83 Main Camp Rd,EERWAH VALE,QLD,4562,-26.45058,152.932419,,,,VacantLand,Vacant land,True,4.45,ha,False
2016792710,listing,/16-paddy-melon-lane-belli-park-qld-4562-2016792710,835000,is-sold,Sold by private treaty 15 Apr 2021,20210415,16 Paddy Melon Lane,BELLI PARK,QLD,4562,-26.50805,152.84584,3,2,2,House,House,False,20100,m2,False
2016854684,listing,/13-calty-close-verrierdale-qld-4562-2016854684,1070000,is-sold,Sold by private treaty 10 Apr 2021,20210410,13 Calty Close,VERRIERDALE,QLD,4562,-26.4701576,152.993713,4,2,6,House,House,False,4249,m2,False
2016860338,listing,/121c-memorial-drive-eumundi-qld-4562-2016860338,965000,is-sold,Sold by private treaty 14 Apr 2021,20210414,121C Memorial Drive,EUMUNDI,QLD,4562,-26.47485,152.948013,5,2,4,House,House,False,2577,m2,False
2016887936,listing,/5-etheridge-street-eumundi-qld-4562-2016887936,715000,is-sold,Sold by private treaty 29 Apr 2021,20210429,5 Etheridge Street,EUMUNDI,QLD,4562,-26.476368,152.950333,2,2,,House,House,False,726,m2,False
2016890426,listing,/14-christella-place-verrierdale-qld-4562-2016890426,900000,is-sold,Sold by private treaty 19 Apr 2021,20210419,14 Christella Place,VERRIERDALE,QLD,4562,-26.4719582,152.995239,3,2,4,House,House,False,7087,m2,False
2016905233,listing,/24-cherry-lane-belli-park-qld-4562-2016905233,870000,is-sold,Sold by private treaty 15 Apr 2021,20210415,24 Cherry Lane,BELLI PARK,QLD,4562,-26.4878922,152.865692,3,2,5,House,House,False,6596,m2,False
2016906049,listing,/23-gidgee-court-doonan-qld-4562-2016906049,1000000,is-sold,Sold by private treaty 16 Apr 2021,20210416,23 Gidgee Court,DOONAN,QLD,4562,-26.4693584,153.016281,4,3,2,House,House,False,7513,m2,False
2016910735,listing,/121c-memorial-drive-eumundi-qld-4562-2016910735,965000,is-sold,Sold by private treaty 14 Apr 2021,20210414,121C Memorial Drive,EUMUNDI,QLD,4562,-26.47485,152.948013,5,2,4,House,House,False,2577,m2,False
2016912942,listing,/15-piccabeen-street-doonan-qld-4562-2016912942,1200000,is-sold,Sold by private treaty 29 Apr 2021,20210429,15 Piccabeen Street,DOONAN,QLD,4562,-26.4244423,153.009583,4,2,4,House,House,False,0,m2,False
2016912961,listing,/209-valley-drive-doonan-qld-4562-2016912961,1905000,is-sold,Sold by private treaty 01 May 2021,20210501,209 Valley Drive,DOONAN,QLD,4562,-26.4450531,152.998962,4,2,2,House,House,False,6039,m2,False
2016917029,listing,/14-22-botanica-circuit-doonan-qld-4562-2016917029,1520000,is-sold,Sold by private treaty 04 May 2021,20210504,14 - 22 Botanica Circuit,DOONAN,QLD,4562,-26.4640484,152.991928,3,2,4,House,House,False,6016,m2,False
2016921054,listing,/67-botanica-circuit-doonan-qld-4562-2016921054,1750000,is-sold,Sold by private treaty 12 Apr 2021,20210412,67 Botanica Circuit,DOONAN,QLD,4562,-26.4655228,152.9907,4,3,4,House,House,False,6060,m2,False
2016926455,listing,/eumundi-qld-4562-2016926455,780000,is-sold,Sold by private treaty 11 Apr 2021,20210411,,EUMUNDI,QLD,4562,-26.474968,152.9504,4,2,2,House,House,False,0,m2,False
2016942548,listing,/8-littleridge-court-doonan-qld-4562-2016942548,1200000,is-sold,Sold by private treaty 06 May 2021,20210506,8 Littleridge Court,DOONAN,QLD,4562,-26.4534435,153.009262,3,2,5,House,House,False,5763,m2,False
2016951630,listing,/10-bond-court-doonan-qld-4562-2016951630,1510000,is-sold,Sold by private treaty 07 May 2021,20210507,10 Bond Court,DOONAN,QLD,4562,-26.435482,152.991379,3,2,2,House,House,False,5948,m2,False
2016986342,listing,/28-omega-lane-eumundi-qld-4562-2016986342,1250000,is-sold,Sold by private treaty 22 Apr 2021,20210422,28 Omega Lane,EUMUNDI,QLD,4562,-26.4696922,152.9561,3,1,2,House,House,False,0,m2,False
2016562426,listing,/21-pryor-road-verrierdale-qld-4562-2016562426,1330000,is-sold,Sold by private treaty 18 Mar 2021,20210318,21 Pryor Road,VERRIERDALE,QLD,4562,-26.4873238,152.994873,3,2,8,Rural,Rural,True,4,ha,False
2016663917,listing,/8-payne-street-eumundi-qld-4562-2016663917,850000,is-sold,Sold by private treaty 22 Mar 2021,20210322,8 Payne Street,EUMUNDI,QLD,4562,-26.4577866,152.952789,3,2,2,House,House,False,7843,m2,False
2016668967,listing,/2-clifton-place-eumundi-qld-4562-2016668967,400000,is-sold,Sold by private treaty 22 Mar 2021,20210322,2 Clifton Place,EUMUNDI,QLD,4562,-26.4797916,152.948471,,,,VacantLand,Vacant land,False,1530,m2,False
2016693798,listing,/49-lake-weyba-drive-weyba-downs-qld-4562-2016693798,2195000,is-sold,Sold by private treaty 31 Mar 2021,20210331,49 Lake Weyba Drive,WEYBA DOWNS,QLD,4562,-26.4400978,153.05719,5,4,7,House,House,False,4711,m2,False
2016694847,listing,/50-52-marlock-court-doonan-qld-4562-2016694847,930000,is-sold,Sold by private treaty 18 Mar 2021,20210318,50-52 Marlock Court,DOONAN,QLD,4562,-26.4679356,153.014557,4,3,8,House,House,False,4138,m2,False
2016713437,listing,/280-mirbelia-place-doonan-qld-4562-2016713437,2200000,is-sold,Sold by private treaty 16 Mar 2021,20210316,280 Mirbelia Place,DOONAN,QLD,4562,-26.43429,153.015945,4,2,6,House,House,True,1.78,ha,False
2016713507,listing,/13-paige-lane-doonan-qld-4562-2016713507,2120000,is-sold,Sold by private treaty 08 Apr 2021,20210408,13 Paige Lane,DOONAN,QLD,4562,-26.4448643,153.00882,4,4,9,House,House,False,5712,m2,False
2016734876,listing,/1414-eumundi-noosa-road-eumundi-qld-4562-2016734876,773500,is-sold,Sold by private treaty 29 Mar 2021,20210329,1414 Eumundi Noosa Road,EUMUNDI,QLD,4562,-26.4721737,152.963272,4,2,6,House,House,False,4009,m2,False
2016735841,listing,/24-crescent-road-eumundi-qld-4562-2016735841,620000,is-sold,Sold by private treaty 25 Mar 2021,20210325,24 Crescent Road,EUMUNDI,QLD,4562,-26.4784145,152.951477,2,1,1,House,House,False,1548,m2,False
2016754918,listing,/14-booniah-court-eumundi-qld-4562-2016754918,789000,is-sold,Sold by private treaty 24 Mar 2021,20210324,14 Booniah Court,EUMUNDI,QLD,4562,-26.4735985,152.946686,4,2,2,House,House,False,929,m2,False
2016784766,listing,/182-boyle-road-belli-park-qld-4562-2016784766,730000,is-sold,Sold by private treaty 26 Mar 2021,20210326,182 Boyle Road,BELLI PARK,QLD,4562,-26.51481,152.768921,4,3,10,House,House,False,200000,m2,False
2016803972,listing,/92-dean-road-verrierdale-qld-4562-2016803972,1800000,is-sold,Sold by private treaty 08 Apr 2021,20210408,92 Dean Road,VERRIERDALE,QLD,4562,-26.4769573,152.992859,4,3,6,House,House,False,31282,m2,False
2016807044,listing,/29-gees-road-eerwah-vale-qld-4562-2016807044,625000,is-sold,Sold by private treaty 22 Mar 2021,20210322,29 Gees Road,EERWAH VALE,QLD,4562,-26.4956989,152.925125,4,2,2,AcreageSemiRural,Acreage / Semi-Rural,True,3189,m2,False
2016817998,listing,/12-langfeldt-road-belli-park-qld-4562-2016817998,793000,is-sold,Sold by private treaty 23 Mar 2021,20210323,12 Langfeldt Road,BELLI PARK,QLD,4562,-26.481081,152.872879,4,2,6,AcreageSemiRural,Acreage / Semi-Rural,True,1.99,ha,False
2016827761,listing,/31-fullager-drive-eumundi-qld-4562-2016827761,695000,is-sold,Sold by private treaty 08 Apr 2021,20210408,31 Fullager Drive,EUMUNDI,QLD,4562,-26.4736652,152.94429,3,2,2,House,House,False,700,m2,False
2016839021,listing,/140-146-browns-road-belli-park-qld-4562-2016839021,539000,is-sold,Sold by private treaty 18 Mar 2021,20210318,140-146 Browns Road,BELLI PARK,QLD,4562,-26.4898376,152.855759,3,1,2,House,House,False,13560,m2,False
2016860414,listing,/17-gumleaf-close-doonan-qld-4562-2016860414,675000,is-sold,Sold by private treaty 09 Apr 2021,20210409,17 Gumleaf Close,DOONAN,QLD,4562,-26.46163,152.983551,,,,VacantLand,Vacant land,False,7148,m2,False
2016881555,listing,/41-memorial-dr-eumundi-qld-4562-2016881555,716000,is-sold,Sold by private treaty 04 Apr 2021,20210404,41 Memorial Dr,EUMUNDI,QLD,4562,-26.4805965,152.95372,3,2,2,House,House,False,683,m2,False
2016882469,listing,/219-sunrise-road-eumundi-qld-4562-2016882469,1325000,is-sold,Sold at auction 09 Apr 2021,20210409,219 Sunrise Road,EUMUNDI,QLD,4562,-26.4444141,152.97612,5,3,8,House,House,False,7996,m2,False
2016889845,listing,/117-123-duke-rd-doonan-qld-4562-2016889845,825000,is-sold,Sold by private treaty 22 Mar 2021,20210322,117-123 Duke Rd,DOONAN,QLD,4562,-26.4522629,152.999466,4,2,2,House,House,False,7173,m2,False
2013305709,listing,/108-panorama-drive-doonan-qld-4562-2013305709,,is-sold,Sold by private treaty 10 Mar 2021,20210310,108 panorama drive,DOONAN,QLD,4562,-26.4544315,152.9775,,,,VacantLand,Vacant land,True,1.29,ha,False
2016262012,listing,/23-25-marlock-ct-doonan-qld-4562-2016262012,680000,is-sold,Sold by private treaty 01 Mar 2021,20210301,23-25 Marlock Ct,DOONAN,QLD,4562,-26.4662876,153.013885,3,1,3,House,House,False,6363,m2,False
2016368608,listing,/46-coast-view-parade-doonan-qld-4562-2016368608,2975000,is-sold,Sold by private treaty 06 Mar 2021,20210306,46 Coast View Parade,DOONAN,QLD,4562,-26.461483,152.990067,5,3,6,House,House,False,8072,m2,False
2016469317,listing,/proposed-lot-belli-oak-tree-road-belli-park-qld-4562-2016469317,2100000,is-sold,Sold by private treaty 12 Mar 2021,20210312,Proposed Lot Belli Oak Tree Road,BELLI PARK,QLD,4562,-26.5058823,152.791122,,,,VacantLand,Vacant land,False,145686,m2,False
2016503532,listing,/eumundi-qld-4562-2016503532,450000,is-sold,Sold by private treaty 22 Feb 2021,20210222,,EUMUNDI,QLD,4562,-26.4833336,152.95,,1,,VacantLand,Vacant land,True,4.15,ha,False
2016638827,listing,/53-marlock-court-doonan-qld-4562-2016638827,953000,is-sold,Sold by private treaty 19 Feb 2021,20210219,53 Marlock Court,DOONAN,QLD,4562,-26.4667835,153.015259,5,2,2,House,House,False,0,m2,False
2016641097,listing,/92-valley-drive-doonan-qld-4562-2016641097,4300000,is-sold,Sold by private treaty 04 Mar 2021,20210304,92 Valley Drive,DOONAN,QLD,4562,-26.4433842,152.988129,5,5,4,House,House,False,5736,m2,False
2016645315,listing,/40-caplick-way-eumundi-qld-4562-2016645315,745000,is-sold,Sold by private treaty 02 Mar 2021,20210302,40 Caplick Way,EUMUNDI,QLD,4562,-26.47311,152.95372,3,3,6,House,House,False,1393,m2,False
2016689253,listing,/36-persoonia-lane-doonan-qld-4562-2016689253,2600000,is-sold,Sold by private treaty 03 Mar 2021,20210303,36 Persoonia Lane,DOONAN,QLD,4562,-26.4417229,153.010239,4,2,6,House,House,True,1.1,ha,False
2016691413,listing,/27-crescent-road-eumundi-qld-4562-2016691413,882500,is-sold,Sold by private treaty 15 Mar 2021,20210315,27 Crescent Road,EUMUNDI,QLD,4562,-26.4788437,152.950836,4,2,3,House,House,False,4445,m2,False
2016694784,listing,/13a-crescent-road-eumundi-qld-4562-2016694784,710000,is-sold,Sold by private treaty 26 Feb 2021,20210226,13a Crescent Road,EUMUNDI,QLD,4562,-26.48058,152.950974,2,2,1,House,House,False,1520,m2,False
2016705944,listing,/96-eumundi-kenilworth-road-eerwah-vale-qld-4562-2016705944,450000,is-sold,Sold at auction 23 Feb 2021,20210223,96 Eumundi Kenilworth Road,EERWAH VALE,QLD,4562,-26.46738,152.925613,,,,VacantLand,Vacant land,False,26790,m2,False
2016723433,listing,/lakehouse-5-259-eumarella-rd-weyba-downs-qld-4562-2016723433,810000,is-sold,Sold by private treaty 24 Feb 2021,20210224,Lakehouse 5/259 Eumarella Rd,WEYBA DOWNS,QLD,4562,-26.437849,153.06311,2,2,1,House,House,False,144,m2,False
2016756026,listing,/2-cook-street-eumundi-qld-4562-2016756026,1030000,is-sold,Sold by private treaty 05 Mar 2021,20210305,2 Cook Street,EUMUNDI,QLD,4562,-26.47366,152.95134,2,1,1,House,House,False,1102,m2,False
2016770794,listing,/213-grays-road-doonan-qld-4562-2016770794,1153000,is-sold,Sold by private treaty 12 Mar 2021,20210312,213 Grays Road,DOONAN,QLD,4562,-26.4613724,153.029861,4,3,2,House,House,True,10000,m2,False
2016798466,listing,/565-eumundi-kenilworth-road-eerwah-vale-qld-4562-2016798466,675000,is-sold,Sold by private treaty 23 Feb 2021,20210223,565 Eumundi-Kenilworth Road,EERWAH VALE,QLD,4562,-26.47821,152.884262,3,2,2,House,House,False,9660,m2,False
2016798620,listing,/20-marnie-crescent-doonan-qld-4562-2016798620,1520000,is-sold,Sold by private treaty 06 Mar 2021,20210306,20 Marnie Crescent,DOONAN,QLD,4562,-26.4516468,152.989944,3,2,6,House,House,False,8071,m2,False
2016804005,listing,/89-lenehans-lane-doonan-qld-4562-2016804005,1220000,is-sold,Sold by private treaty 16 Mar 2021,20210316,89 Lenehans Lane,DOONAN,QLD,4562,-26.4318447,153.016068,4,2,6,House,House,False,19900,m2,False
2016811564,listing,/1-grasstree-rd-eumundi-qld-4562-2016811564,1700000,is-sold,Sold by private treaty 21 Feb 2021,20210221,1 Grasstree Rd,EUMUNDI,QLD,4562,-26.4524689,152.935272,,,,VacantLand,Vacant land,True,22.66,ha,False
2016926614,listing,/3-miller-place-eumundi-qld-4562-2016926614,810000,is-sold,Sold by private treaty 23 Feb 2021,20210223,3 Miller Place,EUMUNDI,QLD,4562,-26.4714317,152.943146,4,3,2,House,House,False,1176,m2,False
2015566706,listing,/lot-3-clifton-place-eumundi-qld-4562-2015566706,450000,is-sold,Sold by private treaty 27 Jan 2021,20210127,Lot 3 Clifton Place,EUMUNDI,QLD,4562,-26.4797916,152.948471,,,,VacantLand,Vacant land,False,2107,m2,False
2016011980,listing,/632-doonan-bridge-road-north-doonan-qld-4562-2016011980,2400000,is-sold,Sold by private treaty 05 Feb 2021,20210205,632 Doonan Bridge Road North,DOONAN,QLD,4562,-26.4633045,153.024918,3,2,10,Rural,Rural,True,27.52,ha,False
2016063138,listing,/106-laguna-grove-doonan-qld-4562-2016063138,1075000,is-sold,Sold by private treaty 17 Feb 2021,20210217,106 Laguna Grove,DOONAN,QLD,4562,-26.46936,153.00383,6,3,8,House,House,True,1.82,ha,False
2016300924,listing,/26-panavista-court-doonan-qld-4562-2016300924,551000,is-sold,Sold by private treaty 24 Jan 2021,20210124,26 Panavista Court,DOONAN,QLD,4562,-26.4602661,153.000824,,,,VacantLand,Vacant land,False,7052,m2,False
2016483202,listing,/65-77-ceylon-road-belli-park-qld-4562-2016483202,685000,is-sold,Sold by private treaty 16 Feb 2021,20210216,65-77 Ceylon Road,BELLI PARK,QLD,4562,-26.47384,152.870071,2,1,6,House,House,False,19600,m2,False
2016490378,listing,/26-trafalgar-ct-doonan-qld-4562-2016490378,946000,is-sold,Sold by private treaty 15 Feb 2021,20210215,26 Trafalgar Ct,DOONAN,QLD,4562,-26.4380951,152.996338,4,2,6,House,House,False,6717,m2,False
2016521874,listing,/31-33-panorama-drive-doonan-qld-4562-2016521874,1210000,is-sold,Sold by private treaty 25 Jan 2021,20210125,31-33 Panorama Drive,DOONAN,QLD,4562,-26.4488144,152.979782,3,2,2,House,House,False,5028,m2,False
2016535874,listing,/5-greentree-place-doonan-qld-4562-2016535874,940000,is-sold,Sold by private treaty 05 Feb 2021,20210205,5 Greentree Place,DOONAN,QLD,4562,-26.4379635,152.9938,4,2,2,AcreageSemiRural,Acreage / Semi-Rural,True,4692,m2,False
2016554414,listing,/25-paradise-drive-weyba-downs-qld-4562-2016554414,1200000,is-sold,Sold by private treaty 25 Jan 2021,20210125,25 Paradise Drive,WEYBA DOWNS,QLD,4562,-26.44004,153.049545,6,4,5,AcreageSemiRural,Acreage / Semi-Rural,True,5004,m2,False
2016654768,listing,/224-eumarella-rd-weyba-downs-qld-4562-2016654768,890000,is-sold,Sold by private treaty 04 Feb 2021,20210204,224 EUMARELLA RD,WEYBA DOWNS,QLD,4562,-26.4396343,153.055527,3,2,6,House,House,False,4940,m2,False
2016671361,listing,/61-nylana-way-doonan-qld-4562-2016671361,1050000,is-sold,Sold by private treaty 22 Jan 2021,20210122,61 Nylana Way,DOONAN,QLD,4562,-26.4287834,153.0034,3,2,2,House,House,False,4050,m2,False
2016672985,listing,/75-seib-road-eumundi-qld-4562-2016672985,850000,is-sold,Sold by private treaty 22 Jan 2021,20210122,75 Seib Road,EUMUNDI,QLD,4562,-26.4795589,152.964676,4,3,3,House,House,False,5795,m2,False
2016676789,listing,/3-payne-street-eumundi-qld-4562-2016676789,860000,is-sold,Sold by private treaty 31 Jan 2021,20210131,3 Payne Street,EUMUNDI,QLD,4562,-26.4588051,152.9531,4,2,4,House,House,False,4231,m2,False
2016695837,listing,/19-21-panorama-dr-doonan-qld-4562-2016695837,3575000,is-sold,Sold by private treaty 27 Jan 2021,20210127,19-21 Panorama Dr,DOONAN,QLD,4562,-26.4487686,152.981262,6,4,3,House,House,True,2,ha,False
2016702376,listing,/140-lenehans-lane-doonan-qld-4562-2016702376,2100000,is-sold,Sold by private treaty 12 Feb 2021,20210212,140 Lenehans Lane,DOONAN,QLD,4562,-26.4300671,153.0114,4,4,30,House,House,False,10117,m2,False
2016712251,listing,/27-ceylon-road-belli-park-qld-4562-2016712251,1100000,is-sold,Sold at auction 12 Feb 2021,20210212,27 Ceylon Road,BELLI PARK,QLD,4562,-26.47673,152.873428,,,,VacantLand,Vacant land,True,69.2,ha,False
2016714523,listing,/1-greentree-place-doonan-qld-4562-2016714523,955000,is-sold,Sold by private treaty 16 Feb 2021,20210216,1 Greentree Place,DOONAN,QLD,4562,-26.4384327,152.993942,4,2,4,AcreageSemiRural,Acreage / Semi-Rural,True,4930,m2,False
2016733084,listing,/lot-75-fullager-drive-eumundi-qld-4562-2016733084,480000,is-sold,Sold by private treaty 17 Feb 2021,20210217,Lot 75 Fullager Drive,EUMUNDI,QLD,4562,-26.472784,152.94339,,,,VacantLand,Vacant land,False,2595,m2,False
2016738535,listing,/34-livistona-drive-doonan-qld-4562-2016738535,1120000,is-sold,Sold by private treaty 03 Feb 2021,20210203,34 Livistona Drive,DOONAN,QLD,4562,-26.4224453,153.01506,,,,VacantLand,Vacant land,True,1.01,ha,False
2016787922,listing,/13-clark-crescent-eumundi-qld-4562-2016787922,700000,is-sold,Sold by private treaty 11 Feb 2021,20210211,13 Clark Crescent,EUMUNDI,QLD,4562,-26.4725018,152.944427,4,2,2,House,House,False,700,m2,False
2014879134,listing,/lot-8-tallgum-avenue-doonan-qld-4562-2014879134,,is-sold,Sold by private treaty 08 Jan 2021,20210108,Lot 8 Tallgum Avenue,DOONAN,QLD,4562,-26.4583378,152.981644,,,,VacantLand,Vacant land,True,1.29,ha,False
2015358003,listing,/187-tallgum-avenue-doonan-qld-4562-2015358003,,is-sold,Sold by private treaty 08 Jan 2021,20210108,187 Tallgum Avenue,DOONAN,QLD,4562,-26.4611912,152.981918,,,,VacantLand,Vacant land,True,1.32,ha,False
2016001101,listing,/175-paddy-melon-lane-belli-park-qld-4562-2016001101,775000,is-sold,Sold by private treaty 18 Dec 2020,20201218,175 Paddy Melon Lane,BELLI PARK,QLD,4562,-26.4942551,152.844711,4,2,4,AcreageSemiRural,Acreage / Semi-Rural,True,29.95,ha,False
2016471592,listing,/43a-crescent-road-eumundi-qld-4562-2016471592,700000,is-sold,Sold by private treaty 04 Jan 2021,20210104,43a Crescent Road,EUMUNDI,QLD,4562,-26.4775333,152.94931,2,2,2,House,House,False,2607,m2,False
2016502118,listing,/195-sunrise-road-eumundi-qld-4562-2016502118,670000,is-sold,Sold by private treaty 21 Dec 2020,20201221,195 Sunrise Road,EUMUNDI,QLD,4562,-26.4436378,152.973846,1,1,5,House,House,False,10400,m2,False
2016509930,listing,/verrierdale-qld-4562-2016509930,525000,is-sold,Sold by private treaty 29 Dec 2020,20201229,,VERRIERDALE,QLD,4562,-26.4833336,153.016663,,,,VacantLand,Vacant land,False,4000,m2,False
2016564825,listing,/7-racecourse-rise-eumundi-qld-4562-2016564825,615000,is-sold,Sold by private treaty 06 Jan 2021,20210106,7 Racecourse Rise,EUMUNDI,QLD,4562,-26.4738884,152.946686,3,1,1,House,House,False,707,m2,False
2016589803,listing,/57-regency-road-doonan-qld-4562-2016589803,1395000,is-sold,Sold by private treaty 05 Jan 2021,20210105,57 Regency Road,DOONAN,QLD,4562,-26.43478,152.989029,4,2,2,House,House,False,6000,m2,False
