id,listingType,url,price,tagClassName,tagText,date,street,suburb,state,postcode,lat,lng,beds,baths,parking,propertyType,propertyTypeFormatted,isRural,landSize,landUnit,isRetirement
2018276694,listing,/52-annie-street-howard-qld-4659-2018276694,300000,is-sold,Sold by private treaty 27 Feb 2023,20230227,52 Annie Street,HOWARD,QLD,4659,-25.3203964,152.5526,2,2,2,House,House,False,1275.0,m2,False
2017267607,listing,/howard-qld-4659-2017267607,610000,is-sold,Sold by private treaty 16 Dec 2022,20221216,NaN,HOWARD,QLD,4659,-25.3174171,152.562271,NaN,NaN,NaN,Rural,Rural,True,16.92,ha,False
2017731920,listing,/129-burrum-st-burrum-heads-qld-4659-2017731920,730000,is-sold,Sold by private treaty 09 Dec 2022,20221209,129 Burrum St,BURRUM HEADS,QLD,4659,-25.1885357,152.619049,3,3,3,House,House,False,804.0,m2,False
2017878797,listing,/6-8-kimberly-way-burrum-heads-qld-4659-2017878797,700000,is-sold,Sold by private treaty 17 Feb 2023,20230217,6-8 Kimberly Way,BURRUM HEADS,QLD,4659,-25.1872215,152.608627,4,4,4,House,House,False,831.0,m2,False
2018079192,listing,/12-eds-place-burrum-heads-qld-4659-2018079192,485000,is-sold,Sold by private treaty 17 Feb 2023,20230217,12 Eds Place,BURRUM HEADS,QLD,4659,-25.2153416,152.6372,NaN,NaN,2.0,VacantLand,Vacant land,False,950.0,m2,False
2018172935,listing,/56-esplanade-burrum-heads-qld-4659-2018172935,1375000,is-sold,Sold 14 Dec 2022,20221214,56 ESPLANADE,BURRUM HEADS,QLD,4659,-25.1862888,152.618042,8,8,8,BlockOfUnits,Block of Units,False,1012.0,m2,False
2018174889,listing,/38-spring-street-howard-qld-4659-2018174889,390000,is-sold,Sold by private treaty 11 Jan 2023,20230111,38 Spring Street,HOWARD,QLD,4659,-25.3232288,152.563156,2,2,2,House,House,False,2332.0,m2,False
2018189325,listing,/9-krista-court-burrum-heads-qld-4659-2018189325,710000,is-sold,Sold by private treaty 10 Feb 2023,20230210,9 Krista Court,BURRUM HEADS,QLD,4659,-25.1897774,152.608292,3,3,3,House,House,False,834.0,m2,False
2018190394,listing,/1209-duckinwilla-road-howard-qld-4659-2018190394,950000,is-sold,Sold by private treaty 23 Feb 2023,20230223,1209 Duckinwilla Road,HOWARD,QLD,4659,-25.36277,152.4755,3,3,3,Rural,Rural,True,80.48,ha,False
2018196192,listing,/14-oakes-drive-burrum-heads-qld-4659-2018196192,900000,is-sold,Sold by private treaty 20 Dec 2022,20221220,14 Oakes Drive,BURRUM HEADS,QLD,4659,-25.2460918,152.588486,4,4,4,AcreageSemiRural,Acreage / Semi-Rural,True,2.14,ha,False
2018199729,listing,/42-tambaroora-street-howard-qld-4659-2018199729,282500,is-sold,Sold by private treaty 16 Dec 2022,20221216,42 Tambaroora Street,HOWARD,QLD,4659,-25.312252,152.561722,3,3,3,House,House,False,1010.0,m2,False
2018217630,listing,/1727-torbanlea-pialba-road-burgowan-qld-4659-2018217630,730000,is-sold,Sold by private treaty 28 Dec 2022,20221228,1727 Torbanlea Pialba Road,BURGOWAN,QLD,4659,-25.3302727,152.627411,4,4,4,House,House,True,2.04,ha,False
2018220520,listing,/89-beach-drive-burrum-heads-qld-4659-2018220520,659000,is-sold,Sold by private treaty 10 Feb 2023,20230210,89 Beach Drive,BURRUM HEADS,QLD,4659,-25.2151051,152.635757,2,2,2,House,House,True,1.8,ha,False
2018223888,listing,/13-elboz-court-burrum-heads-qld-4659-2018223888,Price Withheld,is-sold,Sold by private treaty 11 Jan 2023,20230111,13 Elboz Court,BURRUM HEADS,QLD,4659,-25.2394581,152.586411,NaN,NaN,NaN,VacantLand,Vacant land,False,2085.0,m2,False
2018227321,listing,/43-philip-street-howard-qld-4659-2018227321,655000,is-sold,Sold by private treaty 31 Jan 2023,20230131,43 Philip Street,HOWARD,QLD,4659,-25.3212,152.552292,4,4,4,House,House,False,1275.0,m2,False
2018247894,listing,/272-pacific-haven-circuit-pacific-haven-qld-4659-2018247894,475000,is-sold,Sold by private treaty 09 Jan 2023,20230109,272 Pacific Haven Circuit,PACIFIC HAVEN,QLD,4659,-25.2457714,152.558212,NaN,NaN,NaN,VacantLand,Vacant land,False,9614.0,m2,False
2018250923,listing,/4-alice-street-howard-qld-4659-2018250923,290000,is-sold,Sold by private treaty 07 Feb 2023,20230207,4 Alice Street,HOWARD,QLD,4659,-25.3224983,152.556549,3,3,3,House,House,False,670.0,m2,False
2018255254,listing,/lot-157-national-park-drive-burrum-heads-qld-4659-2018255254,1300000,is-sold,Sold by private treaty 01 Feb 2023,20230201,Lot 157 National Park Drive,BURRUM HEADS,QLD,4659,-25.184454,152.6142,2,2,2,House,House,True,64.75,ha,False
2018288354,listing,/1-boronia-street-burrum-heads-qld-4659-2018288354,560000,is-sold,Sold by private treaty 27 Feb 2023,20230227,1 Boronia Street,BURRUM HEADS,QLD,4659,-25.186964,152.610748,3,3,3,House,House,False,801.0,m2,False
2018301539,listing,/173-pacific-haven-circuit-pacific-haven-qld-4659-2018301539,680000,is-sold,Sold by private treaty 07 Jan 2023,20230107,173 Pacific Haven Circuit,PACIFIC HAVEN,QLD,4659,-25.2367744,152.548325,3,3,3,House,House,False,10117.0,m2,False
2017654129,listing,/17-dudley-street-burrum-heads-qld-4659-2017654129,785000,is-sold,Sold by private treaty 31 Oct 2022,20221031,17 Dudley Street,BURRUM HEADS,QLD,4659,-25.1874752,152.616943,3,3,3,House,House,False,1007.0,m2,False
2017794115,listing,/356-pacific-haven-circuit-pacific-haven-qld-4659-2017794115,335000,is-sold,Sold by private treaty 30 Sep 2022,20220930,356 Pacific Haven Circuit,PACIFIC HAVEN,QLD,4659,-25.2714367,152.5532,NaN,NaN,NaN,VacantLand,Vacant land,False,141800.0,m2,False
2017892236,listing,/8-cassia-street-burrum-heads-qld-4659-2017892236,615000,is-sold,Sold by private treaty 25 Oct 2022,20221025,8 Cassia Street,BURRUM HEADS,QLD,4659,-25.1882267,152.611526,4,4,4,House,House,False,820.0,m2,False
2017946922,listing,/12-lakes-boulevard-burrum-heads-qld-4659-2017946922,610000,is-sold,Sold by private treaty 03 Oct 2022,20221003,12 Lakes Boulevard,BURRUM HEADS,QLD,4659,-25.2124615,152.632721,4,4,4,House,House,False,932.0,m2,False
2017987971,listing,/106-pacific-haven-circuit-pacific-haven-qld-4659-2017987971,675000,is-sold,Sold by private treaty 27 Oct 2022,20221027,106 Pacific Haven Circuit,PACIFIC HAVEN,QLD,4659,-25.24759,152.529282,4,4,4,House,House,False,12949.0,m2,False
2018013853,listing,/30-32-hurley-street-howard-qld-4659-2018013853,435000,is-sold,Sold by private treaty 30 Sep 2022,20220930,30-32 Hurley Street,HOWARD,QLD,4659,-25.3138866,152.561829,3,3,3,House,House,False,1126.0,m2,False
2018035912,listing,/39-orchid-drive-burrum-heads-qld-4659-2018035912,480000,is-sold,Sold by private treaty 15 Nov 2022,20221115,39 Orchid Drive,BURRUM HEADS,QLD,4659,-25.2099171,152.631577,3,3,3,House,House,False,800.0,m2,False
2018046042,listing,/96-114-drouin-crescent-burrum-river-qld-4659-2018046042,527000,is-sold,Sold by private treaty 26 Oct 2022,20221026,96-114 Drouin Crescent,BURRUM RIVER,QLD,4659,-25.2888279,152.58461,3,3,3,House,House,True,3.04,ha,False
2018059261,listing,/13-traviston-way-burrum-heads-qld-4659-2018059261,310000,is-sold,Sold 08 Nov 2022,20221108,13 TRAVISTON WAY,BURRUM HEADS,QLD,4659,-25.1883183,152.6016,NaN,NaN,NaN,VacantLand,Vacant land,False,830.0,m2,False
2018071953,listing,/90-barramundi-drive-burrum-heads-qld-4659-2018071953,805000,is-sold,Sold by private treaty 07 Dec 2022,20221207,90 Barramundi Drive,BURRUM HEADS,QLD,4659,-25.20364,152.627151,3,3,3,House,House,False,735.0,m2,False
2018076480,listing,/11-14-hoffman-street-burrum-heads-qld-4659-2018076480,550000,is-sold,Sold by private treaty 01 Oct 2022,20221001,11/14 Hoffman Street,BURRUM HEADS,QLD,4659,-25.1858463,152.611526,3,3,3,ApartmentUnitFlat,Apartment / Unit / Flat,False,162.0,m2,False
2018087679,listing,/47-william-street-howard-qld-4659-2018087679,250000,is-sold,Sold by private treaty 01 Nov 2022,20221101,47 William Street,HOWARD,QLD,4659,-25.3160057,152.5635,3,3,3,House,House,False,1002.0,m2,False
2018098148,listing,/125-william-street-howard-qld-4659-2018098148,310000,is-sold,Sold by private treaty 15 Nov 2022,20221115,125 William Street,HOWARD,QLD,4659,-25.3216782,152.557556,1,1,1,House,House,False,2024.0,m2,False
2018118166,listing,/63-marina-drive-pacific-haven-qld-4659-2018118166,252000,is-sold,Sold by private treaty 14 Oct 2022,20221014,63 Marina Drive,PACIFIC HAVEN,QLD,4659,-25.25156,152.549652,NaN,NaN,NaN,VacantLand,Vacant land,False,39800.0,m2,False
2018132057,listing,/lot-414-lilly-pilly-drive-burrum-heads-qld-4659-2018132057,175000,is-sold,Sold by private treaty 14 Oct 2022,20221014,Lot 414 Lilly Pilly Drive,BURRUM HEADS,QLD,4659,-25.1922932,152.6037,NaN,NaN,NaN,VacantLand,Vacant land,False,832.0,m2,False
2018132071,listing,/lot-416-lilly-pilly-drive-burrum-heads-qld-4659-2018132071,182000,is-sold,Sold by private treaty 04 Oct 2022,20221004,Lot 416 Lilly Pilly Drive,BURRUM HEADS,QLD,4659,-25.1922932,152.6037,NaN,NaN,NaN,VacantLand,Vacant land,False,800.0,m2,False
2018138423,listing,/lot-449-lilly-pilly-drive-burrum-heads-qld-4659-2018138423,168000,is-sold,Sold by private treaty 02 Oct 2022,20221002,Lot 449 Lilly Pilly Drive,BURRUM HEADS,QLD,4659,-25.1922932,152.6037,NaN,NaN,NaN,VacantLand,Vacant land,False,693.0,m2,False
2018157277,listing,/42-marina-drive-pacific-haven-qld-4659-2018157277,520000,is-sold,Sold by private treaty 28 Oct 2022,20221028,42 Marina Drive,PACIFIC HAVEN,QLD,4659,-25.2476025,152.5454,2,2,2,House,House,False,23997.0,m2,False
2018174331,listing,/2-boronia-street-burrum-heads-qld-4659-2018174331,540000,is-sold,Sold by private treaty 07 Nov 2022,20221107,2 Boronia Street,BURRUM HEADS,QLD,4659,-25.1873665,152.61084,3,3,3,House,House,False,801.0,m2,False
2018204964,listing,/30-traviston-way-burrum-heads-qld-4659-2018204964,750000,is-sold,Sold by private treaty 21 Nov 2022,20221121,30 Traviston Way,BURRUM HEADS,QLD,4659,-25.18898,152.600021,4,4,4,House,House,False,1148.0,m2,False
2017501294,listing,/319-the-yachtsmans-drive-burrum-river-qld-4659-2017501294,1100000,is-sold,Sold by private treaty 20 Sep 2022,20220920,319 The Yachtsmans Drive,BURRUM RIVER,QLD,4659,-25.226326,152.557571,3,3,3,AcreageSemiRural,Acreage / Semi-Rural,True,49.78,ha,False
2017569260,listing,/37-riverview-drive-burrum-heads-qld-4659-2017569260,380000,is-sold,Sold by private treaty 01 Sep 2022,20220901,37 Riverview Drive,BURRUM HEADS,QLD,4659,-25.1869125,152.609146,NaN,NaN,3.0,VacantLand,Vacant land,False,799.0,m2,False
2017628905,listing,/76-beach-drive-burrum-heads-qld-4659-2017628905,430000,is-sold,Sold by private treaty 26 Sep 2022,20220926,76 Beach Drive,BURRUM HEADS,QLD,4659,-25.2136726,152.63623,NaN,NaN,NaN,VacantLand,Vacant land,False,930.0,m2,False
2017824621,listing,/35-beach-dr-burrum-heads-qld-4659-2017824621,687000,is-sold,Sold by private treaty 12 Sep 2022,20220912,35 Beach Dr,BURRUM HEADS,QLD,4659,-25.2117138,152.633484,3,3,3,House,House,False,800.0,m2,False
2017832921,listing,/27-knowland-street-burrum-town-qld-4659-2017832921,217000,is-sold,Sold by private treaty 29 Sep 2022,20220929,27 Knowland Street,BURRUM TOWN,QLD,4659,-25.3255062,152.587448,NaN,NaN,5.0,VacantLand,Vacant land,False,915.0,m2,False
2017848321,listing,/128-pacific-haven-circuit-pacific-haven-qld-4659-2017848321,725000,is-sold,Sold by private treaty 16 Sep 2022,20220916,128 Pacific Haven Circuit,PACIFIC HAVEN,QLD,4659,-25.2427769,152.530258,3,3,3,House,House,False,9174.0,m2,False
2017934825,listing,/9-17-keith-street-burrum-river-qld-4659-2017934825,255000,is-sold,Sold by private treaty 13 Sep 2022,20220913,9-17 Keith Street,BURRUM RIVER,QLD,4659,-25.297245,152.596573,NaN,NaN,NaN,VacantLand,Vacant land,True,1.79,ha,False
2017954005,listing,/6-pacific-haven-circuit-pacific-haven-qld-4659-2017954005,462000,is-sold,Sold 28 Sep 2022,20220928,6 Pacific Haven Circuit,PACIFIC HAVEN,QLD,4659,-25.2804356,152.54686,NaN,NaN,NaN,VacantLand,Vacant land,False,133546.0,m2,False
2017974461,listing,/1-queen-street-howard-qld-4659-2017974461,440000,is-sold,Sold by private treaty 21 Sep 2022,20220921,1 Queen Street,HOWARD,QLD,4659,-25.31292,152.559113,2,2,2,House,House,False,6867.0,m2,False
2017994074,listing,/13-jarrah-court-burrum-heads-qld-4659-2017994074,860000,is-sold,Sold by private treaty 22 Sep 2022,20220922,13 Jarrah Court,BURRUM HEADS,QLD,4659,-25.240284,152.593536,4,4,4,House,House,False,3777.0,m2,False
2018009475,listing,/63-beach-drive-burrum-heads-qld-4659-2018009475,720000,is-sold,Sold by private treaty 02 Sep 2022,20220902,63 Beach Drive,BURRUM HEADS,QLD,4659,-25.2136917,152.635544,3,3,3,House,House,False,820.0,m2,False
2018034299,listing,/16-bentwood-street-burrum-heads-qld-4659-2018034299,360000,is-sold,Sold by private treaty 30 Aug 2022,20220830,16 Bentwood Street,BURRUM HEADS,QLD,4659,-25.2127323,152.6344,NaN,NaN,NaN,VacantLand,Vacant land,False,1006.0,m2,False
2018036099,listing,/521-burrum-heads-road-burrum-river-qld-4659-2018036099,1117500,is-sold,Sold by private treaty 06 Sep 2022,20220906,521 Burrum Heads Road,BURRUM RIVER,QLD,4659,-25.2973423,152.591873,3,3,3,AcreageSemiRural,Acreage / Semi-Rural,True,20.09,ha,False
2018044510,listing,/18-20-gina-court-burrum-heads-qld-4659-2018044510,515000,is-sold,Sold by private treaty 19 Sep 2022,20220919,18-20 Gina Court,BURRUM HEADS,QLD,4659,-25.237421,152.596771,3,3,3,House,House,False,0.0,m2,False
2018077628,listing,/2-harlequin-court-burrum-heads-qld-4659-2018077628,720000,is-sold,Sold by private treaty 24 Sep 2022,20220924,2 Harlequin Court,BURRUM HEADS,QLD,4659,-25.2408867,152.591217,3,3,3,House,House,False,2000.0,m2,False
2018132023,listing,/lot-412-lilly-pilly-drive-burrum-heads-qld-4659-2018132023,175000,is-sold,Sold by private treaty 21 Sep 2022,20220921,Lot 412 Lilly Pilly Drive,BURRUM HEADS,QLD,4659,-25.1922932,152.6037,NaN,NaN,NaN,VacantLand,Vacant land,False,817.0,m2,False
2018132035,listing,/lot-413-lilly-pilly-drive-burrum-heads-qld-4659-2018132035,175000,is-sold,Sold by private treaty 18 Sep 2022,20220918,Lot 413 Lilly Pilly Drive,BURRUM HEADS,QLD,4659,-25.1922932,152.6037,NaN,NaN,NaN,VacantLand,Vacant land,False,823.0,m2,False
2018137535,listing,/lot-418-lilly-pilly-drive-burrum-heads-qld-4659-2018137535,218000,is-sold,Sold by private treaty 14 Sep 2022,20220914,Lot 418 Lilly Pilly Drive,BURRUM HEADS,QLD,4659,-25.1922932,152.6037,NaN,NaN,NaN,VacantLand,Vacant land,False,800.0,m2,False
2018137603,listing,/lot-419-lilly-pilly-drive-burrum-heads-qld-4659-2018137603,218000,is-sold,Sold by private treaty 09 Sep 2022,20220909,Lot 419 Lilly Pilly Drive,BURRUM HEADS,QLD,4659,-25.1922932,152.6037,NaN,NaN,NaN,VacantLand,Vacant land,False,803.0,m2,False
2018138452,listing,/lot-450-lilly-pilly-drive-burrum-heads-qld-4659-2018138452,169950,is-sold,Sold by private treaty 28 Sep 2022,20220928,Lot 450 Lilly Pilly Drive,BURRUM HEADS,QLD,4659,-25.1922932,152.6037,NaN,NaN,NaN,VacantLand,Vacant land,False,712.0,m2,False
2008637150,listing,/22-james-street-howard-qld-4659-2008637150,345000,is-sold,Sold by private treaty 30 Aug 2022,20220830,22 James Street,HOWARD,QLD,4659,-25.3197365,152.5574,3,3,3,House,House,False,1012.0,m2,False
2017451588,listing,/52-beach-drive-burrum-heads-qld-4659-2017451588,650000,is-sold,Sold by private treaty 14 Jul 2022,20220714,52 Beach Drive,BURRUM HEADS,QLD,4659,-25.211689,152.63504,4,4,4,House,House,False,942.0,m2,False
2017623098,listing,/3-brypat-cl-burrum-heads-qld-4659-2017623098,430000,is-sold,Sold by private treaty 03 Jul 2022,20220703,3 Brypat Cl,BURRUM HEADS,QLD,4659,-25.2400818,152.5889,4,4,4,House,House,False,2152.0,m2,False
2017642727,listing,/2-volute-way-burrum-heads-qld-4659-2017642727,1150000,is-sold,Sold by private treaty 01 Jul 2022,20220701,2 Volute Way,BURRUM HEADS,QLD,4659,-25.20315,152.629288,4,4,4,House,House,False,903.0,m2,False
2017676596,listing,/84-william-street-howard-qld-4659-2017676596,330000,is-sold,Sold by private treaty 05 Jul 2022,20220705,84 William Street,HOWARD,QLD,4659,-25.3191757,152.560989,4,4,4,House,House,False,1012.0,m2,False
2017857291,listing,/39-riverview-drive-burrum-heads-qld-4659-2017857291,605000,is-sold,Sold by private treaty 04 Jul 2022,20220704,39 Riverview Drive,BURRUM HEADS,QLD,4659,-25.1867352,152.608948,3,3,3,House,House,False,720.0,m2,False
2017866411,listing,/7-krista-court-burrum-heads-qld-4659-2017866411,660000,is-sold,Sold by private treaty 22 Jul 2022,20220722,7 Krista Court,BURRUM HEADS,QLD,4659,-25.1898727,152.608444,4,4,4,House,House,False,835.0,m2,False
2017878197,listing,/33-beach-dr-burrum-heads-qld-4659-2017878197,535000,is-sold,Sold by private treaty 26 Aug 2022,20220826,33 Beach Dr,BURRUM HEADS,QLD,4659,-25.2117043,152.633041,2,2,2,House,House,False,820.0,m2,False
2017883985,listing,/81-steley-street-howard-qld-4659-2017883985,305000,is-sold,Sold by private treaty 13 Jul 2022,20220713,81 Steley Street,HOWARD,QLD,4659,-25.3163624,152.5614,3,3,3,House,House,False,1002.0,m2,False
2017906427,listing,/26-king-st-howard-qld-4659-2017906427,175000,is-sold,Sold by private treaty 27 Jul 2022,20220727,26 King St,HOWARD,QLD,4659,-25.3215466,152.563126,NaN,NaN,NaN,VacantLand,Vacant land,False,1455.0,m2,False
2017906482,listing,/6-alice-street-howard-qld-4659-2017906482,470000,is-sold,Sold by private treaty 12 Jul 2022,20220712,6 Alice Street,HOWARD,QLD,4659,-25.3223343,152.556366,4,4,4,House,House,False,670.0,m2,False
2017912160,listing,/57-riverview-drive-burrum-heads-qld-4659-2017912160,655000,is-sold,Sold by private treaty 08 Aug 2022,20220808,57 Riverview Drive,BURRUM HEADS,QLD,4659,-25.18672,152.60701,5,5,5,House,House,False,841.0,m2,False
2017926035,listing,/24-martha-street-howard-qld-4659-2017926035,305000,is-sold,Sold by private treaty 13 Jul 2022,20220713,24 Martha Street,HOWARD,QLD,4659,-25.3134956,152.562836,3,3,3,House,House,False,911.0,m2,False
2017933125,listing,/58-whitley-street-howard-qld-4659-2017933125,280000,is-sold,Sold by private treaty 03 Jul 2022,20220703,58 Whitley Street,HOWARD,QLD,4659,-25.31353,152.559387,3,3,3,House,House,False,1157.0,m2,False
2017971752,listing,/45-thomas-street-howard-qld-4659-2017971752,510000,is-sold,Sold by private treaty 22 Aug 2022,20220822,45 Thomas Street,HOWARD,QLD,4659,-25.3209362,152.560211,3,3,3,House,House,False,2023.0,m2,False
2018016518,listing,/22-james-street-howard-qld-4659-2018016518,345000,is-sold,Sold by private treaty 30 Aug 2022,20220830,22 James Street,HOWARD,QLD,4659,-25.3196831,152.557373,3,3,3,House,House,False,1012.0,m2,False
2018132064,listing,/lot-415-lilly-pilly-drive-burrum-heads-qld-4659-2018132064,176500,is-sold,Sold by private treaty 24 Aug 2022,20220824,Lot 415 Lilly Pilly Drive,BURRUM HEADS,QLD,4659,-25.1922932,152.6037,NaN,NaN,NaN,VacantLand,Vacant land,False,801.0,m2,False
2018137628,listing,/lot-420-lilly-pilly-drive-burrum-heads-qld-4659-2018137628,194950,is-sold,Sold by private treaty 17 Aug 2022,20220817,Lot 420 Lilly Pilly Drive,BURRUM HEADS,QLD,4659,-25.1922932,152.6037,NaN,NaN,NaN,VacantLand,Vacant land,False,800.0,m2,False
2018138403,listing,/lot-421-lilly-pilly-drive-burrum-heads-qld-4659-2018138403,194950,is-sold,Sold by private treaty 10 Aug 2022,20220810,Lot 421 Lilly Pilly Drive,BURRUM HEADS,QLD,4659,-25.1922932,152.6037,NaN,NaN,NaN,VacantLand,Vacant land,False,871.0,m2,False
2018138466,listing,/lot-451-lilly-pilly-drive-burrum-heads-qld-4659-2018138466,169000,is-sold,Sold by private treaty 12 Aug 2022,20220812,Lot 451 Lilly Pilly Drive,BURRUM HEADS,QLD,4659,-25.1922932,152.6037,NaN,NaN,NaN,VacantLand,Vacant land,False,699.0,m2,False
2017212278,listing,/7-oakes-drive-burrum-heads-qld-4659-2017212278,720000,is-sold,Sold by private treaty 30 Jun 2022,20220630,7 Oakes Drive,BURRUM HEADS,QLD,4659,-25.2419281,152.589935,5,5,5,House,House,False,3800.0,m2,False
2017460122,listing,/stage-2-land-release-lilly-pilly-drive-burrum-heads-qld-4659-2017460122,349950,is-sold,Sold by private treaty 30 May 2022,20220530,Stage 2 Land Release Lilly Pilly Drive,BURRUM HEADS,QLD,4659,-25.1922932,152.6037,NaN,NaN,NaN,VacantLand,Vacant land,False,800.0,m2,False
2017530728,listing,/10-noeme-street-burrum-heads-qld-4659-2017530728,760000,is-sold,Sold by private treaty 14 Jun 2022,20220614,10 Noeme Street,BURRUM HEADS,QLD,4659,-25.1913071,152.606247,4,4,4,House,House,False,1041.0,m2,False
2017661013,listing,/28-lower-thomas-street-howard-qld-4659-2017661013,Price Withheld,is-sold,Sold by private treaty 20 Jun 2022,20220620,28 Lower Thomas Street,HOWARD,QLD,4659,-25.32246,152.561584,3,3,3,House,House,False,3017.0,m2,False
2017667020,listing,/6-louise-dr-burrum-heads-qld-4659-2017667020,725000,is-sold,Sold by private treaty 28 May 2022,20220528,6 Louise Dr,BURRUM HEADS,QLD,4659,-25.19155,152.607666,3,3,3,House,House,False,750.0,m2,False
2017676562,listing,/13-barramundi-drive-burrum-heads-qld-4659-2017676562,300000,is-sold,Sold by private treaty 28 Jun 2022,20220628,13 Barramundi Drive,BURRUM HEADS,QLD,4659,-25.209528,152.631958,NaN,NaN,NaN,VacantLand,Vacant land,False,700.0,m2,False
2017709119,listing,/10-marina-drive-pacific-haven-qld-4659-2017709119,400000,is-sold,Sold by private treaty 27 Jun 2022,20220627,10 Marina Drive,PACIFIC HAVEN,QLD,4659,-25.2363,152.547226,3,3,3,AcreageSemiRural,Acreage / Semi-Rural,True,1.06,ha,False
2017744143,listing,/lot-3-tremlin-dr-howard-qld-4659-2017744143,Price Withheld,is-sold,Sold by private treaty 16 Jun 2022,20220616,Lot 3 Tremlin Dr,HOWARD,QLD,4659,-25.3119755,152.555908,NaN,NaN,NaN,VacantLand,Vacant land,False,202600.0,m2,False
2017764938,listing,/122-beach-dr-burrum-heads-qld-4659-2017764938,445000,is-sold,Sold by private treaty 30 May 2022,20220530,122 Beach Dr,BURRUM HEADS,QLD,4659,-25.2154827,152.636108,NaN,NaN,NaN,VacantLand,Vacant land,False,2008.0,m2,False
2017766549,listing,/16-diamantina-drive-howard-qld-4659-2017766549,730000,is-sold,Sold by private treaty 30 May 2022,20220530,16 Diamantina Drive,HOWARD,QLD,4659,-25.3122463,152.564133,4,4,4,House,House,False,7005.0,m2,False
2017792076,listing,/1-6-howard-street-burrum-heads-qld-4659-2017792076,475000,is-sold,Sold by private treaty 28 Jun 2022,20220628,1/6 Howard Street,BURRUM HEADS,QLD,4659,-25.1851273,152.60936,8,8,8,SemiDetached,Semi-Detached,False,1012.0,m2,False
2017792661,listing,/10-brypat-close-burrum-heads-qld-4659-2017792661,525000,is-sold,Sold by private treaty 19 Jun 2022,20220619,10 BRYPAT CLOSE,BURRUM HEADS,QLD,4659,-25.2398777,152.58696,3,3,3,House,House,False,2016.0,m2,False
2017801028,listing,/12-16-rankin-st-howard-qld-4659-2017801028,Price Withheld,is-sold,Sold by private treaty 20 Jun 2022,20220620,12-16 Rankin St,HOWARD,QLD,4659,-25.3079014,152.585922,NaN,NaN,2.0,VacantLand,Vacant land,False,10700.0,m2,False
2017810404,listing,/24-28-tambaroora-street-howard-qld-4659-2017810404,425000,is-sold,Sold by private treaty 20 Jun 2022,20220620,24-28 Tambaroora Street,HOWARD,QLD,4659,-25.3131351,152.562943,3,3,3,House,House,False,885.0,m2,False
2017810433,listing,/7-lakes-boulevard-burrum-heads-qld-4659-2017810433,725000,is-sold,Sold by private treaty 30 Jun 2022,20220630,7 Lakes Boulevard,BURRUM HEADS,QLD,4659,-25.2121964,152.631866,3,3,3,House,House,False,820.0,m2,False
2017811504,listing,/35-mary-st-howard-qld-4659-2017811504,493000,is-sold,Sold by private treaty 10 Jun 2022,20220610,35 Mary St,HOWARD,QLD,4659,-25.3223343,152.551712,3,3,3,House,House,False,1275.0,m2,False
2017833720,listing,/277-pacific-haven-circuit-pacific-haven-qld-4659-2017833720,540000,is-sold,Sold by private treaty 06 Jun 2022,20220606,277 Pacific Haven Circuit,PACIFIC HAVEN,QLD,4659,-25.257616,152.550308,3,3,3,House,House,True,4.08,ha,False
2017849835,listing,/28-40-drouin-cres-burrum-river-qld-4659-2017849835,605000,is-sold,Sold by private treaty 28 Jun 2022,20220628,28-40 Drouin Cres,BURRUM RIVER,QLD,4659,-25.2860012,152.585876,3,3,3,House,House,True,2.48,ha,False
2017856290,listing,/4-birchwood-court-burrum-heads-qld-4659-2017856290,620000,is-sold,Sold by private treaty 22 Jun 2022,20220622,4 Birchwood Court,BURRUM HEADS,QLD,4659,-25.2401543,152.590317,3,3,3,House,House,False,2128.0,m2,False
2017894842,listing,/12-oakes-drive-burrum-heads-qld-4659-2017894842,885000,is-sold,Sold by private treaty 29 Jun 2022,20220629,12 Oakes Drive,BURRUM HEADS,QLD,4659,-25.245142,152.588211,4,4,4,House,House,False,20000.0,m2,False
2014394442,listing,/12-16-rankin-street-howard-qld-4659-2014394442,Price Withheld,is-sold,Sold by private treaty 09 May 2022,20220509,12-16 Rankin Street,HOWARD,QLD,4659,-25.3079014,152.585922,NaN,NaN,NaN,VacantLand,Vacant land,False,10700.0,m2,False
2016783330,listing,/31-traviston-way-burrum-heads-qld-4659-2016783330,800000,is-sold,Sold by private treaty 18 May 2022,20220518,31 Traviston Way,BURRUM HEADS,QLD,4659,-25.1879654,152.601242,5,5,5,House,House,False,851.0,m2,False
2017352007,listing,/4-howard-st-burrum-heads-qld-4659-2017352007,390000,is-sold,Sold by private treaty 26 Apr 2022,20220426,4 Howard St,BURRUM HEADS,QLD,4659,-25.185173,152.60907,NaN,NaN,NaN,VacantLand,Vacant land,False,2021.0,m2,False
2017494306,listing,/16-gregory-street-howard-qld-4659-2017494306,Price Withheld,is-sold,Sold by private treaty 04 May 2022,20220504,16 Gregory Street,HOWARD,QLD,4659,-25.3082581,152.568573,4,4,4,Rural,Rural,True,3.91,ha,False
2017577307,listing,/37-beach-drive-burrum-heads-qld-4659-2017577307,595000,is-sold,Sold by private treaty 22 Apr 2022,20220422,37 Beach Drive,BURRUM HEADS,QLD,4659,-25.2117252,152.633942,4,4,4,House,House,False,765.0,m2,False
2017577565,listing,/48-beach-drive-burrum-heads-qld-4659-2017577565,885000,is-sold,Sold by private treaty 20 Apr 2022,20220420,48 Beach Drive,BURRUM HEADS,QLD,4659,-25.2112656,152.6343,4,4,4,House,House,False,810.0,m2,False
2017602078,listing,/3-noeme-street-burrum-heads-qld-4659-2017602078,815000,is-sold,Sold by private treaty 27 Apr 2022,20220427,3 Noeme Street,BURRUM HEADS,QLD,4659,-25.1917057,152.607269,2,2,2,House,House,False,1077.0,m2,False
2017606008,listing,/76-pacific-haven-circuit-pacific-haven-qld-4659-2017606008,520000,is-sold,Sold by private treaty 14 May 2022,20220514,76 Pacific Haven Circuit,PACIFIC HAVEN,QLD,4659,-25.25484,152.536148,3,3,3,House,House,False,8627.0,m2,False
2017612965,listing,/9-hoffman-street-burrum-heads-qld-4659-2017612965,1400000,is-sold,Sold by private treaty 10 May 2022,20220510,9 Hoffman Street,BURRUM HEADS,QLD,4659,-25.1864128,152.611618,4,4,4,House,House,False,1619.0,m2,False
2017632054,listing,/9-coral-ave-pacific-haven-qld-4659-2017632054,645000,is-sold,Sold by private treaty 28 Apr 2022,20220428,9 Coral Ave,PACIFIC HAVEN,QLD,4659,-25.2591972,152.5315,3,3,3,House,House,False,51100.0,m2,False
2017640100,listing,/330-338-pacific-haven-drive-pacific-haven-qld-4659-2017640100,Price Withheld,is-sold,Sold by private treaty 21 May 2022,20220521,330-338 Pacific Haven Drive,PACIFIC HAVEN,QLD,4659,-25.2821083,152.56105,NaN,NaN,NaN,VacantLand,Vacant land,False,30000.0,m2,False
2017703471,listing,/26-sandcastles-circuit-burrum-heads-qld-4659-2017703471,350000,is-sold,Sold by private treaty 03 May 2022,20220503,26 Sandcastles Circuit,BURRUM HEADS,QLD,4659,-25.2053757,152.630508,NaN,NaN,NaN,VacantLand,Vacant land,False,700.0,m2,False
2017709920,listing,/23-woodrow-street-howard-qld-4659-2017709920,500000,is-sold,Sold by private treaty 09 May 2022,20220509,23 Woodrow Street,HOWARD,QLD,4659,-25.31287,152.562546,4,4,4,House,House,False,2748.0,m2,False
2017739906,listing,/57-59-james-st-howard-qld-4659-2017739906,517000,is-sold,Sold by private treaty 29 Apr 2022,20220429,57-59 James St,HOWARD,QLD,4659,-25.3209629,152.55484,4,4,4,House,House,False,2801.0,m2,False
2017740352,listing,/61-lucas-drive-burrum-heads-qld-4659-2017740352,759000,is-sold,Sold by private treaty 20 May 2022,20220520,61 Lucas Drive,BURRUM HEADS,QLD,4659,-25.1887875,152.60788,3,3,3,House,House,False,737.0,m2,False
2017749368,listing,/28-creek-street-howard-qld-4659-2017749368,590000,is-sold,Sold by private treaty 24 May 2022,20220524,28 Creek Street,HOWARD,QLD,4659,-25.3228168,152.560318,3,3,3,House,House,False,18500.0,m2,False
2017757359,listing,/18-honey-myrtle-close-burrum-heads-qld-4659-2017757359,625000,is-sold,Sold by private treaty 24 May 2022,20220524,18 Honey Myrtle Close,BURRUM HEADS,QLD,4659,-25.1917076,152.6013,4,4,4,House,House,False,641.0,m2,False
2017757942,listing,/37-39-whitley-street-howard-qld-4659-2017757942,425000,is-sold,Sold by private treaty 09 May 2022,20220509,37-39 Whitley Street,HOWARD,QLD,4659,-25.3142452,152.561,3,3,3,House,House,False,1118.0,m2,False
2017786650,listing,/1-nira-court-burrum-heads-qld-4659-2017786650,795000,is-sold,Sold by private treaty 24 May 2022,20220524,1 Nira Court,BURRUM HEADS,QLD,4659,-25.1886272,152.605362,4,4,4,House,House,False,794.0,m2,False
2017804883,listing,/7-warringal-court-burrum-heads-qld-4659-2017804883,735000,is-sold,Sold by private treaty 25 May 2022,20220525,7 Warringal Court,BURRUM HEADS,QLD,4659,-25.1875,152.607025,4,4,4,House,House,False,876.0,m2,False
2017330430,listing,/16-bentwood-street-burrum-heads-qld-4659-2017330430,345000,is-sold,Sold by private treaty 30 Mar 2022,20220330,16 Bentwood Street,BURRUM HEADS,QLD,4659,-25.2127323,152.6344,NaN,NaN,NaN,VacantLand,Vacant land,False,1006.0,m2,False
2017476835,listing,/24-barramundi-drive-burrum-heads-qld-4659-2017476835,300000,is-sold,Sold by private treaty 14 Mar 2022,20220314,24 Barramundi Drive,BURRUM HEADS,QLD,4659,-25.2079277,152.632034,NaN,1.0,NaN,VacantLand,Vacant land,False,800.0,m2,False
2017482991,listing,/54-traviston-way-burrum-heads-qld-4659-2017482991,925000,is-sold,Sold by private treaty 04 Apr 2022,20220404,54 Traviston Way,BURRUM HEADS,QLD,4659,-25.187336,152.601288,3,3,3,House,House,False,1000.0,m2,False
2017494438,listing,/7-elboz-ct-burrum-heads-qld-4659-2017494438,740000,is-sold,Sold by private treaty 14 Mar 2022,20220314,7 Elboz Ct,BURRUM HEADS,QLD,4659,-25.2402916,152.586868,5,5,5,House,House,False,2000.0,m2,False
2017513470,listing,/4-bryan-ct-burrum-heads-qld-4659-2017513470,725000,is-sold,Sold by private treaty 16 Mar 2022,20220316,4 Bryan Ct,BURRUM HEADS,QLD,4659,-25.1898785,152.604645,4,4,4,House,House,False,849.0,m2,False
2017515180,listing,/39-howard-street-burrum-heads-qld-4659-2017515180,685000,is-sold,Sold by private treaty 04 Apr 2022,20220404,39 Howard Street,BURRUM HEADS,QLD,4659,-25.1850586,152.612946,8,8,8,House,House,False,1199.0,m2,False
2017552137,listing,/386-hamilton-street-howard-qld-4659-2017552137,185000,is-sold,Sold by private treaty 10 Mar 2022,20220310,386 Hamilton Street,HOWARD,QLD,4659,-25.3091335,152.576965,NaN,NaN,NaN,VacantLand,Vacant land,False,0.0,m2,False
2017561883,listing,/6-brypat-cl-burrum-heads-qld-4659-2017561883,740000,is-sold,Sold by private treaty 07 Apr 2022,20220407,6 Brypat Cl,BURRUM HEADS,QLD,4659,-25.2401257,152.587845,4,4,4,House,House,False,2003.0,m2,False
2017562781,listing,/17-sirenia-drive-burrum-heads-qld-4659-2017562781,760000,is-sold,Sold by private treaty 31 Mar 2022,20220331,17 Sirenia Drive,BURRUM HEADS,QLD,4659,-25.2075653,152.630157,4,4,4,House,House,False,721.0,m2,False
2017576182,listing,/58-orchid-dr-burrum-heads-qld-4659-2017576182,735000,is-sold,Sold by private treaty 07 Apr 2022,20220407,58 Orchid Dr,BURRUM HEADS,QLD,4659,-25.2104359,152.630615,4,4,4,House,House,False,813.0,m2,False
2017587333,listing,/10-jarrah-court-burrum-heads-qld-4659-2017587333,850000,is-sold,Sold by private treaty 11 Mar 2022,20220311,10 Jarrah Court,BURRUM HEADS,QLD,4659,-25.240118,152.591949,4,4,4,House,House,False,2000.0,m2,False
2017603482,listing,/6-cowrie-court-burrum-heads-qld-4659-2017603482,737000,is-sold,Sold by private treaty 03 Mar 2022,20220303,6 Cowrie Court,BURRUM HEADS,QLD,4659,-25.2051773,152.628159,4,4,4,House,House,False,720.0,m2,False
2017621021,listing,/45-raintree-avenue-burrum-heads-qld-4659-2017621021,625000,is-sold,Sold by private treaty 23 Mar 2022,20220323,45 Raintree Avenue,BURRUM HEADS,QLD,4659,-25.2336636,152.58812,4,4,4,House,House,False,10000.0,m2,False
2017642728,listing,/1-3-amber-court-burrum-heads-qld-4659-2017642728,585000,is-sold,Sold by private treaty 04 Apr 2022,20220404,1-3 Amber Court,BURRUM HEADS,QLD,4659,-25.1883545,152.609756,4,4,4,House,House,False,902.0,m2,False
2017648182,listing,/29-bryan-court-burrum-heads-qld-4659-2017648182,795000,is-sold,Sold by private treaty 13 Mar 2022,20220313,29 Bryan Court,BURRUM HEADS,QLD,4659,-25.1887321,152.6064,3,3,3,House,House,False,824.0,m2,False
2017662506,listing,/16-tulipwood-drive-burrum-heads-qld-4659-2017662506,755000,is-sold,Sold by private treaty 12 Apr 2022,20220412,16 Tulipwood Drive,BURRUM HEADS,QLD,4659,-25.1920338,152.602509,4,4,4,House,House,False,878.0,m2,False
2017694941,listing,/7-rankin-street-howard-qld-4659-2017694941,470000,is-sold,Sold by private treaty 20 Mar 2022,20220320,7 Rankin Street,HOWARD,QLD,4659,-25.309866,152.5838,3,3,3,House,House,False,8059.0,m2,False
2017708968,listing,/41-philip-street-howard-qld-4659-2017708968,485000,is-sold,Sold by private treaty 19 Apr 2022,20220419,41 Philip Street...,HOWARD,QLD,4659,-25.3212147,152.552582,3,3,3,House,House,False,1275.0,m2,False
2017727861,listing,/5-wallsend-st-burrum-town-qld-4659-2017727861,210000,is-sold,Sold by private treaty 19 Apr 2022,20220419,5 Wallsend St,BURRUM TOWN,QLD,4659,-25.3297672,152.580566,1,1,1,House,House,False,1012.0,m2,False
2017878935,listing,/60-howard-st-burrum-heads-qld-4659-2017878935,529000,is-sold,Sold by private treaty 06 Apr 2022,20220406,60 Howard St,BURRUM HEADS,QLD,4659,-25.1859741,152.61496,3,3,3,House,House,False,0.0,m2,False
2017163999,listing,/32-barramundi-drive-burrum-heads-qld-4659-2017163999,Price Withheld,is-sold,Sold by private treaty 23 Feb 2022,20220223,32 Barramundi Drive,BURRUM HEADS,QLD,4659,-25.2076511,152.631226,NaN,NaN,NaN,VacantLand,Vacant land,False,779.0,m2,False
2017239840,listing,/32-34-south-heath-road-burrum-river-qld-4659-2017239840,Price Withheld,is-sold,Sold by private treaty 26 Feb 2022,20220226,32-34 South Heath Road,BURRUM RIVER,QLD,4659,-25.2884216,152.582092,3,3,3,House,House,False,13192.0,m2,False
2017354578,listing,/25-ranch-park-drive-pacific-haven-qld-4659-2017354578,310000,is-sold,Sold by private treaty 28 Feb 2022,20220228,25 Ranch Park Drive,PACIFIC HAVEN,QLD,4659,-25.244545,152.549484,1,1,1,House,House,False,24000.0,m2,False
2017386130,listing,/32-riverview-drive-burrum-heads-qld-4659-2017386130,Price Withheld,is-sold,Sold by private treaty 23 Feb 2022,20220223,32 Riverview Drive,BURRUM HEADS,QLD,4659,-25.186224,152.609589,3,3,3,House,House,False,789.0,m2,False
2017434034,listing,/44-46-whitley-street-howard-qld-4659-2017434034,270000,is-sold,Sold by private treaty 02 Mar 2022,20220302,44-46 Whitley Street,HOWARD,QLD,4659,-25.31424,152.56012,3,3,3,House,House,False,992.0,m2,False
2017469806,listing,/60-traviston-way-burrum-heads-qld-4659-2017469806,862500,is-sold,Sold by private treaty 14 Feb 2022,20220214,60 Traviston Way,BURRUM HEADS,QLD,4659,-25.1874123,152.601883,3,3,3,House,House,False,1000.0,m2,False
2017487349,listing,/2-martha-street-howard-qld-4659-2017487349,240000,is-sold,Sold by private treaty 16 Feb 2022,20220216,2 Martha Street,HOWARD,QLD,4659,-25.3151379,152.561035,1,1,1,House,House,False,1002.0,m2,False
2017488531,listing,/5-7-prosper-st-howard-qld-4659-2017488531,320000,is-sold,Sold by private treaty 25 Feb 2022,20220225,5-7 Prosper St,HOWARD,QLD,4659,-25.3186378,152.560181,2,2,2,House,House,False,2036.0,m2,False
2017521312,listing,/405-pacific-haven-drive-pacific-haven-qld-4659-2017521312,370500,is-sold,Sold by private treaty 17 Feb 2022,20220217,405 Pacific Haven Drive,PACIFIC HAVEN,QLD,4659,-25.2788162,152.557053,2,2,2,House,House,False,40468.0,m2,False
2017532313,listing,/57-howard-street-burrum-heads-qld-4659-2017532313,465000,is-sold,Sold by private treaty 10 Feb 2022,20220210,57 Howard Street,BURRUM HEADS,QLD,4659,-25.18618,152.6145,4,4,4,House,House,False,809.0,m2,False
2017533160,listing,/29-53-burgess-road-pacific-haven-qld-4659-2017533160,445000,is-sold,Sold by private treaty 18 Feb 2022,20220218,29-53 Burgess Road,PACIFIC HAVEN,QLD,4659,-25.2976532,152.583267,NaN,NaN,NaN,VacantLand,Vacant land,True,3.37,ha,False
2017541790,listing,/2-noeme-street-burrum-heads-qld-4659-2017541790,975000,is-sold,Sold by private treaty 14 Feb 2022,20220214,2 Noeme Street,BURRUM HEADS,QLD,4659,-25.1918449,152.606735,3,3,3,House,House,False,1215.0,m2,False
2017543361,listing,/20-prawle-street-howard-qld-4659-2017543361,399000,is-sold,Sold by private treaty 09 Feb 2022,20220209,20 Prawle Street,HOWARD,QLD,4659,-25.3214912,152.55101,3,3,3,House,House,False,1016.0,m2,False
2017563289,listing,/24-edith-street-howard-qld-4659-2017563289,186000,is-sold,Sold by private treaty 22 Feb 2022,20220222,24 EDITH STREET,HOWARD,QLD,4659,-25.3140335,152.563675,2,2,2,House,House,False,1214.0,m2,False
2017571340,listing,/16-eds-place-burrum-heads-qld-4659-2017571340,465000,is-sold,Sold by private treaty 18 Feb 2022,20220218,16 Eds Place,BURRUM HEADS,QLD,4659,-25.2156258,152.637314,NaN,NaN,NaN,VacantLand,Vacant land,False,881.0,m2,False
2017585472,listing,/15-annie-street-howard-qld-4659-2017585472,370000,is-sold,Sold by private treaty 14 Feb 2022,20220214,15 Annie Street,HOWARD,QLD,4659,-25.3219147,152.555389,3,3,3,House,House,False,673.0,m2,False
2017590254,listing,/53-howard-street-burrum-heads-qld-4659-2017590254,470000,is-sold,Sold by private treaty 02 Mar 2022,20220302,53 Howard Street,BURRUM HEADS,QLD,4659,-25.186,152.614151,2,2,2,House,House,False,809.0,m2,False
2017593923,listing,/44-rankin-street-howard-qld-4659-2017593923,416000,is-sold,Sold by private treaty 21 Feb 2022,20220221,44 Rankin Street,HOWARD,QLD,4659,-25.3069477,152.585312,3,3,3,House,House,False,12140.0,m2,False
2017612515,listing,/23-bryan-court-burrum-heads-qld-4659-2017612515,650000,is-sold,Sold by private treaty 24 Feb 2022,20220224,23 Bryan Court,BURRUM HEADS,QLD,4659,-25.1893082,152.606476,3,3,3,House,House,False,870.0,m2,False
2017775554,listing,/21-honey-myrtle-cl-burrum-heads-qld-4659-2017775554,751000,is-sold,Sold by private treaty 12 Feb 2022,20220212,21 Honey Myrtle Cl,BURRUM HEADS,QLD,4659,-25.1910725,152.601013,4,4,4,House,House,False,0.0,m2,False
2014398503,listing,/338-toogoom-road-beelbi-creek-qld-4659-2014398503,660000,is-sold,Sold by private treaty 07 Feb 2022,20220207,338 Toogoom Road,BEELBI CREEK,QLD,4659,-25.299963,152.648682,NaN,NaN,NaN,VacantLand,Vacant land,True,65.0,ha,False
2017029486,listing,/1-12-fulmar-court-burrum-heads-qld-4659-2017029486,355000,is-sold,Sold by private treaty 07 Feb 2022,20220207,1/12 Fulmar Court,BURRUM HEADS,QLD,4659,-25.2083282,152.631332,3,3,3,SemiDetached,Semi-Detached,False,152.0,m2,False
2017382357,listing,/23-lakes-bvd-burrum-heads-qld-4659-2017382357,729000,is-sold,Sold by private treaty 08 Feb 2022,20220208,23 Lakes Bvd,BURRUM HEADS,QLD,4659,-25.2128677,152.633133,5,5,5,House,House,False,800.0,m2,False
2017384588,listing,/8-cowrie-court-burrum-heads-qld-4659-2017384588,620000,is-sold,Sold by private treaty 12 Jan 2022,20220112,8 Cowrie Court,BURRUM HEADS,QLD,4659,-25.2050247,152.628,4,4,4,House,House,False,764.0,m2,False
2017393872,listing,/26-sirenia-drive-burrum-heads-qld-4659-2017393872,565000,is-sold,Sold by private treaty 14 Jan 2022,20220114,26 Sirenia Drive,BURRUM HEADS,QLD,4659,-25.2072277,152.6291,4,4,4,House,House,False,760.0,m2,False
2017427214,listing,/125-burrum-street-burrum-heads-qld-4659-2017427214,665000,is-sold,Sold by private treaty 14 Jan 2022,20220114,125 Burrum Street,BURRUM HEADS,QLD,4659,-25.1882763,152.61882,3,3,3,House,House,False,804.0,m2,False
2017428548,listing,/308-pacific-haven-circuit-pacific-haven-qld-4659-2017428548,315000,is-sold,Sold by private treaty 27 Dec 2021,20211227,308 Pacific Haven Circuit,PACIFIC HAVEN,QLD,4659,-25.25446,152.553772,1,1,1,VacantLand,Vacant land,False,130000.0,m2,False
2017454105,listing,/33-beach-drive-burrum-heads-qld-4659-2017454105,500000,is-sold,Sold by private treaty 03 Feb 2022,20220203,33 Beach Drive,BURRUM HEADS,QLD,4659,-25.2117043,152.633041,2,2,2,House,House,False,820.0,m2,False
2017454625,listing,/26-thomas-street-howard-qld-4659-2017454625,335000,is-sold,Sold by private treaty 11 Jan 2022,20220111,26 Thomas Street,HOWARD,QLD,4659,-25.3230934,152.561478,3,3,3,House,House,False,4077.0,m2,False
2017473973,listing,/131-williams-st-howard-qld-4659-2017473973,Price Withheld,is-sold,Sold by private treaty 28 Dec 2021,20211228,131 Williams St,HOWARD,QLD,4659,-25.3223248,152.556961,3,3,3,House,House,False,1088.0,m2,False
2017494427,listing,/25-lakes-bvd-burrum-heads-qld-4659-2017494427,720000,is-sold,Sold by private treaty 05 Jan 2022,20220105,25 Lakes Bvd,BURRUM HEADS,QLD,4659,-25.2128372,152.633331,3,3,3,House,House,False,843.0,m2,False
2017499035,listing,/12-annie-st-howard-qld-4659-2017499035,435000,is-sold,Sold by private treaty 01 Feb 2022,20220201,12 Annie St,HOWARD,QLD,4659,-25.32268,152.555283,3,3,3,House,House,False,2039.0,m2,False
2017512187,listing,/14-jarrah-court-burrum-heads-qld-4659-2017512187,755000,is-sold,Sold by private treaty 31 Jan 2022,20220131,14 Jarrah Court,BURRUM HEADS,QLD,4659,-25.240181,152.5928,4,4,4,House,House,False,2003.0,m2,False
2017515454,listing,/17-miller-crescent-burrum-heads-qld-4659-2017515454,390000,is-sold,Sold by private treaty 28 Jan 2022,20220128,17 Miller Crescent,BURRUM HEADS,QLD,4659,-25.2384167,152.591,3,3,3,House,House,True,2.0,ha,False
2017528386,listing,/69-wallsend-street-burrum-town-qld-4659-2017528386,185000,is-sold,Sold by private treaty 21 Jan 2022,20220121,69 Wallsend Street,BURRUM TOWN,QLD,4659,-25.3251114,152.585342,NaN,NaN,NaN,VacantLand,Vacant land,False,1012.0,m2,False
2017545252,listing,/80-gregory-st-howard-qld-4659-2017545252,552000,is-sold,Sold by private treaty 04 Feb 2022,20220204,80 Gregory St,HOWARD,QLD,4659,-25.3027363,152.569412,3,3,3,House,House,False,161874.0,m2,False
2017573977,listing,/30-charles-street-howard-qld-4659-2017573977,Price Withheld,is-sold,Sold by private treaty 05 Feb 2022,20220205,30 Charles Street,HOWARD,QLD,4659,-25.3203564,152.556778,2,2,2,House,House,False,2024.0,m2,False
2017621657,listing,/64-beach-drive-burrum-heads-qld-4659-2017621657,445000,is-sold,Sold by private treaty 08 Feb 2022,20220208,64 Beach Drive,BURRUM HEADS,QLD,4659,-25.21264,152.6356,NaN,NaN,NaN,NewLand,New land,False,930.0,m2,False
2017630439,listing,/47-riverview-dr-burrum-heads-qld-4659-2017630439,495000,is-sold,Sold by private treaty 10 Jan 2022,20220110,47 Riverview Dr,BURRUM HEADS,QLD,4659,-25.1870022,152.607941,3,3,3,House,House,False,0.0,m2,False
2017716079,listing,/324-beelbi-creek-road-beelbi-creek-qld-4659-2017716079,640000,is-sold,Sold by private treaty 05 Feb 2022,20220205,324 Beelbi Creek Road,BEELBI CREEK,QLD,4659,-25.2879429,152.626892,3,3,3,AcreageSemiRural,Acreage / Semi-Rural,True,3.46,ha,False
2009400810,listing,/308-pacific-haven-crct-pacific-haven-qld-4659-2009400810,315000,is-sold,Sold by private treaty 27 Dec 2021,20211227,308 Pacific Haven Crct,PACIFIC HAVEN,QLD,4659,-25.2550068,152.5552,NaN,NaN,NaN,VacantLand,Vacant land,True,13.0,ha,False
2013674050,listing,/5-lakes-boulevard-burrum-heads-qld-4659-2013674050,Price Withheld,is-sold,Sold by private treaty 16 Dec 2021,20211216,5 Lakes Boulevard,BURRUM HEADS,QLD,4659,-25.2120075,152.631882,3,3,3,House,House,False,810.0,m2,False
2016924362,listing,/953-burrum-heads-road-burrum-river-qld-4659-2016924362,1215000,is-sold,Sold by private treaty 21 Dec 2021,20211221,953 Burrum Heads Road,BURRUM RIVER,QLD,4659,-25.2589912,152.573837,4,4,4,House,House,False,250800.0,m2,False
2017037669,listing,/36-case-road-burrum-town-qld-4659-2017037669,150000,is-sold,Sold by private treaty 13 Dec 2021,20211213,36 Case Road,BURRUM TOWN,QLD,4659,-25.3254814,152.584991,2,2,2,House,House,False,911.0,m2,False
2017273135,listing,/26-steley-street-howard-qld-4659-2017273135,270000,is-sold,Sold by private treaty 10 Dec 2021,20211210,26 Steley Street,HOWARD,QLD,4659,-25.3206863,152.565765,3,3,3,House,House,False,2276.0,m2,False
2017330166,listing,/38-case-road-burrum-town-qld-4659-2017330166,Price Withheld,is-sold,Sold by private treaty 13 Dec 2021,20211213,38 Case Road,BURRUM TOWN,QLD,4659,-25.3256035,152.58519,NaN,NaN,NaN,VacantLand,Vacant land,False,911.0,m2,False
2017347717,listing,/4-fulmar-court-burrum-heads-qld-4659-2017347717,650000,is-sold,Sold by private treaty 13 Dec 2021,20211213,4 Fulmar Court,BURRUM HEADS,QLD,4659,-25.2085266,152.632126,4,4,4,House,House,False,700.0,m2,False
2017349337,listing,/35-orchid-drive-burrum-heads-qld-4659-2017349337,540000,is-sold,Sold by private treaty 15 Dec 2021,20211215,35 Orchid Drive,BURRUM HEADS,QLD,4659,-25.2098732,152.631989,3,3,3,House,House,False,800.0,m2,False
2017362858,listing,/8-ross-street-burrum-heads-qld-4659-2017362858,Price Withheld,is-sold,Sold by private treaty 11 Dec 2021,20211211,8 Ross Street,BURRUM HEADS,QLD,4659,-25.1849422,152.61,3,3,3,House,House,False,502.0,m2,False
2017379971,listing,/19-island-close-pacific-haven-qld-4659-2017379971,1268000,is-sold,Sold by private treaty 22 Dec 2021,20211222,19 Island Close,PACIFIC HAVEN,QLD,4659,-25.2304783,152.539551,5,5,5,House,House,False,1024.0,m2,False
2017413108,listing,/2-14-drouin-crescent-burrum-river-qld-4659-2017413108,505000,is-sold,Sold by private treaty 24 Dec 2021,20211224,2-14 Drouin Crescent,BURRUM RIVER,QLD,4659,-25.2872086,152.583588,4,4,4,House,House,True,2.78,ha,False
2017424694,listing,/16-26-drouin-crescent-burrum-river-qld-4659-2017424694,830000,is-sold,Sold by private treaty 23 Dec 2021,20211223,16-26 Drouin Crescent,BURRUM RIVER,QLD,4659,-25.2866554,152.584839,6,6,6,House,House,True,2.48,ha,False
2017438257,listing,/46-esplanade-esplanade-burrum-heads-qld-4659-2017438257,1450000,is-sold,Sold by private treaty 16 Dec 2021,20211216,46 Esplanade Esplanade,BURRUM HEADS,QLD,4659,-25.18486,152.61644,4,4,4,House,House,False,1012.0,m2,False
2017442607,listing,/7-charles-street-howard-qld-4659-2017442607,111000,is-sold,Sold by private treaty 13 Dec 2021,20211213,7 Charles Street,HOWARD,QLD,4659,-25.3203564,152.5578,NaN,NaN,NaN,VacantLand,Vacant land,False,1010.0,m2,False
2017458295,listing,/13-beaufort-street-howard-qld-4659-2017458295,440000,is-sold,Sold by private treaty 16 Dec 2021,20211216,13 BEAUFORT STREET,HOWARD,QLD,4659,-25.3142853,152.557,3,3,3,House,House,False,1037.0,m2,False
2017458721,listing,/57-riverview-drive-burrum-heads-qld-4659-2017458721,645000,is-sold,Sold by private treaty 21 Dec 2021,20211221,57 Riverview Drive,BURRUM HEADS,QLD,4659,-25.18672,152.60701,5,5,5,House,House,False,841.0,m2,False
2017481540,listing,/2-tulipwood-drive-burrum-heads-qld-4659-2017481540,720000,is-sold,Sold by private treaty 22 Dec 2021,20211222,2 Tulipwood Drive,BURRUM HEADS,QLD,4659,-25.1913948,152.6039,3,3,3,House,House,False,864.0,m2,False
2017485546,listing,/58-sirenia-drive-burrum-heads-qld-4659-2017485546,520000,is-sold,Sold by private treaty 15 Dec 2021,20211215,58 Sirenia Drive,BURRUM HEADS,QLD,4659,-25.2046928,152.626755,3,3,3,House,House,False,859.0,m2,False
2017486479,listing,/28-king-st-howard-qld-4659-2017486479,332000,is-sold,Sold by private treaty 18 Dec 2021,20211218,28 King St,HOWARD,QLD,4659,-25.32163,152.562836,3,3,3,House,House,False,1788.0,m2,False
2017495920,listing,/17-wallsend-street-burrum-town-qld-4659-2017495920,75000,is-sold,Sold by private treaty 17 Dec 2021,20211217,17 WALLSEND STREET,BURRUM TOWN,QLD,4659,-25.3291016,152.581253,NaN,NaN,NaN,VacantLand,Vacant land,False,1012.0,m2,False
2016912445,listing,/3-travis-road-burrum-heads-qld-4659-2016912445,690000,is-sold,Sold by private treaty 22 Nov 2021,20211122,3 Travis Road,BURRUM HEADS,QLD,4659,-25.19167,152.621292,5,5,5,House,House,False,797.0,m2,False
2017035550,listing,/stage-1-land-release-lilly-pilly-drive-burrum-heads-qld-4659-2017035550,194950,is-sold,Sold by private treaty 01 Dec 2021,20211201,Stage 1 Land Release Lilly Pilly Drive,BURRUM HEADS,QLD,4659,-25.1922932,152.6037,NaN,NaN,NaN,VacantLand,Vacant land,False,800.0,m2,False
2017090252,listing,/107-pacific-haven-circuit-pacific-haven-qld-4659-2017090252,210000,is-sold,Sold by private treaty 25 Nov 2021,20211125,107 Pacific Haven Circuit,PACIFIC HAVEN,QLD,4659,-25.2439518,152.536942,NaN,NaN,NaN,VacantLand,Vacant land,False,149733.0,m2,False
2017105852,listing,/2-12-fulmar-court-burrum-heads-qld-4659-2017105852,360000,is-sold,Sold by private treaty 03 Dec 2021,20211203,2/12 FULMAR COURT,BURRUM HEADS,QLD,4659,-25.2086773,152.631241,3,3,3,House,House,False,142.0,m2,False
2017183087,listing,/91-beach-drive-burrum-heads-qld-4659-2017183087,350000,is-sold,Sold by private treaty 15 Nov 2021,20211115,91 Beach Drive,BURRUM HEADS,QLD,4659,-25.2151051,152.635757,NaN,NaN,NaN,VacantLand,Vacant land,False,2007.0,m2,False
2017195411,listing,/181-pacific-haven-circuit-pacific-haven-qld-4659-2017195411,110000,is-sold,Sold by private treaty 12 Nov 2021,20211112,181 Pacific Haven Circuit,PACIFIC HAVEN,QLD,4659,-25.23696,152.55069,NaN,NaN,NaN,VacantLand,Vacant land,False,10000.0,m2,False
2017246436,listing,/23-beach-dr-burrum-heads-qld-4659-2017246436,665000,is-sold,Sold by private treaty 11 Nov 2021,20211111,23 Beach Dr,BURRUM HEADS,QLD,4659,-25.2115231,152.631653,4,4,4,House,House,False,810.0,m2,False
2017247897,listing,/25-lower-thomas-st-howard-qld-4659-2017247897,Price Withheld,is-sold,Sold by private treaty 15 Nov 2021,20211115,25 Lower Thomas St,HOWARD,QLD,4659,-25.32246,152.561584,3,3,3,House,House,False,14600.0,m2,False
2017250702,listing,/65-riverview-drive-burrum-heads-qld-4659-2017250702,552000,is-sold,Sold by private treaty 15 Nov 2021,20211115,65 Riverview Drive,BURRUM HEADS,QLD,4659,-25.18581,152.606888,4,4,4,House,House,False,761.0,m2,False
2017262562,listing,/3-bulleen-way-burrum-heads-qld-4659-2017262562,375000,is-sold,Sold by private treaty 30 Nov 2021,20211130,3 Bulleen Way,BURRUM HEADS,QLD,4659,-25.1866283,152.605057,NaN,NaN,NaN,VacantLand,Vacant land,False,786.0,m2,False
2017269028,listing,/143-william-st-howard-qld-4659-2017269028,300000,is-sold,Sold by private treaty 18 Nov 2021,20211118,143 William St,HOWARD,QLD,4659,-25.3234119,152.555313,3,3,3,House,House,False,1020.0,m2,False
2017300062,listing,/1-coral-ave-pacific-haven-qld-4659-2017300062,305000,is-sold,Sold by private treaty 04 Dec 2021,20211204,1 Coral Ave,PACIFIC HAVEN,QLD,4659,-25.25925,152.5353,2,2,2,House,House,False,12140.0,m2,False
2017312271,listing,/11-dalkieth-st-burrum-town-qld-4659-2017312271,295000,is-sold,Sold by private treaty 15 Nov 2021,20211115,11 Dalkieth St,BURRUM TOWN,QLD,4659,-25.327631,152.579987,2,2,2,House,House,False,804.0,m2,False
2017322126,listing,/36-sirenia-drive-burrum-heads-qld-4659-2017322126,320000,is-sold,Sold by private treaty 03 Dec 2021,20211203,36 Sirenia Drive,BURRUM HEADS,QLD,4659,-25.2066975,152.6283,NaN,NaN,NaN,VacantLand,Vacant land,False,786.0,m2,False
2017367262,listing,/4-bulleen-way-burrum-heads-qld-4659-2017367262,680000,is-sold,Sold by private treaty 22 Nov 2021,20211122,4 BULLEEN WAY,BURRUM HEADS,QLD,4659,-25.1864,152.60553,3,3,3,House,House,False,750.0,m2,False
2017369487,listing,/16-warringal-court-burrum-heads-qld-4659-2017369487,650000,is-sold,Sold by private treaty 15 Nov 2021,20211115,16 Warringal Court,BURRUM HEADS,QLD,4659,-25.1871071,152.606979,4,4,4,House,House,False,861.0,m2,False
2017404645,listing,/8-18-hoffman-street-burrum-heads-qld-4659-2017404645,485000,is-sold,Sold by private treaty 08 Dec 2021,20211208,8/18 Hoffman Street,BURRUM HEADS,QLD,4659,-25.1859074,152.61113,3,3,3,Duplex,Duplex,False,162.0,m2,False
2017428638,listing,/8-10-annie-street-howard-qld-4659-2017428638,440000,is-sold,Sold by private treaty 23 Nov 2021,20211123,8-10 Annie Street,HOWARD,QLD,4659,-25.3228722,152.555511,3,3,3,House,House,False,2039.0,m2,False
2017536984,listing,/54-sirenia-drive-burrum-heads-qld-4659-2017536984,500000,is-sold,Sold by private treaty 22 Nov 2021,20211122,54 Sirenia Drive,BURRUM HEADS,QLD,4659,-25.2049942,152.626984,4,4,4,House,House,False,780.0,m2,False
2017562854,listing,/36-252-burrum-heads-road-burrum-heads-qld-4659-2017562854,3390750,is-sold,Sold by private treaty 11 Nov 2021,20211111,36-252 Burrum Heads Road,BURRUM HEADS,QLD,4659,-25.197401,152.615692,NaN,NaN,NaN,NewLand,New land,True,176.3,ha,False
2011235990,listing,/65-william-street-howard-qld-4659-2011235990,310000,is-sold,Sold by private treaty 25 Oct 2021,20211025,65 William Street,HOWARD,QLD,4659,-25.3173714,152.56192,NaN,NaN,NaN,VacantLand,Vacant land,False,1156.0,m2,False
2014289167,listing,/lot-1-0-old-bruce-hwy-burrum-town-qld-4659-2014289167,289500,is-sold,Sold by private treaty 26 Oct 2021,20211026,Lot 1/0 Old Bruce Hwy,BURRUM TOWN,QLD,4659,-25.3303356,152.578934,NaN,NaN,NaN,House,House,False,137100.0,m2,False
2017103968,listing,/10-eds-pl-burrum-heads-qld-4659-2017103968,365000,is-sold,Sold by private treaty 29 Oct 2021,20211029,10 Eds Pl,BURRUM HEADS,QLD,4659,-25.215147,152.6371,2,2,2,House,House,False,950.0,m2,False
2017106957,listing,/30-barramundi-drive-burrum-heads-qld-4659-2017106957,289000,is-sold,Sold by private treaty 28 Oct 2021,20211028,30 Barramundi Drive,BURRUM HEADS,QLD,4659,-25.2077255,152.631409,NaN,NaN,NaN,VacantLand,Vacant land,False,700.0,m2,False
2017154900,listing,/12-charles-street-howard-qld-4659-2017154900,255000,is-sold,Sold by private treaty 03 Nov 2021,20211103,12 CHARLES STREET,HOWARD,QLD,4659,-25.3205223,152.5571,3,3,3,House,House,False,1012.0,m2,False
2017238329,listing,/58-beach-drive-burrum-heads-qld-4659-2017238329,350000,is-sold,Sold by private treaty 19 Oct 2021,20211019,58 Beach Drive,BURRUM HEADS,QLD,4659,-25.2121658,152.63533,NaN,NaN,NaN,VacantLand,Vacant land,False,930.0,m2,False
2017250525,listing,/563-toogoom-road-beelbi-creek-qld-4659-2017250525,1150000,is-sold,Sold by private treaty 27 Oct 2021,20211027,563 Toogoom Road,BEELBI CREEK,QLD,4659,-25.2759418,152.654861,4,4,4,House,House,False,165921.0,m2,False
2017272950,listing,/24-watkins-street-howard-qld-4659-2017272950,130000,is-sold,Sold by private treaty 26 Oct 2021,20211026,24 Watkins Street,HOWARD,QLD,4659,-25.3181839,152.560776,2,2,2,House,House,False,1234.0,m2,False
2017273758,listing,/52-salford-street-burrum-town-qld-4659-2017273758,90000,is-sold,Sold by private treaty 22 Oct 2021,20211022,52 Salford Street,BURRUM TOWN,QLD,4659,-25.3259945,152.587021,NaN,NaN,NaN,VacantLand,Vacant land,False,1012.0,m2,False
2017279157,listing,/20-bentwood-street-burrum-heads-qld-4659-2017279157,760000,is-sold,Sold by private treaty 02 Nov 2021,20211102,20 BENTWOOD STREET,BURRUM HEADS,QLD,4659,-25.2131424,152.634369,3,3,3,House,House,False,1228.0,m2,False
2017292468,listing,/5-krista-court-burrum-heads-qld-4659-2017292468,230000,is-sold,Sold by private treaty 18 Oct 2021,20211018,5 KRISTA COURT,BURRUM HEADS,QLD,4659,-25.1899242,152.608643,NaN,NaN,NaN,House,House,False,835.0,m2,False
2017293205,listing,/18-sandcastles-circuit-burrum-heads-qld-4659-2017293205,250000,is-sold,Sold by private treaty 20 Oct 2021,20211020,18 Sandcastles Circuit,BURRUM HEADS,QLD,4659,-25.20583,152.630981,NaN,NaN,NaN,VacantLand,Vacant land,False,0.0,m2,False
2017301675,listing,/219-pacific-haven-circuit-pacific-haven-qld-4659-2017301675,500000,is-sold,Sold by private treaty 26 Oct 2021,20211026,219 PACIFIC HAVEN CIRCUIT,PACIFIC HAVEN,QLD,4659,-25.2423878,152.556885,3,3,3,House,House,True,1.09,ha,False
2017319917,listing,/84-pacific-haven-circuit-pacific-haven-qld-4659-2017319917,168500,is-sold,Sold by private treaty 01 Nov 2021,20211101,84 Pacific Haven Circuit,PACIFIC HAVEN,QLD,4659,-25.2531948,152.535278,NaN,NaN,NaN,VacantLand,Vacant land,False,9770.0,m2,False
2017344457,listing,/42-tambaroora-st-howard-qld-4659-2017344457,168500,is-sold,Sold by private treaty 25 Oct 2021,20211025,42 Tambaroora St,HOWARD,QLD,4659,-25.312252,152.561722,2,2,2,House,House,False,1010.0,m2,False
2017349830,listing,/115-burrum-street-burrum-heads-qld-4659-2017349830,635000,is-sold,Sold by private treaty 10 Nov 2021,20211110,115 BURRUM STREET,BURRUM HEADS,QLD,4659,-25.1875935,152.618118,3,3,3,House,House,False,804.0,m2,False
2017356705,listing,/77-burrum-street-burrum-heads-qld-4659-2017356705,760000,is-sold,Sold by private treaty 03 Nov 2021,20211103,77 BURRUM STREET,BURRUM HEADS,QLD,4659,-25.1853466,152.615234,4,4,4,House,House,False,1012.0,m2,False
2017357269,listing,/2-jacqueline-drive-pacific-haven-qld-4659-2017357269,360000,is-sold,Sold by private treaty 01 Nov 2021,20211101,2 Jacqueline Drive,PACIFIC HAVEN,QLD,4659,-25.2324753,152.546219,2,2,2,House,House,True,10000.0,m2,False
2017361469,listing,/7-travis-road-burrum-heads-qld-4659-2017361469,825000,is-sold,Sold by private treaty 08 Nov 2021,20211108,7 TRAVIS ROAD,BURRUM HEADS,QLD,4659,-25.1920128,152.621536,6,6,6,House,House,False,945.0,m2,False
2017432629,listing,/30-sirenia-drive-burrum-heads-qld-4659-2017432629,290000,is-sold,Sold by private treaty 22 Oct 2021,20211022,30 Sirenia Drive,BURRUM HEADS,QLD,4659,-25.2070446,152.628754,NaN,NaN,NaN,VacantLand,Vacant land,False,809.0,m2,False
2016155475,listing,/293-319-the-yachtsmans-drive-burrum-river-qld-4659-2016155475,825000,is-sold,Sold by private treaty 11 Oct 2021,20211011,293-319 The Yachtsmans Drive,BURRUM RIVER,QLD,4659,-25.2170849,152.546677,NaN,NaN,NaN,VacantLand,Vacant land,False,0.0,m2,False
2016745512,listing,/232-pacific-haven-circuit-pacific-haven-qld-4659-2016745512,270000,is-sold,Sold by private treaty 03 Oct 2021,20211003,232 Pacific Haven Circuit,PACIFIC HAVEN,QLD,4659,-25.23676,152.558731,NaN,NaN,NaN,VacantLand,Vacant land,False,10117.0,m2,False
2016879385,listing,/152-burrum-street-burrum-heads-qld-4659-2016879385,Price Withheld,is-sold,Sold by private treaty 29 Sep 2021,20210929,152 BURRUM STREET,BURRUM HEADS,QLD,4659,-25.18957,152.620956,4,4,4,House,House,False,947.0,m2,False
2017006018,listing,/270-290-pacific-haven-drive-pacific-haven-qld-4659-2017006018,250000,is-sold,Sold by private treaty 05 Oct 2021,20211005,270-290 Pacific Haven Drive,PACIFIC HAVEN,QLD,4659,-25.28612,152.560364,NaN,NaN,NaN,AcreageSemiRural,Acreage / Semi-Rural,True,15.88,ha,False
2017014007,listing,/28-james-street-howard-qld-4659-2017014007,265000,is-sold,Sold by private treaty 18 Oct 2021,20211018,28 JAMES STREET,HOWARD,QLD,4659,-25.3201847,152.556732,3,3,3,House,House,False,1012.0,m2,False
2017096307,listing,/27-dreamtime-avenue-burrum-heads-qld-4659-2017096307,625000,is-sold,Sold by private treaty 06 Oct 2021,20211006,27 Dreamtime Avenue,BURRUM HEADS,QLD,4659,-25.2331066,152.5945,4,4,4,House,House,True,10000.0,m2,False
2017121847,listing,/16-miller-crescent-burrum-heads-qld-4659-2017121847,480000,is-sold,Sold by private treaty 06 Oct 2021,20211006,16 Miller Crescent,BURRUM HEADS,QLD,4659,-25.2368546,152.591461,3,3,3,House,House,True,2.02,ha,False
2017143001,listing,/6-sandcastles-circuit-burrum-heads-qld-4659-2017143001,725000,is-sold,Sold by private treaty 05 Oct 2021,20211005,6 Sandcastles Circuit,BURRUM HEADS,QLD,4659,-25.2070026,152.631668,4,4,4,House,House,False,712.0,m2,False
2017145089,listing,/4-elboz-ct-burrum-heads-qld-4659-2017145089,560000,is-sold,Sold by private treaty 27 Sep 2021,20210927,4 Elboz Ct,BURRUM HEADS,QLD,4659,-25.2411842,152.5879,4,4,4,House,House,False,2000.0,m2,False
2017168995,listing,/9-jacqueline-drive-pacific-haven-qld-4659-2017168995,740000,is-sold,Sold by private treaty 15 Oct 2021,20211015,9 Jacqueline Drive,PACIFIC HAVEN,QLD,4659,-25.23016,152.545074,5,5,5,House,House,False,5132.0,m2,False
2017178198,listing,/56-traviston-way-burrum-heads-qld-4659-2017178198,455000,is-sold,Sold by private treaty 29 Sep 2021,20210929,56 TRAVISTON WAY,BURRUM HEADS,QLD,4659,-25.1873951,152.601456,NaN,NaN,NaN,VacantLand,Vacant land,False,1000.0,m2,False
2017205844,listing,/1731-torbanlea-pialba-road-burgowan-qld-4659-2017205844,545000,is-sold,Sold by private treaty 22 Sep 2021,20210922,1731 Torbanlea Pialba Road,BURGOWAN,QLD,4659,-25.3302689,152.626526,3,3,3,House,House,False,20234.0,m2,False
2017213291,listing,/6-bryan-ct-burrum-heads-qld-4659-2017213291,652500,is-sold,Sold by private treaty 11 Oct 2021,20211011,6 Bryan Ct,BURRUM HEADS,QLD,4659,-25.1897335,152.604553,4,4,4,House,House,False,820.0,m2,False
2017226339,listing,/11-beach-dr-burrum-heads-qld-4659-2017226339,515000,is-sold,Sold by private treaty 15 Oct 2021,20211015,11 Beach Dr,BURRUM HEADS,QLD,4659,-25.2114,152.630661,3,3,3,House,House,False,800.0,m2,False
2017249506,listing,/72-pacific-haven-circuit-pacific-haven-qld-4659-2017249506,491000,is-sold,Sold by private treaty 24 Sep 2021,20210924,72 PACIFIC HAVEN CIRCUIT,PACIFIC HAVEN,QLD,4659,-25.2556782,152.5357,2,2,2,House,House,False,8536.0,m2,False
2017265813,listing,/15-whitley-st-howard-qld-4659-2017265813,95000,is-sold,Sold by private treaty 24 Sep 2021,20210924,15 Whitley St,HOWARD,QLD,4659,-25.3155346,152.562119,NaN,NaN,NaN,VacantLand,Vacant land,False,1006.0,m2,False
2017275515,listing,/37-ranch-park-dr-pacific-haven-qld-4659-2017275515,165000,is-sold,Sold by private treaty 25 Sep 2021,20210925,37 Ranch Park Dr,PACIFIC HAVEN,QLD,4659,-25.249054,152.549667,NaN,NaN,2.0,VacantLand,Vacant land,False,22700.0,m2,False
2017279088,listing,/13-sandcastles-circuit-burrum-heads-qld-4659-2017279088,415000,is-sold,Sold by private treaty 13 Oct 2021,20211013,13 Sandcastles Circuit,BURRUM HEADS,QLD,4659,-25.2066059,152.632355,NaN,NaN,NaN,VacantLand,Vacant land,False,861.0,m2,False
2017302002,listing,/26-sandcastles-circuit-burrum-heads-qld-4659-2017302002,215000,is-sold,Sold by private treaty 14 Oct 2021,20211014,26 Sandcastles Circuit,BURRUM HEADS,QLD,4659,-25.2053757,152.630508,NaN,NaN,NaN,VacantLand,Vacant land,False,700.0,m2,False
2017333125,listing,/18-bryan-court-burrum-heads-qld-4659-2017333125,340000,is-sold,Sold by private treaty 15 Oct 2021,20211015,18 Bryan Court,BURRUM HEADS,QLD,4659,-25.1889763,152.605881,NaN,NaN,NaN,VacantLand,Vacant land,False,893.0,m2,False
2016957299,listing,/43-sirenia-drive-burrum-heads-qld-4659-2016957299,587500,is-sold,Sold by private treaty 10 Sep 2021,20210910,43 Sirenia Drive,BURRUM HEADS,QLD,4659,-25.20581,152.6281,4,4,4,House,House,False,807.0,m2,False
2016968111,listing,/2-tamarind-close-burrum-heads-qld-4659-2016968111,650000,is-sold,Sold by private treaty 09 Sep 2021,20210909,2 Tamarind Close,BURRUM HEADS,QLD,4659,-25.2102051,152.633347,6,6,6,House,House,False,743.0,m2,False
2016996178,listing,/7-barramundi-dr-burrum-heads-qld-4659-2016996178,510000,is-sold,Sold by private treaty 07 Sep 2021,20210907,7 Barramundi Dr,BURRUM HEADS,QLD,4659,-25.2094536,152.631363,4,4,4,House,House,False,700.0,m2,False
2016997320,listing,/4-cheellii-court-burrum-heads-qld-4659-2016997320,620000,is-sold,Sold by private treaty 22 Sep 2021,20210922,4 Cheellii Court,BURRUM HEADS,QLD,4659,-25.19155,152.604034,4,4,4,House,House,False,881.0,m2,False
2017043753,listing,/1-2-3-seashells-court-burrum-heads-qld-4659-2017043753,995000,is-sold,Sold by private treaty 17 Sep 2021,20210917,"1, 2/3 Seashells Court",BURRUM HEADS,QLD,4659,-25.2046566,152.630585,6,6,6,SemiDetached,Semi-Detached,False,0.0,m2,False
2017126825,listing,/63-marina-drive-pacific-haven-qld-4659-2017126825,122000,is-sold,Sold by private treaty 15 Sep 2021,20210915,63 Marina Drive,PACIFIC HAVEN,QLD,4659,-25.25156,152.549652,NaN,NaN,NaN,VacantLand,Vacant land,False,39800.0,m2,False
2017150544,listing,/29-bryan-ct-burrum-heads-qld-4659-2017150544,585000,is-sold,Sold by private treaty 07 Sep 2021,20210907,29 Bryan Ct,BURRUM HEADS,QLD,4659,-25.1887321,152.6064,3,3,3,House,House,False,824.0,m2,False
2017164684,listing,/26-marina-drive-pacific-haven-qld-4659-2017164684,320000,is-sold,Sold by private treaty 16 Sep 2021,20210916,26 Marina Drive,PACIFIC HAVEN,QLD,4659,-25.2418079,152.546448,2,2,2,House,House,False,22400.0,m2,False
2017172487,listing,/163-burrum-street-burrum-heads-qld-4659-2017172487,670000,is-sold,Sold by private treaty 21 Sep 2021,20210921,163 Burrum Street,BURRUM HEADS,QLD,4659,-25.1912613,152.62204,3,3,3,House,House,False,607.0,m2,False
2017187728,listing,/47-howard-street-burrum-heads-qld-4659-2017187728,430000,is-sold,Sold by private treaty 14 Sep 2021,20210914,47 Howard Street,BURRUM HEADS,QLD,4659,-25.1856079,152.61377,2,2,2,House,House,False,809.0,m2,False
2017196482,listing,/107-ralphs-road-howard-qld-4659-2017196482,1100000,is-sold,Sold by private treaty 21 Sep 2021,20210921,107 Ralphs Road,HOWARD,QLD,4659,-25.3514919,152.522171,4,4,4,House,House,True,64.75,ha,False
2017211318,listing,/29-arthur-st-howard-qld-4659-2017211318,95000,is-sold,Sold by private treaty 06 Sep 2021,20210906,29 Arthur St,HOWARD,QLD,4659,-25.3165169,152.5562,NaN,NaN,NaN,Townhouse,Townhouse,False,1012.0,m2,False
2017216525,listing,/pacific-haven-qld-4659-2017216525,630000,is-sold,Sold by private treaty 17 Sep 2021,20210917,NaN,PACIFIC HAVEN,QLD,4659,-25.27617,152.549225,3,3,3,House,House,False,9393.0,m2,False
2017217269,listing,/3-beach-drive-burrum-heads-qld-4659-2017217269,500000,is-sold,Sold by private treaty 21 Sep 2021,20210921,3 Beach Drive,BURRUM HEADS,QLD,4659,-25.2113,152.629883,3,3,3,House,House,False,800.0,m2,False
2017219918,listing,/4-traviston-way-burrum-heads-qld-4659-2017219918,320000,is-sold,Sold by private treaty 10 Sep 2021,20210910,4 Traviston Way,BURRUM HEADS,QLD,4659,-25.1888657,152.602661,NaN,NaN,NaN,VacantLand,Vacant land,False,746.0,m2,False
2017220162,listing,/19-whitley-street-howard-qld-4659-2017220162,265000,is-sold,Sold by private treaty 16 Sep 2021,20210916,19 Whitley Street,HOWARD,QLD,4659,-25.31517,152.562057,2,2,2,House,House,False,810.0,m2,False
2017220600,listing,/101-pacific-haven-circuit-pacific-haven-qld-4659-2017220600,249000,is-sold,Sold by private treaty 20 Sep 2021,20210920,101 PACIFIC HAVEN CIRCUIT,PACIFIC HAVEN,QLD,4659,-25.2453251,152.530853,NaN,NaN,NaN,VacantLand,Vacant land,True,3.48,ha,False
2017234000,listing,/90-river-road-howard-qld-4659-2017234000,150000,is-sold,Sold by private treaty 13 Sep 2021,20210913,90 River Road,HOWARD,QLD,4659,-25.33129,152.558487,NaN,NaN,NaN,VacantLand,Vacant land,False,16700.0,m2,False
2017235616,listing,/68-sunrise-crescent-burrum-heads-qld-4659-2017235616,725000,is-sold,Sold by private treaty 22 Sep 2021,20210922,68 SUNRISE CRESCENT,BURRUM HEADS,QLD,4659,-25.1861248,152.606339,3,3,3,House,House,False,894.0,m2,False
2017239427,listing,/12-beach-drive-burrum-heads-qld-4659-2017239427,490000,is-sold,Sold by private treaty 09 Sep 2021,20210909,12 Beach Drive,BURRUM HEADS,QLD,4659,-25.210825,152.630753,4,4,4,House,House,False,810.0,m2,False
2013101989,listing,/lot-1-0-bruce-highway-howard-qld-4659-2013101989,Price Withheld,is-sold,Sold by private treaty 17 Aug 2021,20210817,Lot 1/0 Bruce Highway,HOWARD,QLD,4659,-25.32376,152.5499,NaN,NaN,NaN,VacantLand,Vacant land,False,57100.0,m2,False
2013846169,listing,/133-the-yachtsmans-drive-burrum-river-qld-4659-2013846169,360000,is-sold,Sold by private treaty 05 Aug 2021,20210805,133 The Yachtsmans Drive,BURRUM RIVER,QLD,4659,-25.2369232,152.58107,NaN,NaN,NaN,VacantLand,Vacant land,True,50.0,ha,False
2015898877,listing,/153-pacific-haven-circuit-pacific-haven-qld-4659-2015898877,Price Withheld,is-sold,Sold by private treaty 30 Aug 2021,20210830,153 Pacific Haven Circuit,PACIFIC HAVEN,QLD,4659,-25.2366238,152.543442,4,4,4,House,House,False,9955.0,m2,False
2016979277,listing,/7-howard-heights-road-howard-qld-4659-2016979277,250000,is-sold,Sold by private treaty 16 Aug 2021,20210816,7 HOWARD HEIGHTS ROAD,HOWARD,QLD,4659,-25.3252525,152.553925,3,3,3,House,House,False,1052.0,m2,False
2016987527,listing,/26-beach-dr-burrum-heads-qld-4659-2016987527,485000,is-sold,Sold by private treaty 16 Aug 2021,20210816,26 Beach Dr,BURRUM HEADS,QLD,4659,-25.2109985,152.632126,4,4,4,House,House,False,810.0,m2,False
2017024799,listing,/181-burrum-st-burrum-heads-qld-4659-2017024799,747500,is-sold,Sold by private treaty 04 Aug 2021,20210804,181 Burrum St,BURRUM HEADS,QLD,4659,-25.1926651,152.6231,6,6,6,House,House,False,607.0,m2,False
2017025220,listing,/16-eds-pl-burrum-heads-qld-4659-2017025220,273500,is-sold,Sold by private treaty 01 Sep 2021,20210901,16 Eds Pl,BURRUM HEADS,QLD,4659,-25.2156277,152.637329,NaN,NaN,NaN,VacantLand,Vacant land,False,881.0,m2,False
2017056170,listing,/29-louise-drive-burrum-heads-qld-4659-2017056170,566000,is-sold,Sold by private treaty 16 Aug 2021,20210816,29 Louise Drive,BURRUM HEADS,QLD,4659,-25.19002,152.606079,4,4,4,House,House,False,800.0,m2,False
2017109975,listing,/18-elboz-court-burrum-heads-qld-4659-2017109975,555000,is-sold,Sold by private treaty 18 Aug 2021,20210818,18 Elboz Court,BURRUM HEADS,QLD,4659,-25.2403564,152.585617,4,4,4,House,House,False,2243.0,m2,False
2017111704,listing,/45-47-watkins-street-howard-qld-4659-2017111704,217500,is-sold,Sold by private treaty 06 Aug 2021,20210806,45-47 WATKINS STREET,HOWARD,QLD,4659,-25.3166656,152.559937,2,2,2,House,House,False,1356.0,m2,False
2017138824,listing,/45-sirenia-dr-burrum-heads-qld-4659-2017138824,520000,is-sold,Sold by private treaty 06 Aug 2021,20210806,45 Sirenia Dr,BURRUM HEADS,QLD,4659,-25.2053947,152.627823,4,4,4,House,House,False,788.0,m2,False
2017147637,listing,/6-honey-myrtle-close-burrum-heads-qld-4659-2017147637,580000,is-sold,Sold by private treaty 19 Aug 2021,20210819,6 HONEY MYRTLE CLOSE,BURRUM HEADS,QLD,4659,-25.19263,152.601944,3,3,3,House,House,False,647.0,m2,False
2017164727,listing,/23-ranch-park-drive-pacific-haven-qld-4659-2017164727,135000,is-sold,Sold by private treaty 13 Aug 2021,20210813,23 Ranch Park Drive,PACIFIC HAVEN,QLD,4659,-25.24389,152.5498,NaN,NaN,NaN,VacantLand,Vacant land,False,24200.0,m2,False
2017166514,listing,/82-beach-drive-burrum-heads-qld-4659-2017166514,805000,is-sold,Sold by private treaty 24 Aug 2021,20210824,82 Beach Drive,BURRUM HEADS,QLD,4659,-25.214304,152.636429,3,3,3,House,House,False,949.0,m2,False
2017181110,listing,/138-pacific-haven-circuit-pacific-haven-qld-4659-2017181110,Price Withheld,is-sold,Sold by private treaty 20 Aug 2021,20210820,138 Pacific Haven Circuit,PACIFIC HAVEN,QLD,4659,-25.2407341,152.531158,NaN,NaN,NaN,VacantLand,Vacant land,False,11695.0,m2,False
2017200161,listing,/221-pacific-haven-circuit-pacific-haven-qld-4659-2017200161,500001,is-sold,Sold by private treaty 25 Aug 2021,20210825,221 Pacific Haven Circuit,PACIFIC HAVEN,QLD,4659,-25.2428169,152.5566,3,3,3,House,House,True,1.06,ha,False
2017211314,listing,/31-arthur-st-howard-qld-4659-2017211314,95000,is-sold,Sold by private treaty 30 Aug 2021,20210830,31 Arthur St,HOWARD,QLD,4659,-25.3166485,152.556061,NaN,NaN,NaN,VacantLand,Vacant land,False,1012.0,m2,False
2017215691,listing,/1-15-drouin-crescent-burrum-river-qld-4659-2017215691,595000,is-sold,Sold by private treaty 03 Sep 2021,20210903,1-15 DROUIN CRESCENT,BURRUM RIVER,QLD,4659,-25.2856789,152.582489,3,3,3,House,House,True,2.81,ha,False
2017215885,listing,/7-11-burgess-road-pacific-haven-qld-4659-2017215885,220000,is-sold,Sold by private treaty 31 Aug 2021,20210831,7-11 Burgess Road,PACIFIC HAVEN,QLD,4659,-25.2971573,152.583267,NaN,NaN,NaN,VacantLand,Vacant land,True,2.23,ha,False
2017537165,listing,/13-lucas-drive-burrum-heads-qld-4659-2017537165,575000,is-sold,Sold by private treaty 05 Aug 2021,20210805,13 Lucas Drive,BURRUM HEADS,QLD,4659,-25.19185,152.609177,4,4,4,House,House,False,814.0,m2,False
2012515933,listing,/2-prawle-street-howard-qld-4659-2012515933,70000,is-sold,Sold by private treaty 13 Jul 2021,20210713,2 Prawle Street,HOWARD,QLD,4659,-25.3200455,152.55249,NaN,NaN,NaN,VacantLand,Vacant land,False,1016.0,m2,False
2013759368,listing,/292-302-pacific-haven-drive-pacific-haven-qld-4659-2013759368,Price Withheld,is-sold,Sold by private treaty 03 Aug 2021,20210803,292 - 302 Pacific Haven Drive,PACIFIC HAVEN,QLD,4659,-25.2855015,152.55574,NaN,NaN,NaN,VacantLand,Vacant land,False,165300.0,m2,False
2014738356,listing,/20-22-south-heath-road-burrum-river-qld-4659-2014738356,585000,is-sold,Sold by private treaty 15 Jul 2021,20210715,20-22 South Heath Road,BURRUM RIVER,QLD,4659,-25.2897739,152.582733,3,3,3,House,House,True,1.03,ha,False
2016469276,listing,/142-beelbi-creek-road-beelbi-creek-qld-4659-2016469276,740000,is-sold,Sold by private treaty 21 Jul 2021,20210721,142 Beelbi Creek Road,BEELBI CREEK,QLD,4659,-25.2787247,152.636948,4,4,4,House,House,True,18.62,ha,False
2016780419,listing,/11-annie-street-howard-qld-4659-2016780419,Price Withheld,is-sold,Sold by private treaty 03 Aug 2021,20210803,11 Annie Street,HOWARD,QLD,4659,-25.3221779,152.5557,3,3,3,House,House,False,675.0,m2,False
2016847152,listing,/90-william-street-howard-qld-4659-2016847152,Price Withheld,is-sold,Sold by private treaty 13 Jul 2021,20210713,90 William Street,HOWARD,QLD,4659,-25.3201,152.559921,2,2,2,House,House,False,2125.0,m2,False
2016876206,listing,/336-pacific-haven-circuit-pacific-haven-qld-4659-2016876206,410000,is-sold,Sold by private treaty 22 Jul 2021,20210722,336 Pacific Haven Circuit,PACIFIC HAVEN,QLD,4659,-25.26357,152.55159,3,3,3,House,House,False,30300.0,m2,False
2016930374,listing,/8-charles-st-howard-qld-4659-2016930374,290000,is-sold,Sold by private treaty 21 Jul 2021,20210721,8 Charles St,HOWARD,QLD,4659,-25.3208141,152.557327,3,3,3,House,House,False,1012.0,m2,False
2016954226,listing,/1-hoffman-street-burrum-heads-qld-4659-2016954226,385000,is-sold,Sold by private treaty 12 Jul 2021,20210712,1 Hoffman Street,BURRUM HEADS,QLD,4659,-25.1861877,152.6125,4,4,4,House,House,False,1348.0,m2,False
2016969460,listing,/10-charles-st-howard-qld-4659-2016969460,290000,is-sold,Sold by private treaty 21 Jul 2021,20210721,10 Charles St,HOWARD,QLD,4659,-25.3208141,152.557327,4,4,4,House,House,False,1012.0,m2,False
2017036856,listing,/9-edith-street-howard-qld-4659-2017036856,230000,is-sold,Sold by private treaty 03 Aug 2021,20210803,9 Edith Street,HOWARD,QLD,4659,-25.3155422,152.563049,2,2,2,House,House,False,2004.0,m2,False
2017084128,listing,/8-newcastle-street-burrum-town-qld-4659-2017084128,145000,is-sold,Sold by private treaty 02 Aug 2021,20210802,8 NEWCASTLE STREET,BURRUM TOWN,QLD,4659,-25.327816,152.578491,NaN,NaN,NaN,VacantLand,Vacant land,False,1525.0,m2,False
2017090273,listing,/8-krista-court-burrum-heads-qld-4659-2017090273,545000,is-sold,Sold by private treaty 26 Jul 2021,20210726,8 KRISTA COURT,BURRUM HEADS,QLD,4659,-25.1902714,152.6083,4,4,4,House,House,False,757.0,m2,False
2017105944,listing,/12-sunrise-crescent-burrum-heads-qld-4659-2017105944,550000,is-sold,Sold by private treaty 16 Jul 2021,20210716,12 SUNRISE CRESCENT,BURRUM HEADS,QLD,4659,-25.1887436,152.6094,3,3,3,House,House,False,1038.0,m2,False
2017122503,listing,/38-42-colman-cres-burrum-river-qld-4659-2017122503,200000,is-sold,Sold by private treaty 20 Jul 2021,20210720,38-42 Colman Cres,BURRUM RIVER,QLD,4659,-25.2650146,152.576935,NaN,NaN,NaN,VacantLand,Vacant land,False,20000.0,m2,False
2017126433,listing,/8-10-philip-st-howard-qld-4659-2017126433,110000,is-sold,Sold by private treaty 15 Jul 2021,20210715,8-10 Philip St,HOWARD,QLD,4659,-25.3234844,152.554031,NaN,NaN,NaN,VacantLand,Vacant land,False,2039.0,m2,False
2017126735,listing,/13-traviston-way-burrum-heads-qld-4659-2017126735,245000,is-sold,Sold by private treaty 28 Jul 2021,20210728,13 Traviston Way,BURRUM HEADS,QLD,4659,-25.1883183,152.6016,NaN,NaN,NaN,VacantLand,Vacant land,False,830.0,m2,False
2017140236,listing,/34-philip-street-howard-qld-4659-2017140236,280000,is-sold,Sold by private treaty 04 Aug 2021,20210804,34 Philip Street,HOWARD,QLD,4659,-25.32201,152.5523,1,1,1,House,House,False,1275.0,m2,False
2017148693,listing,/14-spring-street-howard-qld-4659-2017148693,265000,is-sold,Sold by private treaty 29 Jul 2021,20210729,14 Spring Street,HOWARD,QLD,4659,-25.3215351,152.564941,3,3,3,House,House,False,2332.0,m2,False
2017162813,listing,/88-steley-howard-qld-4659-2017162813,270000,is-sold,Sold by private treaty 03 Aug 2021,20210803,88 Steley,HOWARD,QLD,4659,-25.3180733,152.563049,3,3,3,House,House,False,1018.0,m2,False
2008753232,listing,/9-tremlin-drive-howard-qld-4659-2008753232,125000,is-sold,Sold by private treaty 11 Jul 2021,20210711,9 Tremlin Drive,HOWARD,QLD,4659,-25.312355,152.557251,NaN,NaN,NaN,VacantLand,Vacant land,False,3000.0,m2,False
2008917100,listing,/70-traviston-way-burrum-heads-qld-4659-2008917100,325000,is-sold,Sold by private treaty 05 Jul 2021,20210705,70 Traviston Way,BURRUM HEADS,QLD,4659,-25.1873074,152.602875,NaN,NaN,NaN,VacantLand,Vacant land,False,1055.0,m2,False
2010938311,listing,/16-island-close-pacific-haven-qld-4659-2010938311,587000,is-sold,Sold by private treaty 05 Jul 2021,20210705,16 Island Close,PACIFIC HAVEN,QLD,4659,-25.2332115,152.538834,4,4,4,House,House,False,9450.0,m2,False
2016750922,listing,/29-east-st-howard-qld-4659-2016750922,315000,is-sold,Sold by private treaty 11 Jul 2021,20210711,29 East St,HOWARD,QLD,4659,-25.323204,152.5643,3,3,3,House,House,False,2332.0,m2,False
2016838800,listing,/7-cherwell-crescent-pacific-haven-qld-4659-2016838800,170000,is-sold,Sold by private treaty 28 Jun 2021,20210628,7 Cherwell Crescent,PACIFIC HAVEN,QLD,4659,-25.2510662,152.53006,NaN,NaN,NaN,VacantLand,Vacant land,False,26300.0,m2,False
2016881413,listing,/56-sirenia-drive-burrum-heads-qld-4659-2016881413,455000,is-sold,Sold by private treaty 28 Jun 2021,20210628,56 SIRENIA DRIVE,BURRUM HEADS,QLD,4659,-25.2048817,152.626846,4,4,4,House,House,False,780.0,m2,False
2016902646,listing,/5-simpson-st-burrum-heads-qld-4659-2016902646,515000,is-sold,Sold by private treaty 28 Jun 2021,20210628,5 Simpson St,BURRUM HEADS,QLD,4659,-25.1930428,152.622,3,3,3,House,House,False,700.0,m2,False
2016939545,listing,/29-pacific-haven-circuit-pacific-haven-qld-4659-2016939545,350000,is-sold,Sold by private treaty 08 Jul 2021,20210708,29 PACIFIC HAVEN CIRCUIT,PACIFIC HAVEN,QLD,4659,-25.2686119,152.540192,3,3,3,House,House,True,17.81,ha,False
2016964134,listing,/12-sandcastles-circuit-burrum-heads-qld-4659-2016964134,500000,is-sold,Sold by private treaty 06 Jul 2021,20210706,12 SANDCASTLES CIRCUIT,BURRUM HEADS,QLD,4659,-25.206419,152.631348,4,4,4,House,House,False,700.0,m2,False
2016971860,listing,/52-pacific-haven-circuit-pacific-haven-qld-4659-2016971860,700000,is-sold,Sold by private treaty 07 Jul 2021,20210707,52 Pacific Haven Circuit,PACIFIC HAVEN,QLD,4659,-25.262104,152.53215,5,5,5,House,House,False,121284.0,m2,False
2016997195,listing,/27-lucas-drive-burrum-heads-qld-4659-2016997195,650000,is-sold,Sold by private treaty 25 Jun 2021,20210625,27 LUCAS DRIVE,BURRUM HEADS,QLD,4659,-25.19054,152.609222,4,4,4,House,House,False,773.0,m2,False
2017013600,listing,/8-10-east-street-howard-qld-4659-2017013600,388000,is-sold,Sold by private treaty 09 Jul 2021,20210709,8-10 EAST STREET,HOWARD,QLD,4659,-25.3226681,152.566711,3,3,3,House,House,True,1.28,ha,False
2017053799,listing,/185-193-pacific-haven-drive-pacific-haven-qld-4659-2017053799,110000,is-sold,Sold by private treaty 05 Jul 2021,20210705,185-193 Pacific Haven Drive,PACIFIC HAVEN,QLD,4659,-25.2955914,152.561218,NaN,NaN,NaN,VacantLand,Vacant land,False,30000.0,m2,False
2017074958,listing,/15-barramundi-drive-burrum-heads-qld-4659-2017074958,520000,is-sold,Sold by private treaty 06 Jul 2021,20210706,15 Barramundi Drive,BURRUM HEADS,QLD,4659,-25.2096,152.632126,4,4,4,House,House,False,874.0,m2,False
2017083121,listing,/110-riverview-drive-burrum-heads-qld-4659-2017083121,288000,is-sold,Sold by private treaty 08 Jul 2021,20210708,110 Riverview Drive,BURRUM HEADS,QLD,4659,-25.1871433,152.603073,NaN,NaN,NaN,VacantLand,Vacant land,False,606.0,m2,False
2017090253,listing,/55-riverview-dr-burrum-heads-qld-4659-2017090253,513000,is-sold,Sold by private treaty 29 Jun 2021,20210629,55 Riverview Dr,BURRUM HEADS,QLD,4659,-25.1867371,152.607254,4,4,4,House,House,False,782.0,m2,False
2017100268,listing,/5-william-street-howard-qld-4659-2017100268,370000,is-sold,Sold by private treaty 05 Jul 2021,20210705,5 William Street,HOWARD,QLD,4659,-25.3128548,152.566635,3,3,3,House,House,False,2398.0,m2,False
2017105816,listing,/40-howard-street-burrum-heads-qld-4659-2017105816,765000,is-sold,Sold by private treaty 05 Jul 2021,20210705,40 Howard Street,BURRUM HEADS,QLD,4659,-25.1846371,152.613174,6,6,6,Duplex,Duplex,False,943.0,m2,False
2017126435,listing,/9-11-tremlin-dr-howard-qld-4659-2017126435,125000,is-sold,Sold by private treaty 11 Jul 2021,20210711,9-11 Tremlin Dr,HOWARD,QLD,4659,-25.3123474,152.557175,NaN,NaN,NaN,VacantLand,Vacant land,False,3000.0,m2,False
2017131441,listing,/33-tambaroora-st-howard-qld-4659-2017131441,370000,is-sold,Sold by private treaty 12 Jul 2021,20210712,33 Tambaroora St,HOWARD,QLD,4659,-25.3125858,152.562973,3,3,3,House,House,False,1558.0,m2,False
2008663368,listing,/39-43-lower-thomas-st-howard-qld-4659-2008663368,Price Withheld,is-sold,Sold by private treaty 17 Jun 2021,20210617,39 - 43 Lower Thomas St,HOWARD,QLD,4659,-25.3275547,152.564285,3,3,3,House,House,False,0.0,m2,False
2008733947,listing,/27-spring-street-howard-qld-4659-2008733947,Price Withheld,is-sold,Sold by private treaty 17 Jun 2021,20210617,27 Spring Street,HOWARD,QLD,4659,-25.32209,152.563477,3,3,3,House,House,False,0.0,m2,False
2008826783,listing,/17-141-old-bruce-highway-burrum-town-qld-4659-2008826783,40000,is-sold,Sold by private treaty 17 Jun 2021,20210617,17/141 Old Bruce Highway,BURRUM TOWN,QLD,4659,-25.3290386,152.5779,2,2,2,House,House,False,0.0,m2,False
2009028734,listing,/40-james-st-howard-qld-4659-2009028734,Price Withheld,is-sold,Sold by private treaty 17 Jun 2021,20210617,40 James St,HOWARD,QLD,4659,-25.3212318,152.555984,3,3,3,House,House,False,632.0,m2,False
2009029231,listing,/20-james-st-howard-qld-4659-2009029231,Price Withheld,is-sold,Sold by private treaty 17 Jun 2021,20210617,20 James St,HOWARD,QLD,4659,-25.3197517,152.557785,2,2,2,House,House,False,0.0,m2,False
2009470666,listing,/13-bellevue-street-howard-qld-4659-2009470666,Price Withheld,is-sold,Sold by private treaty 17 Jun 2021,20210617,13 Bellevue Street,HOWARD,QLD,4659,-25.3254833,152.55188,3,3,3,House,House,False,1204.0,m2,False
2009567866,listing,/7-charles-st-howard-qld-4659-2009567866,Price Withheld,is-sold,Sold by private treaty 17 Jun 2021,20210617,7 Charles St,HOWARD,QLD,4659,-25.3203564,152.5578,NaN,NaN,NaN,VacantLand,Vacant land,False,1010.0,m2,False
2009946552,listing,/5-wallsend-st-burrum-town-qld-4659-2009946552,Price Withheld,is-sold,Sold by private treaty 17 Jun 2021,20210617,5 Wallsend St,BURRUM TOWN,QLD,4659,-25.3297672,152.580566,NaN,NaN,NaN,VacantLand,Vacant land,False,1011.0,m2,False
2009946557,listing,/71-wallsend-st-burrum-town-qld-4659-2009946557,Price Withheld,is-sold,Sold by private treaty 17 Jun 2021,20210617,71 Wallsend St,BURRUM TOWN,QLD,4659,-25.3249855,152.585464,NaN,NaN,NaN,VacantLand,Vacant land,False,1011.0,m2,False
2010065929,listing,/43-condamine-rd-howard-qld-4659-2010065929,315000,is-sold,Sold by private treaty 17 Jun 2021,20210617,43 Condamine Rd,HOWARD,QLD,4659,-25.3043728,152.578156,3,3,3,House,House,False,0.0,m2,False
2010286809,listing,/site-d-141-old-bruce-hwy-burrum-town-qld-4659-2010286809,Price Withheld,is-sold,Sold by private treaty 17 Jun 2021,20210617,Site D/141 Old Bruce Hwy,BURRUM TOWN,QLD,4659,-25.3290386,152.5779,1,1,1,House,House,False,0.0,m2,False
2011755356,listing,/3-martha-street-howard-qld-4659-2011755356,Price Withheld,is-sold,Sold by private treaty 17 Jun 2021,20210617,3 Martha Street,HOWARD,QLD,4659,-25.3160572,152.561356,3,3,3,House,House,False,1002.0,m2,False
2012284292,listing,/lot-2-0-power-house-rd-howard-qld-4659-2012284292,Price Withheld,is-sold,Sold by private treaty 17 Jun 2021,20210617,Lot 2/0 Power House Rd,HOWARD,QLD,4659,-25.3226032,152.575485,NaN,NaN,NaN,VacantLand,Vacant land,False,3851.0,m2,False
2015653130,listing,/330-338-pacific-haven-drive-pacific-haven-qld-4659-2015653130,135000,is-sold,Sold by private treaty 24 Jun 2021,20210624,330-338 Pacific Haven Drive,PACIFIC HAVEN,QLD,4659,-25.28219,152.561035,NaN,NaN,NaN,VacantLand,Vacant land,True,2.99,ha,False
2016600666,listing,/177-pacific-haven-cct-pacific-haven-qld-4659-2016600666,120000,is-sold,Sold by private treaty 23 Jun 2021,20210623,177 Pacific Haven cct,PACIFIC HAVEN,QLD,4659,-25.2370434,152.549515,NaN,NaN,NaN,VacantLand,Vacant land,False,10000.0,m2,False
2016664993,listing,/5-tamarind-close-burrum-heads-qld-4659-2016664993,300000,is-sold,Sold by private treaty 21 Jun 2021,20210621,5 Tamarind Close,BURRUM HEADS,QLD,4659,-25.2098255,152.633743,NaN,NaN,NaN,VacantLand,Vacant land,False,807.0,m2,False
2016933601,listing,/15-eds-pl-burrum-heads-qld-4659-2016933601,200000,is-sold,Sold by private treaty 18 Jun 2021,20210618,15 Eds Pl,BURRUM HEADS,QLD,4659,-25.2161045,152.637375,NaN,NaN,NaN,VacantLand,Vacant land,False,861.0,m2,False
2016970695,listing,/35-william-st-howard-qld-4659-2016970695,429000,is-sold,Sold by private treaty 24 Jun 2021,20210624,35 William St,HOWARD,QLD,4659,-25.31488,152.564453,3,3,3,House,House,False,1822.0,m2,False
2017020561,listing,/100-beach-drive-burrum-heads-qld-4659-2017020561,325000,is-sold,Sold by private treaty 23 Jun 2021,20210623,100 Beach Drive,BURRUM HEADS,QLD,4659,-25.215477,152.636108,NaN,NaN,NaN,VacantLand,Vacant land,False,2067.0,m2,False
2017031034,listing,/229-pacific-haven-cct-pacific-haven-qld-4659-2017031034,115000,is-sold,Sold by private treaty 23 Jun 2021,20210623,229 Pacific Haven Cct,PACIFIC HAVEN,QLD,4659,-25.2446671,152.555618,NaN,NaN,NaN,VacantLand,Vacant land,False,10000.0,m2,False
2008637249,listing,/25-ranch-park-drive-pacific-haven-qld-4659-2008637249,Price Withheld,is-sold,Sold by private treaty 17 Jun 2021,20210617,25 Ranch Park Drive,PACIFIC HAVEN,QLD,4659,-25.2445889,152.549683,1,1,1,House,House,True,2.43,ha,False
2008643181,listing,/212-pacific-haven-cct-pacific-haven-qld-4659-2008643181,Price Withheld,is-sold,Sold by private treaty 17 Jun 2021,20210617,212 Pacific Haven Cct,PACIFIC HAVEN,QLD,4659,-25.23379,152.554459,4,4,4,House,House,False,0.0,m2,False
2008747054,listing,/214-pacific-haven-cct-pacific-haven-qld-4659-2008747054,Price Withheld,is-sold,Sold by private treaty 17 Jun 2021,20210617,214 Pacific Haven Cct,PACIFIC HAVEN,QLD,4659,-25.23415,152.554871,1,1,1,House,House,False,0.0,m2,False
2008841218,listing,/391-pacific-haven-dve-pacific-haven-qld-4659-2008841218,Price Withheld,is-sold,Sold by private treaty 17 Jun 2021,20210617,391 Pacific Haven Dve,PACIFIC HAVEN,QLD,4659,-25.2789459,152.558624,4,4,4,House,House,False,0.0,m2,False
2009016229,listing,/152-pacific-haven-circuit-pacific-haven-qld-4659-2009016229,Price Withheld,is-sold,Sold by private treaty 17 Jun 2021,20210617,152 Pacific Haven Circuit,PACIFIC HAVEN,QLD,4659,-25.2383423,152.535278,NaN,NaN,4.0,VacantLand,Vacant land,False,0.0,m2,False
2009127037,listing,/340-356-pacific-haven-dve-pacific-haven-qld-4659-2009127037,Price Withheld,is-sold,Sold by private treaty 17 Jun 2021,20210617,340-356 Pacific Haven Dve,PACIFIC HAVEN,QLD,4659,-25.2812424,152.558609,NaN,NaN,NaN,VacantLand,Vacant land,False,0.0,m2,False
2009207948,listing,/lot-515-54-marina-dve-pacific-haven-qld-4659-2009207948,Price Withheld,is-sold,Sold by private treaty 17 Jun 2021,20210617,Lot 515/54 Marina Dve,PACIFIC HAVEN,QLD,4659,-25.2500267,152.551849,NaN,NaN,4.0,VacantLand,Vacant land,False,0.0,m2,False
2009243774,listing,/24-annie-st-howard-qld-4659-2009243774,Price Withheld,is-sold,Sold by private treaty 17 Jun 2021,20210617,24 Annie St,HOWARD,QLD,4659,-25.322113,152.554642,3,3,3,House,House,False,2039.0,m2,False
2015701019,listing,/7-dreamtime-avenue-burrum-heads-qld-4659-2015701019,540000,is-sold,Sold by private treaty 04 Jun 2021,20210604,7 Dreamtime Avenue,BURRUM HEADS,QLD,4659,-25.23181,152.5889,3,3,3,House,House,False,10000.0,m2,False
2016065106,listing,/176-pacific-haven-cct-pacific-haven-qld-4659-2016065106,137500,is-sold,Sold by private treaty 09 Jun 2021,20210609,176 Pacific Haven Cct,PACIFIC HAVEN,QLD,4659,-25.23513,152.541977,NaN,NaN,NaN,VacantLand,Vacant land,False,11800.0,m2,False
2016550884,listing,/6-birchwood-ct-burrum-heads-qld-4659-2016550884,515000,is-sold,Sold by private treaty 14 Jun 2021,20210614,6 Birchwood Ct,BURRUM HEADS,QLD,4659,-25.2398052,152.5904,4,4,4,House,House,False,2048.0,m2,False
2016778926,listing,/3-flame-tree-dr-burrum-heads-qld-4659-2016778926,530000,is-sold,Sold by private treaty 14 Jun 2021,20210614,3 Flame Tree Dr,BURRUM HEADS,QLD,4659,-25.1929474,152.603348,4,4,4,House,House,False,787.0,m2,False
2016794241,listing,/128-burrum-st-burrum-heads-qld-4659-2016794241,760000,is-sold,Sold by private treaty 16 Jun 2021,20210616,128 Burrum St,BURRUM HEADS,QLD,4659,-25.1880283,152.619278,3,3,3,House,House,False,800.0,m2,False
2016819657,listing,/100-beach-drive-burrum-heads-qld-4659-2016819657,325000,is-sold,Sold by private treaty 14 Jun 2021,20210614,100 Beach Drive,BURRUM HEADS,QLD,4659,-25.215477,152.636108,NaN,NaN,NaN,VacantLand,Vacant land,False,2067.0,m2,False
2016898494,listing,/191-pacific-haven-circuit-pacific-haven-qld-4659-2016898494,440000,is-sold,Sold by private treaty 11 Jun 2021,20210611,191 Pacific Haven Circuit,PACIFIC HAVEN,QLD,4659,-25.2356014,152.553741,2,2,2,House,House,False,9920.0,m2,False
2016930211,listing,/25-beach-drive-burrum-heads-qld-4659-2016930211,475000,is-sold,Sold by private treaty 08 Jun 2021,20210608,25 Beach Drive,BURRUM HEADS,QLD,4659,-25.2115479,152.631851,4,4,4,House,House,False,810.0,m2,False
2016962841,listing,/111-riverview-drive-burrum-heads-qld-4659-2016962841,229000,is-sold,Sold by private treaty 16 Jun 2021,20210616,111 Riverview Drive,BURRUM HEADS,QLD,4659,-25.1877575,152.6035,NaN,NaN,NaN,VacantLand,Vacant land,False,822.0,m2,False
2016968815,listing,/7-ranch-park-drive-pacific-haven-qld-4659-2016968815,410000,is-sold,Sold by private treaty 04 Jun 2021,20210604,7 Ranch Park Drive,PACIFIC HAVEN,QLD,4659,-25.2391663,152.55101,3,3,3,House,House,True,2.87,ha,False
2017034962,listing,/53-pacific-haven-cct-pacific-haven-qld-4659-2017034962,465000,is-sold,Sold by private treaty 11 Jun 2021,20210611,53 Pacific Haven CCt,PACIFIC HAVEN,QLD,4659,-25.2618465,152.535873,4,4,4,House,House,False,163300.0,m2,False
2017041422,listing,/13-annie-street-howard-qld-4659-2017041422,375000,is-sold,Sold by private treaty 04 Jun 2021,20210604,13 ANNIE STREET,HOWARD,QLD,4659,-25.3220463,152.555542,3,3,3,House,House,False,673.0,m2,False
2009147346,listing,/11-edith-street-howard-qld-4659-2009147346,230000,is-sold,Sold by private treaty 01 Jun 2021,20210601,11 Edith Street,HOWARD,QLD,4659,-25.3157749,152.563629,2,2,2,House,House,False,2004.0,m2,False
2014508978,listing,/14-lakeside-drive-burrum-heads-qld-4659-2014508978,430000,is-sold,Sold by private treaty 30 May 2021,20210530,14 Lakeside Drive,BURRUM HEADS,QLD,4659,-25.21153,152.629532,4,4,4,House,House,False,810.0,m2,False
2016177819,listing,/8-tulipwood-drive-burrum-heads-qld-4659-2016177819,585000,is-sold,Sold by private treaty 19 May 2021,20210519,8 Tulipwood Drive,BURRUM HEADS,QLD,4659,-25.1917934,152.603333,3,3,3,House,House,False,798.0,m2,False
2016197491,listing,/lot-17-44-beach-dr-burrum-heads-qld-4659-2016197491,160000,is-sold,Sold by private treaty 12 May 2021,20210512,Lot 17-44 Beach Dr,BURRUM HEADS,QLD,4659,-25.21154,152.633652,NaN,NaN,NaN,VacantLand,Vacant land,False,2000.0,m2,False
2016518882,listing,/97-pacific-haven-circuit-pacific-haven-qld-4659-2016518882,165000,is-sold,Sold 17 May 2021,20210517,97 Pacific Haven Circuit,PACIFIC HAVEN,QLD,4659,-25.2465248,152.534653,NaN,NaN,NaN,VacantLand,Vacant land,False,0.0,m2,False
2016665746,listing,/4-pacific-haven-circuit-pacific-haven-qld-4659-2016665746,100000,is-sold,Sold by private treaty 10 May 2021,20210510,4 Pacific Haven Circuit,PACIFIC HAVEN,QLD,4659,-25.2776089,152.548035,NaN,NaN,NaN,VacantLand,Vacant land,False,30000.0,m2,False
2016675988,listing,/93-pacific-haven-circuit-pacific-haven-qld-4659-2016675988,135000,is-sold,Sold by private treaty 14 May 2021,20210514,93 Pacific Haven Circuit,PACIFIC HAVEN,QLD,4659,-25.2477856,152.53125,NaN,NaN,NaN,VacantLand,Vacant land,False,37700.0,m2,False
2016774068,listing,/4-jacqueline-drive-pacific-haven-qld-4659-2016774068,435000,is-sold,Sold by private treaty 04 Jun 2021,20210604,4 Jacqueline Drive,PACIFIC HAVEN,QLD,4659,-25.23236,152.54509,4,4,4,House,House,False,9558.0,m2,False
2016813041,listing,/97-pacific-haven-cct-pacific-haven-qld-4659-2016813041,165000,is-sold,Sold by private treaty 17 May 2021,20210517,97 Pacific Haven Cct,PACIFIC HAVEN,QLD,4659,-25.2465248,152.534653,NaN,NaN,NaN,VacantLand,Vacant land,False,134000.0,m2,False
2016902426,listing,/85-riverview-drive-burrum-heads-qld-4659-2016902426,420000,is-sold,Sold by private treaty 28 May 2021,20210528,85 RIVERVIEW DRIVE,BURRUM HEADS,QLD,4659,-25.1858559,152.605835,3,3,3,House,House,False,760.0,m2,False
2016908525,listing,/8-oakes-drive-burrum-heads-qld-4659-2016908525,825000,is-sold,Sold by private treaty 03 Jun 2021,20210603,8 Oakes Drive,BURRUM HEADS,QLD,4659,-25.2424431,152.587814,4,4,4,Rural,Rural,True,2.0,ha,False
2016918755,listing,/24-honey-myrtle-close-burrum-heads-qld-4659-2016918755,650000,is-sold,Sold by private treaty 18 May 2021,20210518,24 Honey Myrtle Close,BURRUM HEADS,QLD,4659,-25.19143,152.600815,4,4,4,House,House,False,628.0,m2,False
2016922958,listing,/4-pilbara-way-burrum-heads-qld-4659-2016922958,Price Withheld,is-sold,Sold by private treaty 31 May 2021,20210531,4 Pilbara Way,BURRUM HEADS,QLD,4659,-25.1888332,152.607178,3,3,3,House,House,False,0.0,m2,False
2016927069,listing,/32-traviston-way-burrum-heads-qld-4659-2016927069,540000,is-sold,Sold by private treaty 31 May 2021,20210531,32 Traviston Way,BURRUM HEADS,QLD,4659,-25.1885548,152.600143,4,4,4,House,House,False,882.0,m2,False
2016930380,listing,/601-burrum-heads-road-burrum-river-qld-4659-2016930380,738000,is-sold,Sold by private treaty 18 May 2021,20210518,601 Burrum Heads Road,BURRUM RIVER,QLD,4659,-25.2926788,152.585953,3,3,3,House,House,False,185200.0,m2,False
2016969277,listing,/14-lakeside-drive-burrum-heads-qld-4659-2016969277,430000,is-sold,Sold by private treaty 30 May 2021,20210530,14 Lakeside Drive,BURRUM HEADS,QLD,4659,-25.21153,152.629532,4,4,4,House,House,False,810.0,m2,False
2016972007,listing,/lot41-41-barramundi-drive-burrum-heads-qld-4659-2016972007,210000,is-sold,Sold by private treaty 21 May 2021,20210521,Lot41/41 Barramundi Drive,BURRUM HEADS,QLD,4659,-25.2071342,152.6314,NaN,NaN,NaN,VacantLand,Vacant land,False,735.0,m2,False
2016995285,listing,/262-pacific-haven-drive-pacific-haven-qld-4659-2016995285,380000,is-sold,Sold by private treaty 03 Jun 2021,20210603,262 PACIFIC HAVEN DRIVE,PACIFIC HAVEN,QLD,4659,-25.28692,152.561768,3,3,3,House,House,True,3.0,ha,False
2017032195,listing,/22-louise-drive-burrum-heads-qld-4659-2017032195,480000,is-sold,Sold by private treaty 14 May 2021,20210514,22 LOUISE DRIVE,BURRUM HEADS,QLD,4659,-25.1905651,152.6068,4,4,4,House,House,False,750.0,m2,False
2017036370,listing,/101-william-street-howard-qld-4659-2017036370,315000,is-sold,Sold by private treaty 02 Jun 2021,20210602,101 WILLIAM STREET,HOWARD,QLD,4659,-25.3197842,152.55957,3,3,3,House,House,False,1012.0,m2,False
2010530512,listing,/16-sandcastles-circuit-burrum-heads-qld-4659-2010530512,182000,is-sold,Sold by private treaty 12 Apr 2021,20210412,16 Sandcastles Circuit,BURRUM HEADS,QLD,4659,-25.206,152.631088,NaN,NaN,NaN,VacantLand,Vacant land,False,700.0,m2,False
2013692773,listing,/11-jarrah-crt-burrum-heads-qld-4659-2013692773,505000,is-sold,Sold by private treaty 22 Apr 2021,20210422,11 Jarrah crt,BURRUM HEADS,QLD,4659,-25.24065,152.5928,4,4,4,House,House,False,2080.0,m2,False
2016468661,listing,/17-barramundi-drive-burrum-heads-qld-4659-2016468661,148500,is-sold,Sold by private treaty 13 Apr 2021,20210413,17 Barramundi Drive,BURRUM HEADS,QLD,4659,-25.2095928,152.632462,NaN,NaN,NaN,VacantLand,Vacant land,False,984.0,m2,False
2016556125,listing,/126-burrum-st-burrum-heads-qld-4659-2016556125,685000,is-sold,Sold by private treaty 06 Apr 2021,20210406,126 Burrum St,BURRUM HEADS,QLD,4659,-25.18792,152.61911,2,2,2,House,House,False,800.0,m2,False
2016616092,listing,/37-beach-dr-burrum-heads-qld-4659-2016616092,379000,is-sold,Sold by private treaty 14 Apr 2021,20210414,37 Beach Dr,BURRUM HEADS,QLD,4659,-25.2117176,152.633942,4,4,4,House,House,False,765.0,m2,False
2016637190,listing,/70-thomas-street-howard-qld-4659-2016637190,245000,is-sold,Sold by private treaty 13 Apr 2021,20210413,70 THOMAS STREET,HOWARD,QLD,4659,-25.3198338,152.558075,2,2,2,House,House,False,1012.0,m2,False
2016718006,listing,/2-south-heath-road-burrum-river-qld-4659-2016718006,415000,is-sold,Sold by private treaty 16 Apr 2021,20210416,2 South Heath Road,BURRUM RIVER,QLD,4659,-25.291975,152.5838,2,2,2,House,House,True,1.9,ha,False
2016733391,listing,/21-king-street-howard-qld-4659-2016733391,385000,is-sold,Sold by private treaty 30 Apr 2021,20210430,21 King Street,HOWARD,QLD,4659,-25.3209648,152.5627,5,5,5,House,House,False,2023.0,m2,False
2016752709,listing,/howard-qld-4659-2016752709,Price Withheld,is-sold,Sold by private treaty 05 May 2021,20210505,NaN,HOWARD,QLD,4659,-25.3131371,152.566513,3,3,3,Rural,Rural,True,0.0,m2,False
2016772435,listing,/94-pacific-haven-circuit-pacific-haven-qld-4659-2016772435,450000,is-sold,Sold by private treaty 30 Apr 2021,20210430,94 Pacific Haven Circuit,PACIFIC HAVEN,QLD,4659,-25.2498035,152.531311,7,7,7,House,House,False,8000.0,m2,False
2016794327,listing,/25-tambaroora-street-howard-qld-4659-2016794327,Price Withheld,is-sold,Sold by private treaty 22 Apr 2021,20210422,25 TAMBAROORA STREET,HOWARD,QLD,4659,-25.3130531,152.563385,3,3,3,House,House,False,2112.0,m2,False
2016799810,listing,/4-barramundi-drive-burrum-heads-qld-4659-2016799810,165000,is-sold,Sold by private treaty 12 Apr 2021,20210412,4 Barramundi Drive,BURRUM HEADS,QLD,4659,-25.2089462,152.631119,NaN,NaN,NaN,VacantLand,Vacant land,False,700.0,m2,False
2016815228,listing,/15-louise-drive-burrum-heads-qld-4659-2016815228,415000,is-sold,Sold by private treaty 07 Apr 2021,20210407,15 Louise Drive,BURRUM HEADS,QLD,4659,-25.1903839,152.6078,4,4,4,House,House,False,680.0,m2,False
2016823405,listing,/34-dreamtime-avenue-burrum-heads-qld-4659-2016823405,940000,is-sold,Sold by private treaty 07 May 2021,20210507,34 Dreamtime Avenue,BURRUM HEADS,QLD,4659,-25.231266,152.596268,3,3,3,House,House,True,10000.0,m2,False
2016871110,listing,/6-dreamtime-ave-burrum-heads-qld-4659-2016871110,460000,is-sold,Sold by private treaty 22 Apr 2021,20210422,6 Dreamtime Ave,BURRUM HEADS,QLD,4659,-25.23028,152.588669,3,3,3,House,House,False,10000.0,m2,False
2016893735,listing,/6-tulipwood-drive-burrum-heads-qld-4659-2016893735,655000,is-sold,Sold by private treaty 13 Apr 2021,20210413,6 TULIPWOOD DRIVE,BURRUM HEADS,QLD,4659,-25.1917229,152.603516,4,4,4,House,House,False,801.0,m2,False
2016899500,listing,/63-barramundi-drive-burrum-heads-qld-4659-2016899500,545000,is-sold,Sold by private treaty 30 Apr 2021,20210430,63 Barramundi Drive,BURRUM HEADS,QLD,4659,-25.2051353,152.629837,4,4,4,House,House,False,700.0,m2,False
2016902592,listing,/8-sandcastles-circuit-burrum-heads-qld-4659-2016902592,195000,is-sold,Sold by private treaty 23 Apr 2021,20210423,8 Sandcastles Circuit,BURRUM HEADS,QLD,4659,-25.20682,152.631561,NaN,NaN,NaN,VacantLand,Vacant land,False,700.0,m2,False
2016925452,listing,/72-barramundi-drive-burrum-heads-qld-4659-2016925452,190000,is-sold,Sold by private treaty 30 Apr 2021,20210430,72 BARRAMUNDI DRIVE,BURRUM HEADS,QLD,4659,-25.2036,152.629059,NaN,NaN,NaN,VacantLand,Vacant land,False,700.0,m2,False
2016939509,listing,/15-island-close-pacific-haven-qld-4659-2016939509,649000,is-sold,Sold by private treaty 17 Apr 2021,20210417,15 Island Close,PACIFIC HAVEN,QLD,4659,-25.2319241,152.5398,3,3,3,House,House,False,8781.0,m2,False
2012394634,listing,/10-coral-ave-pacific-haven-qld-4659-2012394634,480000,is-sold,Sold by private treaty 30 Mar 2021,20210330,10 Coral Ave,PACIFIC HAVEN,QLD,4659,-25.26065,152.531815,3,3,3,House,House,False,39400.0,m2,False
2015937280,listing,/58-riverview-drive-burrum-heads-qld-4659-2015937280,415000,is-sold,Sold by private treaty 29 Mar 2021,20210329,58 RIVERVIEW DRIVE,BURRUM HEADS,QLD,4659,-25.1858788,152.607437,4,4,4,House,House,False,740.0,m2,False
2016563266,listing,/4-6-newcastle-street-burrum-town-qld-4659-2016563266,385000,is-sold,Sold by private treaty 17 Mar 2021,20210317,4-6 Newcastle Street,BURRUM TOWN,QLD,4659,-25.3284721,152.579041,5,5,5,House,House,False,4075.0,m2,False
2016567596,listing,/6-raintree-avenue-burrum-heads-qld-4659-2016567596,550000,is-sold,Sold by private treaty 19 Mar 2021,20210319,6 Raintree Avenue,BURRUM HEADS,QLD,4659,-25.2365875,152.60083,5,5,5,House,House,False,20000.0,m2,False
