id,listingType,url,price,tagClassName,tagText,date,street,suburb,state,postcode,lat,lng,beds,baths,parking,propertyType,propertyTypeFormatted,isRural,landSize,landUnit,isRetirement
2018347850,listing,/31-tahlia-circuit-mount-louisa-qld-4814-2018347850,435000,is-sold,Sold by private treaty 28 Feb 2023,20230228,31 Tahlia Circuit,MOUNT LOUISA,QLD,4814,-19.2689724,146.742218,4,4,4,House,House,False,592,m2,False
2018129070,listing,/83-charles-street-vincent-qld-4814-2018129070,255000,is-sold,Sold by private treaty 28 Feb 2023,20230228,83 Charles Street,VINCENT,QLD,4814,-19.2914181,146.7662,3,3,3,House,House,False,801,m2,False
2018128396,listing,/10-owens-court-annandale-qld-4814-2018128396,,is-sold,Sold by private treaty 01 Mar 2023,20230301,10 Owens Court,ANNANDALE,QLD,4814,-19.3111286,146.767685,4,4,4,House,House,False,887,m2,False
2018388181,listing,/28-319-angus-smith-drive-douglas-qld-4814-2018388181,262000,is-sold,Sold by private treaty 01 Mar 2023,20230301,28/319 Angus Smith Drive,DOUGLAS,QLD,4814,-19.3250866,146.7394,2,2,2,ApartmentUnitFlat,Apartment / Unit / Flat,False,0,m2,False
2018277412,listing,/48-rundle-street-mount-louisa-qld-4814-2018277412,,is-sold,Sold by private treaty 03 Mar 2023,20230303,48 Rundle Street,MOUNT LOUISA,QLD,4814,-19.2749,146.7468,4,4,4,House,House,False,675,m2,False
2018345486,listing,/3-hallett-close-douglas-qld-4814-2018345486,,is-sold,Sold by private treaty 02 Mar 2023,20230302,3 Hallett Close,DOUGLAS,QLD,4814,-19.31914,146.751053,5,5,5,House,House,False,704,m2,False
2017848113,listing,/35-321-angus-smith-drive-douglas-qld-4814-2017848113,251500,is-sold,Sold by private treaty 06 Mar 2023,20230306,35/321 Angus Smith Drive,DOUGLAS,QLD,4814,-19.32501,146.739014,2,1,1,ApartmentUnitFlat,Apartment / Unit / Flat,False,0,m2,False
2018301463,listing,/88-estuary-pde-douglas-qld-4814-2018301463,390000,is-sold,Sold by private treaty 06 Mar 2023,20230306,88 Estuary Pde,DOUGLAS,QLD,4814,-19.3243179,146.736526,3,2,1,House,House,False,352,m2,False
2018133633,listing,/2-corella-crescent-mount-louisa-qld-4814-2018133633,310000,is-sold,Sold by private treaty 06 Mar 2023,20230306,2 Corella Crescent,MOUNT LOUISA,QLD,4814,-19.2742138,146.750229,4,1,2,House,House,False,0,m2,False
2018311065,listing,/9-corella-crescent-mount-louisa-qld-4814-2018311065,325000,is-sold,Sold by private treaty 06 Mar 2023,20230306,9 Corella Crescent,MOUNT LOUISA,QLD,4814,-19.2746429,146.750931,3,1,1,House,House,False,600,m2,False
2018353928,listing,/14-warbler-crescent-douglas-qld-4814-2018353928,,is-sold,Sold by private treaty 05 Mar 2023,20230305,14 Warbler Crescent,DOUGLAS,QLD,4814,-19.324873,146.735657,3,1,1,House,House,False,306,m2,False
2017615855,listing,/14-151-157-riverside-boulevard-douglas-qld-4814-2017615855,269000,is-sold,Sold by private treaty 27 Feb 2023,20230227,14/151-157 Riverside Boulevard,DOUGLAS,QLD,4814,-19.31886,146.744446,2,2,1,ApartmentUnitFlat,Apartment / Unit / Flat,False,0,m2,False
2018120919,listing,/161-albert-street-cranbrook-qld-4814-2018120919,459000,is-sold,Sold by private treaty 28 Feb 2023,20230228,161 Albert Street,CRANBROOK,QLD,4814,-19.31127,146.749649,5,2,4,BlockOfUnits,Block of Units,False,800,m2,False
2018186713,listing,/34-sea-eagle-circuit-douglas-qld-4814-2018186713,395000,is-sold,Sold by private treaty 23 Feb 2023,20230223,34 Sea Eagle Circuit,DOUGLAS,QLD,4814,-19.3273621,146.733688,3,2,2,House,House,False,592,m2,False
2018224017,listing,/45-wotton-street-aitkenvale-qld-4814-2018224017,305000,is-sold,Sold by private treaty 20 Feb 2023,20230220,45 Wotton Street,AITKENVALE,QLD,4814,-19.295908,146.766022,2,2,2,House,House,False,1012,m2,False
2018236751,listing,/7-94-chandler-street-garbutt-qld-4814-2018236751,,is-sold,Sold by private treaty 27 Feb 2023,20230227,7/94 Chandler Street,GARBUTT,QLD,4814,-19.26197,146.773376,3,1,2,ApartmentUnitFlat,Apartment / Unit / Flat,False,0,m2,False
2018250078,listing,/7-ellimatta-avenue-cranbrook-qld-4814-2018250078,333000,is-sold,Sold by private treaty 22 Feb 2023,20230222,7 Ellimatta Avenue,CRANBROOK,QLD,4814,-19.3014088,146.752853,3,1,4,House,House,False,607,m2,False
2018266718,listing,/20-ulysses-drive-mount-louisa-qld-4814-2018266718,408250,is-sold,Sold by private treaty 28 Feb 2023,20230228,20 Ulysses Drive,MOUNT LOUISA,QLD,4814,-19.2837029,146.721481,4,2,2,House,House,False,588,m2,False
2018298357,listing,/14-barra-court-mount-louisa-qld-4814-2018298357,425000,is-sold,Sold by private treaty 21 Feb 2023,20230221,14 Barra Court,MOUNT LOUISA,QLD,4814,-19.2662468,146.724487,4,2,2,House,House,False,600,m2,False
2018309529,listing,/11-keesing-road-douglas-qld-4814-2018309529,390000,is-sold,Sold by private treaty 21 Feb 2023,20230221,11 Keesing Road,DOUGLAS,QLD,4814,-19.3132782,146.759262,3,1,4,House,House,False,753,m2,False
2017919358,listing,/58-kroymans-drive-mount-louisa-qld-4814-2017919358,370000,is-sold,Sold by private treaty 15 Feb 2023,20230215,58 Kroymans Drive,MOUNT LOUISA,QLD,4814,-19.2657242,146.728424,3,2,2,House,House,False,514,m2,False
2018080551,listing,/76-80-bergin-road-cranbrook-qld-4814-2018080551,,is-sold,Sold by private treaty 17 Feb 2023,20230217,76-80 Bergin Road,CRANBROOK,QLD,4814,-19.3092365,146.755051,3,1,4,House,House,False,3349,m2,False
2018109781,listing,/4-azalea-street-aitkenvale-qld-4814-2018109781,460000,is-sold,Sold by private treaty 16 Feb 2023,20230216,4 Azalea Street,AITKENVALE,QLD,4814,-19.30466,146.771561,4,2,2,House,House,False,607,m2,False
2018227465,listing,/douglas-qld-4814-2018227465,,is-sold,Sold by private treaty 14 Feb 2023,20230214,,DOUGLAS,QLD,4814,-19.3182373,146.741669,4,2,2,House,House,False,656,m2,False
2018246619,listing,/16-weddel-drive-annandale-qld-4814-2018246619,720000,is-sold,Sold by private treaty 16 Feb 2023,20230216,16 Weddel Drive,ANNANDALE,QLD,4814,-19.313446,146.784409,4,2,3,House,House,False,897,m2,False
2018262321,listing,/226-charles-street-cranbrook-qld-4814-2018262321,360000,is-sold,Sold by private treaty 15 Feb 2023,20230215,226 CHARLES STREET,CRANBROOK,QLD,4814,-19.2970524,146.750885,3,1,4,House,House,False,607,m2,False
2018268877,listing,/5-majanna-street-mount-louisa-qld-4814-2018268877,335000,is-sold,Sold by private treaty 17 Feb 2023,20230217,5 Majanna Street,MOUNT LOUISA,QLD,4814,-19.2729588,146.752853,3,1,1,House,House,False,607,m2,False
2018285099,listing,/8-paringa-street-cranbrook-qld-4814-2018285099,500000,is-sold,Sold by private treaty 17 Feb 2023,20230217,8 Paringa Street,CRANBROOK,QLD,4814,-19.3081226,146.756989,4,2,3,House,House,False,607,m2,False
2018286201,listing,/22-palomar-court-mount-louisa-qld-4814-2018286201,450000,is-sold,Sold by private treaty 17 Feb 2023,20230217,22 Palomar Court,MOUNT LOUISA,QLD,4814,-19.2699852,146.728333,4,2,2,House,House,False,655,m2,False
2018286850,listing,/9-glencoe-court-annandale-qld-4814-2018286850,,is-sold,Sold by private treaty 14 Feb 2023,20230214,9 Glencoe Court,ANNANDALE,QLD,4814,-19.3047943,146.782684,4,2,2,House,House,False,1047,m2,False
2018298748,listing,/17-oliver-court-vincent-qld-4814-2018298748,305000,is-sold,Sold by private treaty 17 Feb 2023,20230217,17 Oliver Court,VINCENT,QLD,4814,-19.2877483,146.7666,3,1,1,House,House,False,607,m2,False
2018310086,listing,/45-blaxland-crescent-vincent-qld-4814-2018310086,342000,is-sold,Sold by private treaty 20 Feb 2023,20230220,45 Blaxland Crescent,VINCENT,QLD,4814,-19.2846718,146.761108,4,1,1,House,House,False,1060,m2,False
2018324224,listing,/20-etheridge-street-mount-louisa-qld-4814-2018324224,445000,is-sold,Sold by private treaty 16 Feb 2023,20230216,20 Etheridge Street,MOUNT LOUISA,QLD,4814,-19.2790852,146.752228,5,2,4,House,House,False,607,m2,False
2018327507,listing,/13-berontha-street-cranbrook-qld-4814-2018327507,370000,is-sold,Sold by private treaty 17 Feb 2023,20230217,13 Berontha Street,CRANBROOK,QLD,4814,-19.3003635,146.752731,4,1,3,House,House,False,607,m2,False
2018343282,listing,/46-bainbridge-street-heatley-qld-4814-2018343282,,is-sold,Sold by private treaty 17 Feb 2023,20230217,46 Bainbridge Street,HEATLEY,QLD,4814,-19.2932453,146.756592,3,1,4,House,House,False,655,m2,False
2018347105,listing,/5-waterdragon-link-douglas-qld-4814-2018347105,,is-sold,Sold by private treaty 16 Feb 2023,20230216,5 Waterdragon Link,DOUGLAS,QLD,4814,-19.3248215,146.730438,4,2,2,House,House,False,730,m2,False
2018367629,listing,/39-riverbend-drive-douglas-qld-4814-2018367629,422500,is-sold,Sold by private treaty 17 Feb 2023,20230217,39 Riverbend Drive,DOUGLAS,QLD,4814,-19.3203487,146.743423,3,2,2,House,House,False,532,m2,False
2018374703,listing,/8-kite-street-douglas-qld-4814-2018374703,467500,is-sold,Sold by private treaty 20 Feb 2023,20230220,8 Kite Street,DOUGLAS,QLD,4814,-19.3234711,146.736969,4,2,2,House,House,False,432,m2,False
2018377460,listing,/30-sea-eagle-circuit-douglas-qld-4814-2018377460,560000,is-sold,Sold by private treaty 20 Feb 2023,20230220,30 Sea Eagle Circuit,DOUGLAS,QLD,4814,-19.32736,146.73407,5,2,2,House,House,False,869,m2,False
2018377733,listing,/9-waterdragon-link-douglas-qld-4814-2018377733,520000,is-sold,Sold by private treaty 20 Feb 2023,20230220,9 Waterdragon Link,DOUGLAS,QLD,4814,-19.3249016,146.730835,4,2,2,House,House,False,730,m2,False
2017662868,listing,/211-ross-river-road-aitkenvale-qld-4814-2017662868,315000,is-sold,Sold by private treaty 09 Feb 2023,20230209,211 Ross River Road,AITKENVALE,QLD,4814,-19.2961769,146.774567,,,,VacantLand,Vacant land,False,1369,m2,False
2017665020,listing,/58-gorden-street-garbutt-qld-4814-2017665020,442000,is-sold,Sold by private treaty 06 Feb 2023,20230206,58 Gorden Street,GARBUTT,QLD,4814,-19.2646446,146.776428,3,3,3,House,House,False,1012,m2,False
2017839087,listing,/1-52-54-wotton-street-aitkenvale-qld-4814-2017839087,214000,is-sold,Sold by private treaty 13 Feb 2023,20230213,1/52-54 Wotton Street,AITKENVALE,QLD,4814,-19.2965488,146.765457,2,1,1,ApartmentUnitFlat,Apartment / Unit / Flat,False,100,m2,False
2017861310,listing,/59-honeysuckle-drive-annandale-qld-4814-2017861310,,is-sold,Sold by private treaty 10 Feb 2023,20230210,59 Honeysuckle Drive,ANNANDALE,QLD,4814,-19.31726,146.780334,3,1,1,House,House,False,859,m2,False
2017861619,listing,/douglas-qld-4814-2017861619,568000,is-sold,Sold by private treaty 11 Feb 2023,20230211,,DOUGLAS,QLD,4814,-19.3201981,146.735519,4,2,2,House,House,False,608,m2,False
2018025539,listing,/16-doncaster-way-mount-louisa-qld-4814-2018025539,,is-sold,Sold by private treaty 08 Feb 2023,20230208,16 Doncaster Way,MOUNT LOUISA,QLD,4814,-19.26906,146.746536,3,1,1,House,House,False,700,m2,False
2018047804,listing,/4-78-90-annandale-drive-annandale-qld-4814-2018047804,,is-sold,Sold by private treaty 11 Feb 2023,20230211,4/78-90 Annandale Drive,ANNANDALE,QLD,4814,-19.3092957,146.783142,3,1,2,House,House,False,556,m2,False
2018158314,listing,/2-4-lansing-street-mount-louisa-qld-4814-2018158314,,is-sold,Sold by private treaty 09 Feb 2023,20230209,2-4 Lansing Street,MOUNT LOUISA,QLD,4814,-19.2869816,146.722656,5,2,2,House,House,False,677,m2,False
2018160131,listing,/4-41-43-alfred-street-aitkenvale-qld-4814-2018160131,235000,is-sold,Sold by private treaty 13 Feb 2023,20230213,4/41-43 Alfred Street,AITKENVALE,QLD,4814,-19.299202,146.76651,2,1,1,ApartmentUnitFlat,Apartment / Unit / Flat,False,0,m2,False
2018173168,listing,/2-13-15-beatrice-street-aitkenvale-qld-4814-2018173168,,is-sold,Sold by private treaty 07 Feb 2023,20230207,2/13-15 Beatrice Street,AITKENVALE,QLD,4814,-19.3016052,146.763229,2,1,1,ApartmentUnitFlat,Apartment / Unit / Flat,False,0,m2,False
2018182654,listing,/44-estuary-parade-douglas-qld-4814-2018182654,,is-sold,Sold by private treaty 10 Feb 2023,20230210,44 Estuary Parade,DOUGLAS,QLD,4814,-19.3221149,146.738113,3,1,2,House,House,False,432,m2,False
2018246069,listing,/5-birdwing-court-douglas-qld-4814-2018246069,,is-sold,Sold by private treaty 12 Feb 2023,20230212,5 Birdwing Court,DOUGLAS,QLD,4814,-19.3251343,146.736526,3,1,1,House,House,False,333,m2,False
2018248660,listing,/21-weddel-drive-annandale-qld-4814-2018248660,450000,is-sold,Sold by private treaty 06 Feb 2023,20230206,21 Weddel Drive,ANNANDALE,QLD,4814,-19.3140411,146.783936,4,2,2,House,House,False,739,m2,False
2018258151,listing,/19-321-angus-smith-drive-douglas-qld-4814-2018258151,255000,is-sold,Sold by private treaty 09 Feb 2023,20230209,19/321 Angus Smith Drive,DOUGLAS,QLD,4814,-19.32501,146.739014,2,1,1,ApartmentUnitFlat,Apartment / Unit / Flat,False,0,m2,False
2018269343,listing,/20-northwest-crescent-cranbrook-qld-4814-2018269343,,is-sold,Sold by private treaty 08 Feb 2023,20230208,20 Northwest Crescent,CRANBROOK,QLD,4814,-19.3047028,146.7576,4,2,1,House,House,False,0,m2,False
2018277180,listing,/7-2-new-england-court-douglas-qld-4814-2018277180,345000,is-sold,Sold by private treaty 13 Feb 2023,20230213,7/2 New England Court,DOUGLAS,QLD,4814,-19.3132057,146.757141,3,2,2,ApartmentUnitFlat,Apartment / Unit / Flat,False,182,m2,False
2018284023,listing,/220-freshwater-drive-douglas-qld-4814-2018284023,390000,is-sold,Sold by private treaty 10 Feb 2023,20230210,220 Freshwater Drive,DOUGLAS,QLD,4814,-19.3297577,146.733246,3,2,1,House,House,False,308,m2,False
2018286764,listing,/9-cordelia-avenue-cranbrook-qld-4814-2018286764,328000,is-sold,Sold by private treaty 07 Feb 2023,20230207,9 Cordelia Avenue,CRANBROOK,QLD,4814,-19.29748,146.756363,3,1,1,House,House,False,788,m2,False
2018311781,listing,/38-honeysuckle-drive-annandale-qld-4814-2018311781,444000,is-sold,Sold by private treaty 10 Feb 2023,20230210,38 Honeysuckle Drive,ANNANDALE,QLD,4814,-19.315794,146.779541,3,1,2,House,House,False,600,m2,False
2018342930,listing,/17-cilento-crescent-douglas-qld-4814-2018342930,,is-sold,Sold by private treaty 10 Feb 2023,20230210,17 Cilento Crescent,DOUGLAS,QLD,4814,-19.3142166,146.761459,5,2,2,House,House,False,600,m2,False
2017894129,listing,/6-321-angus-smith-drive-douglas-qld-4814-2017894129,255000,is-sold,Sold by private treaty 03 Feb 2023,20230203,6/321 Angus Smith Drive,DOUGLAS,QLD,4814,-19.32501,146.739014,2,1,1,ApartmentUnitFlat,Apartment / Unit / Flat,False,0,m2,False
2018030513,listing,/5-white-beech-court-douglas-qld-4814-2018030513,,is-sold,Sold by private treaty 27 Jan 2023,20230127,5 White Beech Court,DOUGLAS,QLD,4814,-19.3192844,146.743591,3,2,2,House,House,False,524,m2,False
2018114273,listing,/36-ellsworth-drive-mount-louisa-qld-4814-2018114273,,is-sold,Sold by private treaty 25 Jan 2023,20230125,36 Ellsworth Drive,MOUNT LOUISA,QLD,4814,-19.28649,146.72316,3,2,2,House,House,False,495,m2,False
2018137091,listing,/14-ellsworth-drive-mount-louisa-qld-4814-2018137091,,is-sold,Sold by private treaty 24 Jan 2023,20230124,14 Ellsworth Drive,MOUNT LOUISA,QLD,4814,-19.28568,146.721786,4,2,1,House,House,False,660,m2,False
2018146868,listing,/2-cassia-court-annandale-qld-4814-2018146868,363500,is-sold,Sold by private treaty 31 Jan 2023,20230131,2 Cassia Court,ANNANDALE,QLD,4814,-19.316946,146.772217,3,2,2,House,House,False,736,m2,False
2018183785,listing,/452-ross-river-road-cranbrook-qld-4814-2018183785,290000,is-sold,Sold by private treaty 25 Jan 2023,20230125,452 Ross River Road,CRANBROOK,QLD,4814,-19.3054829,146.752243,3,1,3,House,House,False,607,m2,False
2018197908,listing,/12-mathiesen-street-cranbrook-qld-4814-2018197908,313000,is-sold,Sold by private treaty 01 Feb 2023,20230201,12 Mathiesen Street,CRANBROOK,QLD,4814,-19.3024025,146.7597,3,1,2,House,House,False,607,m2,False
2018222687,listing,/26-18-high-vista-drive-mount-louisa-qld-4814-2018222687,1050000,is-sold,Sold by private treaty 24 Jan 2023,20230124,26/18 High Vista Drive,MOUNT LOUISA,QLD,4814,-19.2818756,146.749557,4,2,2,House,House,False,1615,m2,False
2018233213,listing,/22-kallanda-street-mount-louisa-qld-4814-2018233213,,is-sold,Sold by private treaty 30 Jan 2023,20230130,22 Kallanda Street,MOUNT LOUISA,QLD,4814,-19.274601,146.743332,3,2,2,House,House,False,924,m2,False
2018246909,listing,/22-92-regatta-crescent-douglas-qld-4814-2018246909,268000,is-sold,Sold by private treaty 30 Jan 2023,20230130,22/92 Regatta Crescent,DOUGLAS,QLD,4814,-19.316494,146.7584,3,2,1,ApartmentUnitFlat,Apartment / Unit / Flat,False,0,m2,False
2018262005,listing,/5-parnell-court-cranbrook-qld-4814-2018262005,630000,is-sold,Sold by private treaty 24 Jan 2023,20230124,5 Parnell Court,CRANBROOK,QLD,4814,-19.3116989,146.753738,5,3,8,House,House,False,1075,m2,False
2018274099,listing,/52-blaxland-crescent-vincent-qld-4814-2018274099,230000,is-sold,Sold by private treaty 03 Feb 2023,20230203,52 Blaxland Crescent,VINCENT,QLD,4814,-19.28333,146.763519,3,1,2,House,House,False,650,m2,False
2018276789,listing,/80-clarke-street-garbutt-qld-4814-2018276789,,is-sold,Sold by private treaty 25 Jan 2023,20230125,80 Clarke Street,GARBUTT,QLD,4814,-19.2608681,146.7759,3,1,1,House,House,False,911,m2,False
2018281647,listing,/26-delaware-green-mount-louisa-qld-4814-2018281647,440000,is-sold,Sold by private treaty 04 Feb 2023,20230204,26 Delaware Green,MOUNT LOUISA,QLD,4814,-19.29,146.7214,4,2,2,House,House,False,512,m2,False
2018284977,listing,/45-bligh-street-heatley-qld-4814-2018284977,410000,is-sold,Sold by private treaty 01 Feb 2023,20230201,45 Bligh Street,HEATLEY,QLD,4814,-19.2985039,146.747925,4,2,2,House,House,False,603,m2,False
2018285840,listing,/5-cycad-court-annandale-qld-4814-2018285840,485000,is-sold,Sold by private treaty 24 Jan 2023,20230124,5 Cycad Court,ANNANDALE,QLD,4814,-19.30857,146.7801,4,2,2,House,House,False,805,m2,False
2018288804,listing,/9-dillon-street-mount-louisa-qld-4814-2018288804,630000,is-sold,Sold by private treaty 27 Jan 2023,20230127,9 Dillon Street,MOUNT LOUISA,QLD,4814,-19.2687244,146.734116,4,2,2,House,House,False,882,m2,False
2018293621,listing,/32-larkspur-crescent-annandale-qld-4814-2018293621,,is-sold,Sold by private treaty 04 Feb 2023,20230204,32 Larkspur Crescent,ANNANDALE,QLD,4814,-19.3108082,146.778091,3,1,1,House,House,False,786,m2,False
2018299060,listing,/15-stockton-elbow-mount-louisa-qld-4814-2018299060,425000,is-sold,Sold by private treaty 24 Jan 2023,20230124,15 Stockton Elbow,MOUNT LOUISA,QLD,4814,-19.2897167,146.718811,4,2,2,House,House,False,528,m2,False
2018305574,listing,/2-calliope-close-douglas-qld-4814-2018305574,430000,is-sold,Sold by private treaty 30 Jan 2023,20230130,2 Calliope Close,DOUGLAS,QLD,4814,-19.328886,146.732361,4,2,2,House,House,False,481,m2,False
2018068899,listing,/18-hazelwood-court-annandale-qld-4814-2018068899,515000,is-sold,Sold by private treaty 16 Jan 2023,20230116,18 Hazelwood Court,ANNANDALE,QLD,4814,-19.3116169,146.797012,4,2,2,House,House,False,783,m2,False
2018117323,listing,/3-11-13-pugh-street-aitkenvale-qld-4814-2018117323,,is-sold,Sold by private treaty 17 Jan 2023,20230117,3/11-13 Pugh Street,AITKENVALE,QLD,4814,-19.3008175,146.7666,3,1,1,ApartmentUnitFlat,Apartment / Unit / Flat,False,331,m2,False
2018163967,listing,/20-wynberg-dr-annandale-qld-4814-2018163967,540000,is-sold,Sold by private treaty 20 Jan 2023,20230120,20 Wynberg Dr,ANNANDALE,QLD,4814,-19.3141842,146.793015,4,2,2,House,House,False,833,m2,False
2018210581,listing,/17-dali-court-heatley-qld-4814-2018210581,340000,is-sold,Sold by private treaty 20 Jan 2023,20230120,17 Dali Court,HEATLEY,QLD,4814,-19.2994461,146.746841,3,2,4,House,House,False,645,m2,False
2018235918,listing,/20-marlynda-avenue-cranbrook-qld-4814-2018235918,370000,is-sold,Sold by private treaty 20 Jan 2023,20230120,20 Marlynda Avenue,CRANBROOK,QLD,4814,-19.3119068,146.750977,4,2,4,House,House,False,610,m2,False
2018236268,listing,/3-dali-court-heatley-qld-4814-2018236268,345000,is-sold,Sold by private treaty 17 Jan 2023,20230117,3 Dali Court,HEATLEY,QLD,4814,-19.29912,146.747238,3,2,1,House,House,False,706,m2,False
2018237132,listing,/4-pixley-crescent-heatley-qld-4814-2018237132,320000,is-sold,Sold by private treaty 19 Jan 2023,20230119,4 Pixley Crescent,HEATLEY,QLD,4814,-19.2834167,146.759354,3,1,1,House,House,False,612,m2,False
2018239341,listing,/59-bainbridge-street-heatley-qld-4814-2018239341,,is-sold,Sold by private treaty 14 Jan 2023,20230114,59 Bainbridge Street,HEATLEY,QLD,4814,-19.29339,146.7543,3,1,1,House,House,False,607,m2,False
2018245149,listing,/1-kalinya-court-cranbrook-qld-4814-2018245149,560000,is-sold,Sold by private treaty 20 Jan 2023,20230120,1 Kalinya Court,CRANBROOK,QLD,4814,-19.3157043,146.747025,5,3,4,House,House,False,612,m2,False
2018248268,listing,/3-bloomfield-place-douglas-qld-4814-2018248268,531500,is-sold,Sold by private treaty 13 Jan 2023,20230113,3 Bloomfield Place,DOUGLAS,QLD,4814,-19.3289928,146.7316,4,2,2,House,House,False,700,m2,False
2018257805,listing,/4-scenic-drive-mount-louisa-qld-4814-2018257805,432000,is-sold,Sold by private treaty 18 Jan 2023,20230118,4 Scenic Drive,MOUNT LOUISA,QLD,4814,-19.27146,146.740128,3,2,2,House,House,False,972,m2,False
2018268729,listing,/103-399-woolcock-street-garbutt-qld-4814-2018268729,28000,is-sold,Sold by private treaty 12 Jan 2023,20230112,103/399 Woolcock Street,GARBUTT,QLD,4814,-19.266613,146.7628,,,,ApartmentUnitFlat,Apartment / Unit / Flat,False,0,m2,False
2018276064,listing,/12-aloomba-crescent-cranbrook-qld-4814-2018276064,405000,is-sold,Sold by private treaty 20 Jan 2023,20230120,12 Aloomba Crescent,CRANBROOK,QLD,4814,-19.30707,146.753036,4,2,2,House,House,False,678,m2,False
2018278088,listing,/13-sheoak-crescent-douglas-qld-4814-2018278088,485000,is-sold,Sold by private treaty 18 Jan 2023,20230118,13 Sheoak Crescent,DOUGLAS,QLD,4814,-19.3181477,146.739151,4,2,2,House,House,False,638,m2,False
2018286496,listing,/4-canoona-court-annandale-qld-4814-2018286496,615000,is-sold,Sold by private treaty 19 Jan 2023,20230119,4 Canoona Court,ANNANDALE,QLD,4814,-19.3124371,146.789352,4,2,4,House,House,False,0,m2,False
2018288532,listing,/21-bryant-street-cranbrook-qld-4814-2018288532,357000,is-sold,Sold by private treaty 15 Jan 2023,20230115,21 Bryant Street,CRANBROOK,QLD,4814,-19.2988358,146.753677,3,1,2,House,House,False,602,m2,False
2018296291,listing,/217-charles-street-heatley-qld-4814-2018296291,335000,is-sold,Sold by private treaty 19 Jan 2023,20230119,217 Charles Street,HEATLEY,QLD,4814,-19.2955627,146.75238,4,1,2,House,House,False,809,m2,False
2018303193,listing,/25-nettleton-street-mount-louisa-qld-4814-2018303193,530000,is-sold,Sold by private treaty 22 Jan 2023,20230122,25 Nettleton Street,MOUNT LOUISA,QLD,4814,-19.2760544,146.74617,3,2,4,House,House,False,824,m2,False
2018309704,listing,/225-freshwater-drive-douglas-qld-4814-2018309704,362500,is-sold,Sold by private treaty 20 Jan 2023,20230120,225 Freshwater Drive,DOUGLAS,QLD,4814,-19.3293648,146.732712,3,1,1,House,House,False,473,m2,False
2018325705,listing,/28-glendale-drive-annandale-qld-4814-2018325705,540000,is-sold,Sold by private treaty 13 Jan 2023,20230113,28 Glendale Drive,ANNANDALE,QLD,4814,-19.3098068,146.793945,4,2,2,House,House,False,857,m2,False
2017954645,listing,/69-thompson-street-aitkenvale-qld-4814-2017954645,315000,is-sold,Sold by private treaty 21 Dec 2022,20221221,69 Thompson Street,AITKENVALE,QLD,4814,-19.3027439,146.776733,3,1,2,House,House,False,607,m2,False
2018032475,listing,/37-weaver-street-heatley-qld-4814-2018032475,305000,is-sold,Sold by private treaty 23 Dec 2022,20221223,37 Weaver Street,HEATLEY,QLD,4814,-19.2958088,146.7468,3,1,3,House,House,False,687,m2,False
2018072933,listing,/49-paddington-terrace-douglas-qld-4814-2018072933,,is-sold,Sold by private treaty 11 Jan 2023,20230111,49 Paddington Terrace,DOUGLAS,QLD,4814,-19.3192825,146.737808,3,2,2,House,House,False,150,m2,False
2018132281,listing,/2-barnard-street-aitkenvale-qld-4814-2018132281,245000,is-sold,Sold by private treaty 26 Dec 2022,20221226,2 Barnard Street,AITKENVALE,QLD,4814,-19.295,146.767166,3,1,2,House,House,False,665,m2,False
2018137246,listing,/douglas-qld-4814-2018137246,485000,is-sold,Sold by private treaty 30 Dec 2022,20221230,,DOUGLAS,QLD,4814,-19.3296185,146.732361,4,2,2,House,House,False,632,m2,False
2018171009,listing,/douglas-qld-4814-2018171009,490000,is-sold,Sold by private treaty 30 Dec 2022,20221230,,DOUGLAS,QLD,4814,-19.3255825,146.73056,4,2,2,House,House,False,547,m2,False
2018177662,listing,/12-harvard-street-douglas-qld-4814-2018177662,419500,is-sold,Sold by private treaty 04 Jan 2023,20230104,12 Harvard Street,DOUGLAS,QLD,4814,-19.3172932,146.753387,4,1,2,House,House,False,480,m2,False
2018203969,listing,/35-sunderland-street-garbutt-qld-4814-2018203969,282500,is-sold,Sold by private treaty 03 Jan 2023,20230103,35 Sunderland Street,GARBUTT,QLD,4814,-19.25625,146.777039,3,1,1,House,House,False,911,m2,False
2018206795,listing,/27-319-angus-smith-drive-douglas-qld-4814-2018206795,260000,is-sold,Sold by private treaty 30 Dec 2022,20221230,27/319 Angus Smith Drive,DOUGLAS,QLD,4814,-19.3250866,146.7394,2,1,1,ApartmentUnitFlat,Apartment / Unit / Flat,False,124,m2,False
2018207584,listing,/14-calliope-close-douglas-qld-4814-2018207584,424000,is-sold,Sold by private treaty 03 Jan 2023,20230103,14 Calliope Close,DOUGLAS,QLD,4814,-19.3294163,146.731964,4,2,2,House,House,False,432,m2,False
2018214699,listing,/57-poinciana-street-cranbrook-qld-4814-2018214699,315000,is-sold,Sold by private treaty 06 Jan 2023,20230106,57 Poinciana Street,CRANBROOK,QLD,4814,-19.2958565,146.7532,3,1,2,House,House,False,607,m2,False
2018222140,listing,/13-rangeleigh-court-mount-louisa-qld-4814-2018222140,476000,is-sold,Sold by private treaty 08 Jan 2023,20230108,13 Rangeleigh Court,MOUNT LOUISA,QLD,4814,-19.2664528,146.7304,4,2,2,House,House,False,612,m2,False
2018234193,listing,/1-picton-court-cranbrook-qld-4814-2018234193,469000,is-sold,Sold by private treaty 22 Dec 2022,20221222,1 Picton Court,CRANBROOK,QLD,4814,-19.3144588,146.744919,4,2,2,House,House,False,650,m2,False
2018237622,listing,/60-franklin-drive-mount-louisa-qld-4814-2018237622,443500,is-sold,Sold by private treaty 10 Jan 2023,20230110,60 Franklin Drive,MOUNT LOUISA,QLD,4814,-19.2818928,146.720612,4,2,2,House,House,False,632,m2,False
2018239934,listing,/8-aaron-brace-mount-louisa-qld-4814-2018239934,,is-sold,Sold by private treaty 11 Jan 2023,20230111,8 Aaron Brace,MOUNT LOUISA,QLD,4814,-19.2905331,146.719818,2,2,1,House,House,False,351,m2,False
2018240984,listing,/1-carron-court-douglas-qld-4814-2018240984,482500,is-sold,Sold by private treaty 22 Dec 2022,20221222,1 Carron Court,DOUGLAS,QLD,4814,-19.3176384,146.757858,4,2,2,House,House,False,755,m2,False
2018247567,listing,/28-hilton-way-mount-louisa-qld-4814-2018247567,497000,is-sold,Sold by private treaty 11 Jan 2023,20230111,28 Hilton Way,MOUNT LOUISA,QLD,4814,-19.2704487,146.7322,4,2,6,House,House,False,611,m2,False
2018281153,listing,/214-4-paddington-tce-douglas-qld-4814-2018281153,260000,is-sold,Sold by private treaty 06 Jan 2023,20230106,214/4 Paddington Tce,DOUGLAS,QLD,4814,-19.320961,146.738983,2,2,,ApartmentUnitFlat,Apartment / Unit / Flat,False,0,m2,False
2018309440,listing,/116-riverbend-drive-douglas-qld-4814-2018309440,502500,is-sold,Sold by private treaty 10 Jan 2023,20230110,116 Riverbend Drive,DOUGLAS,QLD,4814,-19.317379,146.740265,4,2,,House,House,False,567,m2,False
2018333677,listing,/27-daniels-street-vincent-qld-4814-2018333677,305000,is-sold,Sold by private treaty 12 Jan 2023,20230112,27 Daniels Street,VINCENT,QLD,4814,-19.2792816,146.76506,3,1,1,House,House,False,697,m2,False
2017848712,listing,/67-templeton-crescent-douglas-qld-4814-2017848712,,is-sold,Sold by private treaty 19 Dec 2022,20221219,67 Templeton Crescent,DOUGLAS,QLD,4814,-19.3186111,146.757645,4,2,2,House,House,False,716,m2,False
2017927704,listing,/17-scholars-place-douglas-qld-4814-2017927704,360000,is-sold,Sold by private treaty 14 Dec 2022,20221214,17 Scholars Place,DOUGLAS,QLD,4814,-19.3147221,146.75676,3,1,1,House,House,False,429,m2,False
2018005273,listing,/119-mill-drive-heatley-qld-4814-2018005273,275000,is-sold,Sold by private treaty 21 Dec 2022,20221221,119 Mill Drive,HEATLEY,QLD,4814,-19.2929459,146.747147,3,1,1,House,House,False,607,m2,False
2018146453,listing,/53-clarke-street-garbutt-qld-4814-2018146453,250000,is-sold,Sold by private treaty 20 Dec 2022,20221220,53 Clarke Street,GARBUTT,QLD,4814,-19.26083,146.7787,2,1,1,House,House,False,911,m2,False
2018150228,listing,/2-fantail-court-douglas-qld-4814-2018150228,347000,is-sold,Sold by private treaty 16 Dec 2022,20221216,2 Fantail Court,DOUGLAS,QLD,4814,-19.3215942,146.735565,3,1,1,House,House,False,328,m2,False
2018191026,listing,/14-regatta-crescent-douglas-qld-4814-2018191026,910000,is-sold,Sold by private treaty 16 Dec 2022,20221216,14 Regatta Crescent,DOUGLAS,QLD,4814,-19.3145351,146.755051,4,4,3,House,House,False,814,m2,False
2018191755,listing,/9-butterfly-crescent-douglas-qld-4814-2018191755,390000,is-sold,Sold by private treaty 19 Dec 2022,20221219,9 Butterfly Crescent,DOUGLAS,QLD,4814,-19.3234234,146.738724,3,2,1,House,House,False,472,m2,False
2018197738,listing,/2-courtney-street-cranbrook-qld-4814-2018197738,300000,is-sold,Sold by private treaty 14 Dec 2022,20221214,2 Courtney Street,CRANBROOK,QLD,4814,-19.301672,146.747772,3,1,2,House,House,False,599,m2,False
2018199874,listing,/27-53-57-bergin-road-cranbrook-qld-4814-2018199874,80000,is-sold,Sold by private treaty 15 Dec 2022,20221215,27/53-57 Bergin Road,CRANBROOK,QLD,4814,-19.3059711,146.7564,1,1,1,ApartmentUnitFlat,Apartment / Unit / Flat,False,0,m2,False
2018209263,listing,/10-boxwood-street-douglas-qld-4814-2018209263,337000,is-sold,Sold by private treaty 21 Dec 2022,20221221,10 Boxwood Street,DOUGLAS,QLD,4814,-19.317625,146.739471,3,1,1,House,House,False,377,m2,False
2018215969,listing,/7-ulysses-drive-mount-louisa-qld-4814-2018215969,450000,is-sold,Sold by private treaty 16 Dec 2022,20221216,7 Ulysses Drive,MOUNT LOUISA,QLD,4814,-19.283329,146.722839,4,2,2,House,House,False,663,m2,False
2018218082,listing,/11-badelona-cranbrook-qld-4814-2018218082,,is-sold,Sold by private treaty 20 Dec 2022,20221220,11 Badelona,CRANBROOK,QLD,4814,-19.3078289,146.746582,3,1,1,House,House,False,600,m2,False
2018221546,listing,/45-mount-louisa-drive-mount-louisa-qld-4814-2018221546,407000,is-sold,Sold by private treaty 19 Dec 2022,20221219,45 Mount Louisa Drive,MOUNT LOUISA,QLD,4814,-19.2741547,146.74614,3,2,4,House,House,False,668,m2,False
2018223085,listing,/49-russell-street-aitkenvale-qld-4814-2018223085,460000,is-sold,Sold by private treaty 14 Dec 2022,20221214,49 Russell Street,AITKENVALE,QLD,4814,-19.3013744,146.775925,5,2,3,House,House,False,646,m2,False
2018223092,listing,/17-camden-court-annandale-qld-4814-2018223092,390000,is-sold,Sold by private treaty 13 Dec 2022,20221213,17 Camden Court,ANNANDALE,QLD,4814,-19.3155937,146.79512,3,1,2,House,House,False,480,m2,False
2018234718,listing,/4-elderslie-street-annandale-qld-4814-2018234718,775000,is-sold,Sold by private treaty 20 Dec 2022,20221220,4 Elderslie Street,ANNANDALE,QLD,4814,-19.3035088,146.789459,4,2,2,House,House,False,917,m2,False
2018236211,listing,/55-regatta-crescent-douglas-qld-4814-2018236211,420000,is-sold,Sold by private treaty 19 Dec 2022,20221219,55 Regatta Crescent,DOUGLAS,QLD,4814,-19.3160439,146.757645,3,2,2,House,House,False,531,m2,False
2018246293,listing,/14-mount-louisa-drive-mount-louisa-qld-4814-2018246293,390000,is-sold,Sold by private treaty 14 Dec 2022,20221214,14 Mount Louisa Drive,MOUNT LOUISA,QLD,4814,-19.2728157,146.743378,3,2,2,House,House,False,715,m2,False
2018248972,listing,/19-carlisle-street-cranbrook-qld-4814-2018248972,330000,is-sold,Sold by private treaty 21 Dec 2022,20221221,19 Carlisle Street,CRANBROOK,QLD,4814,-19.2989731,146.7547,3,1,2,House,House,False,635,m2,False
2018255020,listing,/14-wynberg-drive-annandale-qld-4814-2018255020,500000,is-sold,Sold by private treaty 19 Dec 2022,20221219,14 Wynberg Drive,ANNANDALE,QLD,4814,-19.3145447,146.792587,3,2,2,House,House,False,747,m2,False
2016726623,listing,/15-151-riverside-boulevard-douglas-qld-4814-2016726623,242000,is-sold,Sold by private treaty 07 Dec 2022,20221207,15/151 Riverside Boulevard,DOUGLAS,QLD,4814,-19.3188839,146.744446,2,2,1,ApartmentUnitFlat,Apartment / Unit / Flat,False,0,m2,False
2017615671,listing,/11-sheerwater-parade-douglas-qld-4814-2017615671,555000,is-sold,Sold by private treaty 08 Dec 2022,20221208,11 Sheerwater Parade,DOUGLAS,QLD,4814,-19.3251743,146.730957,4,2,2,House,House,False,704,m2,False
2017977592,listing,/27-jonquil-crescent-annandale-qld-4814-2017977592,700000,is-sold,Sold by private treaty 09 Dec 2022,20221209,27 Jonquil Crescent,ANNANDALE,QLD,4814,-19.3111916,146.781174,4,3,3,House,House,False,660,m2,False
2018085282,listing,/14-2-new-england-court-douglas-qld-4814-2018085282,330000,is-sold,Sold by private treaty 09 Dec 2022,20221209,14/2 New England Court,DOUGLAS,QLD,4814,-19.312809,146.756866,3,2,2,ApartmentUnitFlat,Apartment / Unit / Flat,False,0,m2,False
2018117507,listing,/1-silverleaf-court-douglas-qld-4814-2018117507,,is-sold,Sold by private treaty 08 Dec 2022,20221208,1 Silverleaf Court,DOUGLAS,QLD,4814,-19.3190918,146.742065,4,2,2,House,House,False,697,m2,False
2018150962,listing,/18-choonda-street-cranbrook-qld-4814-2018150962,377540,is-sold,Sold by private treaty 12 Dec 2022,20221212,18 Choonda Street,CRANBROOK,QLD,4814,-19.3001823,146.751343,4,1,3,House,House,False,1108,m2,False
2018159699,listing,/51-honeysuckle-drive-annandale-qld-4814-2018159699,430000,is-sold,Sold by private treaty 08 Dec 2022,20221208,51 Honeysuckle Drive,ANNANDALE,QLD,4814,-19.317234,146.7794,4,2,3,House,House,False,974,m2,False
2018174114,listing,/16-davies-street-mount-louisa-qld-4814-2018174114,385000,is-sold,Sold by private treaty 09 Dec 2022,20221209,16 Davies Street,MOUNT LOUISA,QLD,4814,-19.2739353,146.753647,4,2,3,House,House,False,597,m2,False
2018178752,listing,/75-honeysuckle-dr-annandale-qld-4814-2018178752,320000,is-sold,Sold at auction 07 Dec 2022,20221207,75 Honeysuckle Dr,ANNANDALE,QLD,4814,-19.3165646,146.7819,3,1,2,House,House,False,616,m2,False
2018183399,listing,/62-gadsden-loop-mount-louisa-qld-4814-2018183399,410000,is-sold,Sold by private treaty 09 Dec 2022,20221209,62 Gadsden Loop,MOUNT LOUISA,QLD,4814,-19.2914772,146.721832,4,2,2,House,House,False,454,m2,False
2018184522,listing,/33-masuda-street-annandale-qld-4814-2018184522,455000,is-sold,Sold by private treaty 07 Dec 2022,20221207,33 Masuda Street,ANNANDALE,QLD,4814,-19.3123589,146.768127,4,2,2,House,House,False,607,m2,False
2018200584,listing,/4-hall-court-aitkenvale-qld-4814-2018200584,365000,is-sold,Sold by private treaty 11 Dec 2022,20221211,4 Hall Court,AITKENVALE,QLD,4814,-19.3040771,146.773483,3,1,2,House,House,False,1007,m2,False
2018221099,listing,/6-neale-court-annandale-qld-4814-2018221099,535000,is-sold,Sold by private treaty 12 Dec 2022,20221212,6 Neale Court,ANNANDALE,QLD,4814,-19.3141251,146.7666,5,3,5,House,House,False,918,m2,False
2018223778,listing,/120-wellington-street-aitkenvale-qld-4814-2018223778,485000,is-sold,Sold by private treaty 08 Dec 2022,20221208,120 Wellington Street,AITKENVALE,QLD,4814,-19.2921619,146.774231,4,2,4,BlockOfUnits,Block of Units,False,1012,m2,False
2018225421,listing,/24-lansing-street-mount-louisa-qld-4814-2018225421,370000,is-sold,Sold by private treaty 13 Dec 2022,20221213,24 Lansing Street,MOUNT LOUISA,QLD,4814,-19.2866421,146.720917,3,2,2,House,House,False,552,m2,False
2018234108,listing,/268-dalrymple-road-vincent-qld-4814-2018234108,285000,is-sold,Sold by private treaty 13 Dec 2022,20221213,268 Dalrymple Road,VINCENT,QLD,4814,-19.2805824,146.760849,3,1,1,House,House,False,607,m2,False
2018234326,listing,/57-crestbrook-drive-mount-louisa-qld-4814-2018234326,435000,is-sold,Sold by private treaty 08 Dec 2022,20221208,57 Crestbrook Drive,MOUNT LOUISA,QLD,4814,-19.2726517,146.730209,4,2,2,House,House,False,560,m2,False
2018244903,listing,/3-pugh-street-aitkenvale-qld-4814-2018244903,326000,is-sold,Sold by private treaty 12 Dec 2022,20221212,3 Pugh Street,AITKENVALE,QLD,4814,-19.2998962,146.766983,3,1,1,House,House,False,868,m2,False
2018254685,listing,/26-glasgow-avenue-mount-louisa-qld-4814-2018254685,847000,is-sold,Sold by private treaty 08 Dec 2022,20221208,26 Glasgow Avenue,MOUNT LOUISA,QLD,4814,-19.2746315,146.7411,6,4,4,Duplex,Duplex,False,1557,m2,False
2018257306,listing,/58-waterlily-circuit-douglas-qld-4814-2018257306,495000,is-sold,Sold by private treaty 12 Dec 2022,20221212,58 Waterlily Circuit,DOUGLAS,QLD,4814,-19.32594,146.73053,4,2,2,House,House,False,432,m2,False
2016809100,listing,/51-321-341-angus-smith-drive-douglas-qld-4814-2016809100,249000,is-sold,Sold by private treaty 30 Nov 2022,20221130,51/321-341 Angus Smith Drive,DOUGLAS,QLD,4814,-19.3252125,146.738953,2,1,1,ApartmentUnitFlat,Apartment / Unit / Flat,False,117,m2,False
2017943138,listing,/26-strathburn-street-mount-louisa-qld-4814-2017943138,480000,is-sold,Sold by private treaty 05 Dec 2022,20221205,26 Strathburn Street,MOUNT LOUISA,QLD,4814,-19.2837029,146.728851,4,2,2,House,House,False,571,m2,False
2018042101,listing,/4-lyndhurst-street-mount-louisa-qld-4814-2018042101,340000,is-sold,Sold by private treaty 04 Dec 2022,20221204,4 Lyndhurst Street,MOUNT LOUISA,QLD,4814,-19.26869,146.742828,3,1,2,House,House,False,693,m2,False
2018043813,listing,/3-35-pope-street-aitkenvale-qld-4814-2018043813,278000,is-sold,Sold by private treaty 02 Dec 2022,20221202,3/35 Pope Street,AITKENVALE,QLD,4814,-19.30376,146.761658,2,1,2,House,House,False,114,m2,False
2018086444,listing,/137-freshwater-drive-douglas-qld-4814-2018086444,315000,is-sold,Sold by private treaty 02 Dec 2022,20221202,137 Freshwater Drive,DOUGLAS,QLD,4814,-19.3271523,146.731659,3,1,1,House,House,False,305,m2,False
2018101890,listing,/16-symons-street-vincent-qld-4814-2018101890,359000,is-sold,Sold by private treaty 30 Nov 2022,20221130,16 Symons Street,VINCENT,QLD,4814,-19.2797337,146.76387,2,1,4,House,House,False,693,m2,False
2018126149,listing,/11-rundle-street-mount-louisa-qld-4814-2018126149,375000,is-sold,Sold by private treaty 30 Nov 2022,20221130,11 Rundle Street,MOUNT LOUISA,QLD,4814,-19.27379,146.742767,3,1,1,House,House,False,607,m2,False
2018146245,listing,/4-fenner-street-douglas-qld-4814-2018146245,201000,is-sold,Sold by private treaty 05 Dec 2022,20221205,4 Fenner Street,DOUGLAS,QLD,4814,-19.3119831,146.761108,1,1,1,House,House,False,600,m2,False
2018159420,listing,/12-marlynda-avenue-cranbrook-qld-4814-2018159420,390000,is-sold,Sold by private treaty 30 Nov 2022,20221130,12 Marlynda Avenue,CRANBROOK,QLD,4814,-19.3125248,146.7504,4,2,2,House,House,False,607,m2,False
2018175260,listing,/1-wynberg-drive-annandale-qld-4814-2018175260,545000,is-sold,Sold by private treaty 06 Dec 2022,20221206,1 Wynberg Drive,ANNANDALE,QLD,4814,-19.3144283,146.791214,4,2,2,House,House,False,874,m2,False
2018185324,listing,/8-moorhen-court-douglas-qld-4814-2018185324,345000,is-sold,Sold by private treaty 01 Dec 2022,20221201,8 Moorhen Court,DOUGLAS,QLD,4814,-19.3221664,146.737366,3,1,1,House,House,False,352,m2,False
2018189302,listing,/4-mount-louisa-drive-mount-louisa-qld-4814-2018189302,455000,is-sold,Sold by private treaty 30 Nov 2022,20221130,4 Mount Louisa Drive,MOUNT LOUISA,QLD,4814,-19.2716579,146.743286,4,2,2,House,House,False,604,m2,False
2018217931,listing,/40-ellsworth-drive-mount-louisa-qld-4814-2018217931,452000,is-sold,Sold by private treaty 07 Dec 2022,20221207,40 Ellsworth Drive,MOUNT LOUISA,QLD,4814,-19.2867737,146.72316,4,2,2,House,House,False,660,m2,False
2018221134,listing,/29-meenan-street-garbutt-qld-4814-2018221134,250000,is-sold,Sold by private treaty 30 Nov 2022,20221130,29 Meenan Street,GARBUTT,QLD,4814,-19.2614365,146.775284,3,2,1,House,House,False,508,m2,False
2018224439,listing,/19-strathburn-court-mount-louisa-qld-4814-2018224439,445000,is-sold,Sold by private treaty 30 Nov 2022,20221130,19 Strathburn Court,MOUNT LOUISA,QLD,4814,-19.2841816,146.7296,4,2,2,House,House,False,634,m2,False
2018232547,listing,/58-lockheed-street-garbutt-qld-4814-2018232547,365000,is-sold,Sold by private treaty 02 Dec 2022,20221202,58 Lockheed Street,GARBUTT,QLD,4814,-19.2570782,146.7795,3,2,1,House,House,False,1275,m2,False
2018235238,listing,/13-st-kilda-row-douglas-qld-4814-2018235238,377000,is-sold,Sold by private treaty 29 Nov 2022,20221129,13 St Kilda row,DOUGLAS,QLD,4814,-19.31985,146.737808,3,2,1,House,House,False,0,m2,False
2018267970,listing,/2-nutwood-court-annandale-qld-4814-2018267970,545000,is-sold,Sold by private treaty 06 Dec 2022,20221206,2 Nutwood Court,ANNANDALE,QLD,4814,-19.3120384,146.7881,4,1,2,House,House,False,725,m2,False
2018296265,listing,/26-summerset-drive-mount-louisa-qld-4814-2018296265,535000,is-sold,Sold by private treaty 06 Dec 2022,20221206,26 Summerset Drive,MOUNT LOUISA,QLD,4814,-19.2757664,146.751236,4,2,2,House,House,False,540,m2,False
2017858994,listing,/2-lavarack-street-mount-louisa-qld-4814-2017858994,520000,is-sold,Sold by private treaty 29 Nov 2022,20221129,2 Lavarack Street,MOUNT LOUISA,QLD,4814,-19.2732887,146.746887,5,2,5,House,House,False,731,m2,False
2017966727,listing,/10-bamboo-crescent-mount-louisa-qld-4814-2017966727,408000,is-sold,Sold by private treaty 24 Nov 2022,20221124,10 Bamboo Crescent,MOUNT LOUISA,QLD,4814,-19.2890854,146.72728,4,2,2,House,House,False,601,m2,False
2018023055,listing,/117-dearness-street-garbutt-qld-4814-2018023055,257500,is-sold,Sold by private treaty 24 Nov 2022,20221124,117 Dearness Street,GARBUTT,QLD,4814,-19.25923,146.774063,3,1,2,House,House,False,809,m2,False
2018072588,listing,/68-meenan-street-garbutt-qld-4814-2018072588,360000,is-sold,Sold by private treaty 29 Nov 2022,20221129,68 Meenan Street,GARBUTT,QLD,4814,-19.25649,146.775421,4,2,2,House,House,False,602,m2,False
2018095225,listing,/27-southern-cross-circuit-douglas-qld-4814-2018095225,391000,is-sold,Sold by private treaty 25 Nov 2022,20221125,27 Southern Cross Circuit,DOUGLAS,QLD,4814,-19.3201561,146.752243,3,2,1,House,House,False,352,m2,False
2018097776,listing,/7-horizon-drive-douglas-qld-4814-2018097776,950000,is-sold,Sold by private treaty 28 Nov 2022,20221128,7 Horizon Drive,DOUGLAS,QLD,4814,-19.319931,146.74028,4,3,2,House,House,False,718,m2,False
2018105618,listing,/170-albert-street-cranbrook-qld-4814-2018105618,315000,is-sold,Sold by private treaty 26 Nov 2022,20221126,170 Albert Street,CRANBROOK,QLD,4814,-19.3121,146.749527,4,1,3,House,House,False,635,m2,False
2018135661,listing,/2-elford-place-mount-louisa-qld-4814-2018135661,485000,is-sold,Sold by private treaty 25 Nov 2022,20221125,2 Elford Place,MOUNT LOUISA,QLD,4814,-19.27184,146.725891,4,2,2,House,House,False,769,m2,False
2018145122,listing,/62-franklin-drive-mount-louisa-qld-4814-2018145122,520000,is-sold,Sold by private treaty 28 Nov 2022,20221128,62 Franklin Drive,MOUNT LOUISA,QLD,4814,-19.28226,146.720612,4,2,3,House,House,False,652,m2,False
2018158944,listing,/15-banyan-court-annandale-qld-4814-2018158944,390000,is-sold,Sold by private treaty 25 Nov 2022,20221125,15 Banyan Court,ANNANDALE,QLD,4814,-19.3154449,146.775742,3,1,1,House,House,False,591,m2,False
2018159284,listing,/112-banfield-drive-mount-louisa-qld-4814-2018159284,345000,is-sold,Sold by private treaty 25 Nov 2022,20221125,112 Banfield Drive,MOUNT LOUISA,QLD,4814,-19.2830982,146.750626,3,1,3,House,House,False,956,m2,False
2018175999,listing,/12-crete-street-aitkenvale-qld-4814-2018175999,400000,is-sold,Sold by private treaty 25 Nov 2022,20221125,12 Crete Street,AITKENVALE,QLD,4814,-19.2979145,146.774841,3,2,1,House,House,False,713,m2,False
2018189336,listing,/3-dugong-crescent-mount-louisa-qld-4814-2018189336,457500,is-sold,Sold by private treaty 29 Nov 2022,20221129,3 Dugong Crescent,MOUNT LOUISA,QLD,4814,-19.2669926,146.725647,4,2,2,House,House,False,450,m2,False
2018189526,listing,/10-thorley-street-heatley-qld-4814-2018189526,400000,is-sold,Sold by private treaty 28 Nov 2022,20221128,10 Thorley Street,HEATLEY,QLD,4814,-19.295269,146.751938,3,2,2,House,House,False,809,m2,False
2018193049,listing,/10-beattie-crescent-vincent-qld-4814-2018193049,265000,is-sold,Sold by private treaty 25 Nov 2022,20221125,10 Beattie Crescent,VINCENT,QLD,4814,-19.2831459,146.764618,3,1,2,House,House,False,797,m2,False
2018208975,listing,/12-chloe-court-mount-louisa-qld-4814-2018208975,380000,is-sold,Sold by private treaty 25 Nov 2022,20221125,12 Chloe Court,MOUNT LOUISA,QLD,4814,-19.2707138,146.742065,4,2,2,House,House,False,481,m2,False
2018211035,listing,/311-fulham-road-heatley-qld-4814-2018211035,400000,is-sold,Sold by private treaty 26 Nov 2022,20221126,311 Fulham Road,HEATLEY,QLD,4814,-19.2869625,146.75676,5,2,4,House,House,False,827,m2,False
2018231559,listing,/11-serissa-crescent-annandale-qld-4814-2018231559,365000,is-sold,Sold by private treaty 25 Nov 2022,20221125,11 Serissa Crescent,ANNANDALE,QLD,4814,-19.3151741,146.7813,3,1,1,House,House,False,600,m2,False
2018235686,listing,/62-girraween-avenue-douglas-qld-4814-2018235686,598000,is-sold,Sold by private treaty 29 Nov 2022,20221129,62 Girraween Avenue,DOUGLAS,QLD,4814,-19.3262615,146.75,5,2,2,House,House,False,650,m2,False
2018282731,listing,/68-meenan-street-garbutt-qld-4814-2018282731,360000,is-sold,Sold by private treaty 29 Nov 2022,20221129,68 Meenan Street,GARBUTT,QLD,4814,-19.25649,146.775421,4,2,2,House,House,False,602,m2,False
2017368902,listing,/1-jondaryn-court-annandale-qld-4814-2017368902,455000,is-sold,Sold by private treaty 23 Nov 2022,20221123,1 Jondaryn Court,ANNANDALE,QLD,4814,-19.3163033,146.783234,4,2,2,House,House,False,798,m2,False
2017864654,listing,/4-alamein-street-aitkenvale-qld-4814-2017864654,,is-sold,Sold by private treaty 21 Nov 2022,20221121,4 ALAMEIN STREET,AITKENVALE,QLD,4814,-19.297657,146.774185,3,1,2,House,House,False,607,m2,False
2017956576,listing,/21-kroymans-drive-mount-louisa-qld-4814-2017956576,465000,is-sold,Sold by private treaty 21 Nov 2022,20221121,21 Kroymans Drive,MOUNT LOUISA,QLD,4814,-19.2661247,146.725891,5,2,2,House,House,False,600,m2,False
2018024811,listing,/31-goldsworthy-street-heatley-qld-4814-2018024811,220000,is-sold,Sold by private treaty 19 Nov 2022,20221119,31 Goldsworthy Street,HEATLEY,QLD,4814,-19.2845631,146.759171,3,1,1,House,House,False,675,m2,False
2018027987,listing,/17-carlisle-street-cranbrook-qld-4814-2018027987,260000,is-sold,Sold by private treaty 23 Nov 2022,20221123,17 Carlisle Street,CRANBROOK,QLD,4814,-19.2988968,146.754913,3,1,1,House,House,False,645,m2,False
2018058360,listing,/2-rosedale-court-annandale-qld-4814-2018058360,825000,is-sold,Sold by private treaty 21 Nov 2022,20221121,2 Rosedale Court,ANNANDALE,QLD,4814,-19.3065262,146.795151,4,2,2,House,House,False,910,m2,False
2018085661,listing,/3-wooral-street-cranbrook-qld-4814-2018085661,292000,is-sold,Sold by private treaty 16 Nov 2022,20221116,3 Wooral Street,CRANBROOK,QLD,4814,-19.30022,146.749039,3,1,4,House,House,False,607,m2,False
2018100233,listing,/20-canara-street-cranbrook-qld-4814-2018100233,375000,is-sold,Sold by private treaty 23 Nov 2022,20221123,20 Canara Street,CRANBROOK,QLD,4814,-19.3014526,146.751678,3,1,2,House,House,False,607,m2,False
2018113256,listing,/4-teatree-court-mount-louisa-qld-4814-2018113256,630000,is-sold,Sold by private treaty 17 Nov 2022,20221117,4 Teatree Court,MOUNT LOUISA,QLD,4814,-19.28782,146.726776,4,2,2,House,House,False,1241,m2,False
2018124063,listing,/101-lillipilli-street-vincent-qld-4814-2018124063,310000,is-sold,Sold by private treaty 17 Nov 2022,20221117,101 Lillipilli Street,VINCENT,QLD,4814,-19.2810364,146.760666,3,1,4,House,House,False,607,m2,False
2018127891,listing,/24-chauncy-crescent-douglas-qld-4814-2018127891,287500,is-sold,Sold by private treaty 16 Nov 2022,20221116,24 Chauncy Crescent,DOUGLAS,QLD,4814,-19.31392,146.758209,2,1,1,House,House,False,600,m2,False
2018143814,listing,/47-russell-street-aitkenvale-qld-4814-2018143814,431000,is-sold,Sold by private treaty 23 Nov 2022,20221123,47 Russell Street,AITKENVALE,QLD,4814,-19.3011456,146.7759,4,2,1,House,House,False,677,m2,False
2018157956,listing,/14-rangeleigh-court-mount-louisa-qld-4814-2018157956,400000,is-sold,Sold by private treaty 22 Nov 2022,20221122,14 Rangeleigh Court,MOUNT LOUISA,QLD,4814,-19.266346,146.730255,3,2,2,House,House,False,604,m2,False
2018158791,listing,/51-caroline-street-aitkenvale-qld-4814-2018158791,900000,is-sold,Sold by private treaty 23 Nov 2022,20221123,51 Caroline Street,AITKENVALE,QLD,4814,-19.3002529,146.766434,9,3,6,Duplex,Duplex,False,1012,m2,False
2018159063,listing,/6-harrington-court-douglas-qld-4814-2018159063,,is-sold,Sold at auction 22 Nov 2022,20221122,6 Harrington Court,DOUGLAS,QLD,4814,-19.3175182,146.7511,4,2,3,House,House,False,835,m2,False
2018162143,listing,/4-parnell-court-cranbrook-qld-4814-2018162143,445000,is-sold,Sold by private treaty 21 Nov 2022,20221121,4 Parnell Court,CRANBROOK,QLD,4814,-19.311573,146.753632,4,2,2,House,House,False,604,m2,False
2018193855,listing,/41-bamboo-crescent-mount-louisa-qld-4814-2018193855,510000,is-sold,Sold by private treaty 22 Nov 2022,20221122,41 Bamboo Crescent,MOUNT LOUISA,QLD,4814,-19.28813,146.7246,4,2,2,House,House,False,800,m2,False
2018206196,listing,/24-deschamp-street-aitkenvale-qld-4814-2018206196,398000,is-sold,Sold by private treaty 20 Nov 2022,20221120,24 Deschamp Street,AITKENVALE,QLD,4814,-19.2892876,146.77533,3,2,4,House,House,False,809,m2,False
2018206627,listing,/1-tregaskis-street-vincent-qld-4814-2018206627,220000,is-sold,Sold by private treaty 19 Nov 2022,20221119,1 Tregaskis Street,VINCENT,QLD,4814,-19.282011,146.76445,3,1,1,House,House,False,635,m2,False
2018225227,listing,/19-warbler-crescent-douglas-qld-4814-2018225227,366500,is-sold,Sold by private treaty 21 Nov 2022,20221121,19 Warbler Crescent,DOUGLAS,QLD,4814,-19.3256054,146.735229,3,1,1,House,House,False,401,m2,False
2017957278,listing,/27-killymoon-crescent-annandale-qld-4814-2017957278,360000,is-sold,Sold by private treaty 12 Nov 2022,20221112,27 Killymoon Crescent,ANNANDALE,QLD,4814,-19.316761,146.797348,3,2,2,House,House,False,541,m2,False
2017967938,listing,/38-alfred-street-aitkenvale-qld-4814-2017967938,245000,is-sold,Sold by private treaty 08 Nov 2022,20221108,38 Alfred Street,AITKENVALE,QLD,4814,-19.2998333,146.766281,3,1,2,House,House,False,665,m2,False
2018001647,listing,/68-ellsworth-drive-mount-louisa-qld-4814-2018001647,360000,is-sold,Sold by private treaty 08 Nov 2022,20221108,68 Ellsworth Drive,MOUNT LOUISA,QLD,4814,-19.2874527,146.721481,3,2,2,House,House,False,482,m2,False
2018005658,listing,/11-paskin-street-vincent-qld-4814-2018005658,237500,is-sold,Sold by private treaty 08 Nov 2022,20221108,11 Paskin Street,VINCENT,QLD,4814,-19.2907162,146.763962,3,1,1,House,House,False,607,m2,False
2018040173,listing,/17-malibu-parade-mount-louisa-qld-4814-2018040173,465000,is-sold,Sold by private treaty 11 Nov 2022,20221111,17 Malibu Parade,MOUNT LOUISA,QLD,4814,-19.2698212,146.74588,4,2,2,House,House,False,540,m2,False
2018047068,listing,/15-noonan-street-heatley-qld-4814-2018047068,255000,is-sold,Sold by private treaty 10 Nov 2022,20221110,15 Noonan Street,HEATLEY,QLD,4814,-19.2945862,146.747589,3,1,4,House,House,False,607,m2,False
2018076567,listing,/58-bergin-rd-cranbrook-qld-4814-2018076567,300000,is-sold,Sold by private treaty 11 Nov 2022,20221111,58 Bergin Rd,CRANBROOK,QLD,4814,-19.3080158,146.756058,4,1,2,House,House,False,607,m2,False
2018085010,listing,/2-dianella-court-annandale-qld-4814-2018085010,645000,is-sold,Sold by private treaty 11 Nov 2022,20221111,2 Dianella Court,ANNANDALE,QLD,4814,-19.3058968,146.783188,4,2,2,House,House,False,0,m2,False
2018129989,listing,/24-mcbride-st-heatley-qld-4814-2018129989,275000,is-sold,Sold by private treaty 10 Nov 2022,20221110,24 Mcbride st,HEATLEY,QLD,4814,-19.2963943,146.746674,3,1,1,House,House,False,759,m2,False
2018131111,listing,/douglas-qld-4814-2018131111,479000,is-sold,Sold by private treaty 10 Nov 2022,20221110,,DOUGLAS,QLD,4814,-19.3212242,146.7582,4,2,2,House,House,False,622,m2,False
2018140559,listing,/10-borral-street-cranbrook-qld-4814-2018140559,340000,is-sold,Sold by private treaty 09 Nov 2022,20221109,10 Borral Street,CRANBROOK,QLD,4814,-19.30411,146.759872,3,2,1,House,House,False,607,m2,False
2018141492,listing,/10-laufer-street-heatley-qld-4814-2018141492,355000,is-sold,Sold by private treaty 12 Nov 2022,20221112,10 Laufer Street,HEATLEY,QLD,4814,-19.2910538,146.76062,3,1,1,House,House,False,607,m2,False
2018146447,listing,/21-ramsay-street-garbutt-qld-4814-2018146447,447000,is-sold,Sold by private treaty 15 Nov 2022,20221115,21 Ramsay Street,GARBUTT,QLD,4814,-19.2632446,146.779922,4,2,2,House,House,False,442,m2,False
2018154934,listing,/3-redgum-court-mount-louisa-qld-4814-2018154934,430000,is-sold,Sold by private treaty 10 Nov 2022,20221110,3 Redgum Court,MOUNT LOUISA,QLD,4814,-19.2696362,146.7315,3,2,2,House,House,False,497,m2,False
2018159101,listing,/8b-cahill-street-aitkenvale-qld-4814-2018159101,370000,is-sold,Sold by private treaty 14 Nov 2022,20221114,8B Cahill Street,AITKENVALE,QLD,4814,-19.2954941,146.774826,4,2,2,House,House,False,429,m2,False
2018159229,listing,/41-dalpura-avenue-cranbrook-qld-4814-2018159229,380000,is-sold,Sold by private treaty 09 Nov 2022,20221109,41 Dalpura Avenue,CRANBROOK,QLD,4814,-19.3019543,146.749741,3,2,2,House,House,False,599,m2,False
2018171603,listing,/22-lord-howe-promenade-douglas-qld-4814-2018171603,560000,is-sold,Sold by private treaty 15 Nov 2022,20221115,22 Lord Howe Promenade,DOUGLAS,QLD,4814,-19.3213367,146.734909,4,2,2,House,House,False,514,m2,False
2018173356,listing,/51-lancaster-street-garbutt-qld-4814-2018173356,295000,is-sold,Sold by private treaty 08 Nov 2022,20221108,51 Lancaster Street,GARBUTT,QLD,4814,-19.2586327,146.776733,2,1,1,House,House,False,396,m2,False
2018183390,listing,/13-arila-street-cranbrook-qld-4814-2018183390,260000,is-sold,Sold by private treaty 10 Nov 2022,20221110,13 Arila Street,CRANBROOK,QLD,4814,-19.2988186,146.750748,3,2,2,House,House,False,607,m2,False
2018191025,listing,/30-timbury-way-mount-louisa-qld-4814-2018191025,698000,is-sold,Sold by private treaty 11 Nov 2022,20221111,30 Timbury Way,MOUNT LOUISA,QLD,4814,-19.27475,146.7343,4,2,2,House,House,False,700,m2,False
2017880553,listing,/20-berrigan-avenue-annandale-qld-4814-2017880553,485000,is-sold,Sold by private treaty 07 Nov 2022,20221107,20 Berrigan Avenue,ANNANDALE,QLD,4814,-19.3146839,146.774719,4,2,3,House,House,False,669,m2,False
2017920560,listing,/19-puffer-court-mount-louisa-qld-4814-2017920560,450000,is-sold,Sold by private treaty 03 Nov 2022,20221103,19 Puffer Court,MOUNT LOUISA,QLD,4814,-19.2677021,146.724335,4,2,2,House,House,False,720,m2,False
2018012676,listing,/6-zoe-court-mount-louisa-qld-4814-2018012676,795000,is-sold,Sold by private treaty 03 Nov 2022,20221103,6 Zoe Court,MOUNT LOUISA,QLD,4814,-19.2839375,146.7309,5,3,2,House,House,False,836,m2,False
2018023133,listing,/5-kirrang-court-cranbrook-qld-4814-2018023133,380000,is-sold,Sold by private treaty 07 Nov 2022,20221107,5 Kirrang Court,CRANBROOK,QLD,4814,-19.3086128,146.756989,4,2,2,Duplex,Duplex,False,857,m2,False
2018068037,listing,/3-triller-place-douglas-qld-4814-2018068037,589000,is-sold,Sold by private treaty 02 Nov 2022,20221102,3 Triller Place,DOUGLAS,QLD,4814,-19.3265972,146.734238,4,2,2,House,House,False,704,m2,False
2018086831,listing,/1-adams-street-heatley-qld-4814-2018086831,300000,is-sold,Sold by private treaty 03 Nov 2022,20221103,1 Adams Street,HEATLEY,QLD,4814,-19.288681,146.7514,3,2,2,House,House,False,599,m2,False
2018107419,listing,/30-klewarra-boulevard-douglas-qld-4814-2018107419,405000,is-sold,Sold by private treaty 07 Nov 2022,20221107,30 Klewarra Boulevard,DOUGLAS,QLD,4814,-19.3223248,146.748291,3,2,2,House,House,False,653,m2,False
2018107725,listing,/1-brock-street-aitkenvale-qld-4814-2018107725,290000,is-sold,Sold by private treaty 02 Nov 2022,20221102,1 Brock Street,AITKENVALE,QLD,4814,-19.3015575,146.773926,3,1,2,House,House,False,598,m2,False
2018111657,listing,/11-lupin-court-annandale-qld-4814-2018111657,610500,is-sold,Sold by private treaty 07 Nov 2022,20221107,11 Lupin Court,ANNANDALE,QLD,4814,-19.3123913,146.77507,5,2,2,House,House,False,977,m2,False
2018112280,listing,/15-peel-street-garbutt-qld-4814-2018112280,375000,is-sold,Sold by private treaty 04 Nov 2022,20221104,15 Peel Street,GARBUTT,QLD,4814,-19.26387,146.777115,3,2,2,House,House,False,423,m2,False
2018115542,listing,/4-burnside-court-annandale-qld-4814-2018115542,589000,is-sold,Sold by private treaty 02 Nov 2022,20221102,4 Burnside Court,ANNANDALE,QLD,4814,-19.3083363,146.786346,4,2,2,House,House,False,1108,m2,False
2018148063,listing,/19-lansing-street-mount-louisa-qld-4814-2018148063,445000,is-sold,Sold by private treaty 04 Nov 2022,20221104,19 Lansing Street,MOUNT LOUISA,QLD,4814,-19.28629,146.721176,4,2,2,House,House,False,660,m2,False
2018150688,listing,/7-13-albert-street-cranbrook-qld-4814-2018150688,159000,is-sold,Sold by private treaty 03 Nov 2022,20221103,7/13 Albert Street,CRANBROOK,QLD,4814,-19.2998581,146.760513,1,1,1,ApartmentUnitFlat,Apartment / Unit / Flat,False,0,m2,False
2018156617,listing,/2-montilla-street-heatley-qld-4814-2018156617,345000,is-sold,Sold by private treaty 07 Nov 2022,20221107,2 Montilla Street,HEATLEY,QLD,4814,-19.2996426,146.746414,3,1,1,House,House,False,615,m2,False
2018160000,listing,/14-sinclair-street-annandale-qld-4814-2018160000,465000,is-sold,Sold by private treaty 07 Nov 2022,20221107,14 Sinclair Street,ANNANDALE,QLD,4814,-19.3166447,146.76796,4,2,2,House,House,False,640,m2,False
2018160875,listing,/25-jenkinson-drive-annandale-qld-4814-2018160875,500000,is-sold,Sold by private treaty 03 Nov 2022,20221103,25 Jenkinson Drive,ANNANDALE,QLD,4814,-19.3124866,146.7925,4,2,2,House,House,False,824,m2,False
2018163567,listing,/12-waratah-street-aitkenvale-qld-4814-2018163567,355000,is-sold,Sold by private treaty 05 Nov 2022,20221105,12 Waratah Street,AITKENVALE,QLD,4814,-19.3049145,146.771988,3,1,3,House,House,False,622,m2,False
2018176787,listing,/143-charles-street-heatley-qld-4814-2018176787,230000,is-sold,Sold by private treaty 07 Nov 2022,20221107,143 Charles Street,HEATLEY,QLD,4814,-19.29293,146.759445,3,1,,House,House,False,625,m2,False
2018184255,listing,/14-hayman-avenue-cranbrook-qld-4814-2018184255,235000,is-sold,Sold by private treaty 02 Nov 2022,20221102,14 Hayman Avenue,CRANBROOK,QLD,4814,-19.29686,146.754532,3,1,1,House,House,False,861,m2,False
2018213184,listing,/16-melaleuca-street-annandale-qld-4814-2018213184,393559,is-sold,Sold by private treaty 07 Nov 2022,20221107,16 Melaleuca Street,ANNANDALE,QLD,4814,-19.315237,146.774231,4,2,,House,House,False,662,m2,False
2017946256,listing,/164-yolanda-drive-annandale-qld-4814-2017946256,458000,is-sold,Sold by private treaty 26 Oct 2022,20221026,164 Yolanda Drive,ANNANDALE,QLD,4814,-19.3128166,146.781738,3,2,2,House,House,False,722,m2,False
2017964722,listing,/81-lancaster-street-garbutt-qld-4814-2017964722,280000,is-sold,Sold by private treaty 01 Nov 2022,20221101,81 Lancaster Street,GARBUTT,QLD,4814,-19.25834,146.773621,2,1,1,House,House,False,810,m2,False
2017986004,listing,/37-roosevelt-loop-mount-louisa-qld-4814-2017986004,390000,is-sold,Sold by private treaty 02 Nov 2022,20221102,37 Roosevelt Loop,MOUNT LOUISA,QLD,4814,-19.2902145,146.721054,4,2,2,House,House,False,449,m2,False
2017986482,listing,/1-puffer-place-mount-louisa-qld-4814-2017986482,405000,is-sold,Sold by private treaty 01 Nov 2022,20221101,1 Puffer Place,MOUNT LOUISA,QLD,4814,-19.267149,146.724823,3,2,2,House,House,False,598,m2,False
2017992577,listing,/12-fuller-street-heatley-qld-4814-2017992577,290000,is-sold,Sold by private treaty 02 Nov 2022,20221102,12 Fuller Street,HEATLEY,QLD,4814,-19.2920437,146.7547,3,1,1,House,House,False,647,m2,False
2018006678,listing,/1-61-anne-street-aitkenvale-qld-4814-2018006678,,is-sold,Sold by private treaty 30 Oct 2022,20221030,1/61 Anne Street,AITKENVALE,QLD,4814,-19.2986832,146.768127,2,1,1,ApartmentUnitFlat,Apartment / Unit / Flat,False,0,m2,False
2018011894,listing,/2-amarina-court-annandale-qld-4814-2018011894,1100000,is-sold,Sold by private treaty 25 Oct 2022,20221025,2 Amarina Court,ANNANDALE,QLD,4814,-19.30339,146.790588,5,3,3,House,House,False,858,m2,False
2018034898,listing,/117-mill-drive-heatley-qld-4814-2018034898,292000,is-sold,Sold by private treaty 02 Nov 2022,20221102,117 Mill Drive,HEATLEY,QLD,4814,-19.2929516,146.747375,4,2,1,House,House,False,597,m2,False
2018053964,listing,/80-charlotte-street-aitkenvale-qld-4814-2018053964,390000,is-sold,Sold by private treaty 25 Oct 2022,20221025,80 Charlotte Street,AITKENVALE,QLD,4814,-19.3043785,146.77037,4,2,2,House,House,False,809,m2,False
2018065584,listing,/17-sunderland-street-garbutt-qld-4814-2018065584,342000,is-sold,Sold by private treaty 31 Oct 2022,20221031,17 Sunderland Street,GARBUTT,QLD,4814,-19.25627,146.775,3,1,1,House,House,False,432,m2,False
2018066026,listing,/32-cockatoo-circuit-douglas-qld-4814-2018066026,,is-sold,Sold by private treaty 29 Oct 2022,20221029,32 Cockatoo Circuit,DOUGLAS,QLD,4814,-19.323103,146.737366,3,2,1,House,House,False,352,m2,False
2018076556,listing,/16-fuji-ct-mount-louisa-qld-4814-2018076556,640000,is-sold,Sold by private treaty 01 Nov 2022,20221101,16 Fuji Ct,MOUNT LOUISA,QLD,4814,-19.2741146,146.729492,4,2,3,House,House,False,1088,m2,False
2018112177,listing,/16-woodrow-circuit-mount-louisa-qld-4814-2018112177,380000,is-sold,Sold by private treaty 28 Oct 2022,20221028,16 Woodrow Circuit,MOUNT LOUISA,QLD,4814,-19.2830524,146.7207,3,2,2,House,House,False,495,m2,False
2018122519,listing,/23-clements-crescent-vincent-qld-4814-2018122519,311000,is-sold,Sold by private treaty 01 Nov 2022,20221101,23 Clements Crescent,VINCENT,QLD,4814,-19.28046,146.763046,3,1,1,House,House,False,607,m2,False
2018128238,listing,/22-crocker-street-heatley-qld-4814-2018128238,396000,is-sold,Sold by private treaty 28 Oct 2022,20221028,22 Crocker Street,HEATLEY,QLD,4814,-19.2971859,146.746765,3,2,1,House,House,False,607,m2,False
2018130245,listing,/30-leopold-street-aitkenvale-qld-4814-2018130245,301300,is-sold,Sold by private treaty 01 Nov 2022,20221101,30 Leopold Street,AITKENVALE,QLD,4814,-19.30497,146.764481,3,1,2,House,House,False,599,m2,False
2018138710,listing,/7-tahlia-circuit-mount-louisa-qld-4814-2018138710,425000,is-sold,Sold by private treaty 02 Nov 2022,20221102,7 Tahlia Circuit,MOUNT LOUISA,QLD,4814,-19.2700424,146.741745,4,2,2,House,House,False,450,m2,False
2018158861,listing,/32-riverbend-drive-douglas-qld-4814-2018158861,352500,is-sold,Sold by private treaty 01 Nov 2022,20221101,32 Riverbend Drive,DOUGLAS,QLD,4814,-19.3200626,146.74382,3,1,1,House,House,False,377,m2,False
2018159005,listing,/16-elbridge-bend-mount-louisa-qld-4814-2018159005,446000,is-sold,Sold by private treaty 01 Nov 2022,20221101,16 Elbridge Bend,MOUNT LOUISA,QLD,4814,-19.2889919,146.718857,3,2,2,House,House,False,612,m2,False
2018160816,listing,/76-freshwater-drive-riverside-gardens-douglas-qld-4814-2018160816,445000,is-sold,Sold by private treaty 01 Nov 2022,20221101,76 Freshwater Drive (Riverside Gardens),DOUGLAS,QLD,4814,-19.3247528,146.73407,4,2,2,House,House,False,480,m2,False
2017946429,listing,/153-charles-street-heatley-qld-4814-2017946429,237500,is-sold,Sold by private treaty 15 Oct 2022,20221015,153 Charles Street,HEATLEY,QLD,4814,-19.29312,146.75856,3,1,1,House,House,False,625,m2,False
2017989823,listing,/14-woodhouse-court-annandale-qld-4814-2017989823,585000,is-sold,Sold by private treaty 18 Oct 2022,20221018,14 Woodhouse Court,ANNANDALE,QLD,4814,-19.3153229,146.7875,4,2,2,House,House,False,731,m2,False
2017997951,listing,/9-waratah-street-aitkenvale-qld-4814-2017997951,332833,is-sold,Sold by private treaty 15 Oct 2022,20221015,9 Waratah Street,AITKENVALE,QLD,4814,-19.30516,146.77121,3,1,3,House,House,False,739,m2,False
2018009065,listing,/10-lillipilli-st-vincent-qld-4814-2018009065,349000,is-sold,Sold by private treaty 19 Oct 2022,20221019,10 Lillipilli St,VINCENT,QLD,4814,-19.27674,146.76857,4,2,1,House,House,False,607,m2,False
2018026281,listing,/15-knox-court-mount-louisa-qld-4814-2018026281,750000,is-sold,Sold by private treaty 19 Oct 2022,20221019,15 Knox Court,MOUNT LOUISA,QLD,4814,-19.2855015,146.7257,4,2,2,House,House,False,802,m2,False
2018037187,listing,/15-blackbean-court-mount-louisa-qld-4814-2018037187,799000,is-sold,Sold by private treaty 21 Oct 2022,20221021,15 Blackbean Court,MOUNT LOUISA,QLD,4814,-19.2866879,146.7272,4,2,3,House,House,False,1091,m2,False
2018061965,listing,/17-bauhinia-street-cranbrook-qld-4814-2018061965,310000,is-sold,Sold by private treaty 25 Oct 2022,20221025,17 Bauhinia Street,CRANBROOK,QLD,4814,-19.2950058,146.757019,3,1,2,House,House,False,607,m2,False
2018066686,listing,/61-regatta-crescent-douglas-qld-4814-2018066686,432000,is-sold,Sold by private treaty 19 Oct 2022,20221019,61 Regatta Crescent,DOUGLAS,QLD,4814,-19.31646,146.75769,3,2,2,House,House,False,797,m2,False
2018068222,listing,/11-chloe-court-mount-louisa-qld-4814-2018068222,410000,is-sold,Sold by private treaty 16 Oct 2022,20221016,11 Chloe Court,MOUNT LOUISA,QLD,4814,-19.2707653,146.742218,4,2,2,House,House,False,533,m2,False
2018068637,listing,/19-killymoon-crescent-annandale-qld-4814-2018068637,520000,is-sold,Sold by private treaty 14 Oct 2022,20221014,19 Killymoon Crescent,ANNANDALE,QLD,4814,-19.3173962,146.797256,5,2,2,House,House,False,845,m2,False
2018079705,listing,/57-casuarina-drive-annandale-qld-4814-2018079705,414000,is-sold,Sold by private treaty 24 Oct 2022,20221024,57 Casuarina Drive,ANNANDALE,QLD,4814,-19.3166161,146.775589,3,2,2,House,House,False,654,m2,False
2018081260,listing,/29-malibu-parade-mount-louisa-qld-4814-2018081260,432400,is-sold,Sold by private treaty 18 Oct 2022,20221018,29 Malibu Parade,MOUNT LOUISA,QLD,4814,-19.26928,146.745224,3,2,2,House,House,False,480,m2,False
2018086937,listing,/30-mayneside-circuit-annandale-qld-4814-2018086937,470000,is-sold,Sold by private treaty 13 Oct 2022,20221013,30 Mayneside Circuit,ANNANDALE,QLD,4814,-19.3081589,146.797455,4,2,2,House,House,False,545,m2,False
2018090516,listing,/9-gadsden-loop-mount-louisa-qld-4814-2018090516,400000,is-sold,Sold by private treaty 16 Oct 2022,20221016,9 Gadsden Loop,MOUNT LOUISA,QLD,4814,-19.2907848,146.71846,4,2,2,House,House,False,462,m2,False
2018099377,listing,/39-serrano-crescent-cranbrook-qld-4814-2018099377,303700,is-sold,Sold by private treaty 15 Oct 2022,20221015,39 Serrano Crescent,CRANBROOK,QLD,4814,-19.3096733,146.746231,3,1,1,House,House,False,675,m2,False
2018130499,listing,/15-linaria-ct-annandale-qld-4814-2018130499,610000,is-sold,Sold by private treaty 19 Oct 2022,20221019,15 Linaria Ct,ANNANDALE,QLD,4814,-19.3123417,146.7825,5,2,2,House,House,False,734,m2,False
2018141167,listing,/22-browning-street-mount-louisa-qld-4814-2018141167,440000,is-sold,Sold by private treaty 25 Oct 2022,20221025,22 Browning Street,MOUNT LOUISA,QLD,4814,-19.26841,146.73259,3,2,2,House,House,False,600,m2,False
2018155263,listing,/36-klewarra-boulevard-douglas-qld-4814-2018155263,538750,is-sold,Sold by private treaty 24 Oct 2022,20221024,36 Klewarra Boulevard,DOUGLAS,QLD,4814,-19.32228,146.747681,4,2,2,House,House,False,618,m2,False
2018189048,listing,/59-21-23-albert-street-cranbrook-qld-4814-2018189048,170000,is-sold,Sold by private treaty 17 Oct 2022,20221017,59/21-23 Albert Street,CRANBROOK,QLD,4814,-19.3000679,146.75972,2,1,1,ApartmentUnitFlat,Apartment / Unit / Flat,False,0,m2,True
2018221856,listing,/40-wynberg-drive-annandale-qld-4814-2018221856,540000,is-sold,Sold by private treaty 19 Oct 2022,20221019,40 Wynberg Drive,ANNANDALE,QLD,4814,-19.31237,146.791916,4,2,2,House,House,False,867,m2,False
2017885778,listing,/173-nathan-street-cranbrook-qld-4814-2017885778,635000,is-sold,Sold by private treaty 11 Oct 2022,20221011,173 Nathan Street,CRANBROOK,QLD,4814,-19.30339,146.760651,5,5,4,BlockOfUnits,Block of Units,False,698,m2,False
2017887760,listing,/5-damson-court-douglas-qld-4814-2017887760,325000,is-sold,Sold by private treaty 10 Oct 2022,20221010,5 Damson Court,DOUGLAS,QLD,4814,-19.3202934,146.74614,3,1,2,House,House,False,400,m2,False
2017927545,listing,/12-chandler-street-garbutt-qld-4814-2017927545,348000,is-sold,Sold by private treaty 10 Oct 2022,20221010,12 Chandler Street,GARBUTT,QLD,4814,-19.2627487,146.782928,3,1,1,House,House,False,1214,m2,False
2017983204,listing,/6-gruner-court-mount-louisa-qld-4814-2017983204,338000,is-sold,Sold by private treaty 08 Oct 2022,20221008,6 Gruner Court,MOUNT LOUISA,QLD,4814,-19.2757683,146.748245,5,2,1,House,House,False,901,m2,False
2018028095,listing,/6-armit-street-aitkenvale-qld-4814-2018028095,185000,is-sold,Sold by private treaty 12 Oct 2022,20221012,6 Armit Street,AITKENVALE,QLD,4814,-19.2916317,146.777466,3,1,2,House,House,False,607,m2,False
2018045254,listing,/25-adams-street-heatley-qld-4814-2018045254,312000,is-sold,Sold by private treaty 11 Oct 2022,20221011,25 Adams Street,HEATLEY,QLD,4814,-19.2911835,146.752289,3,1,1,House,House,False,0,m2,False
2018055154,listing,/21-fuller-street-heatley-qld-4814-2018055154,363000,is-sold,Sold by private treaty 10 Oct 2022,20221010,21 Fuller Street,HEATLEY,QLD,4814,-19.2927074,146.753952,3,2,2,House,House,False,658,m2,False
2018063017,listing,/9-kearney-court-annandale-qld-4814-2018063017,376000,is-sold,Sold by private treaty 07 Oct 2022,20221007,9 Kearney Court,ANNANDALE,QLD,4814,-19.314106,146.783447,3,1,2,House,House,False,785,m2,False
2018068254,listing,/11-cilento-crescent-douglas-qld-4814-2018068254,335000,is-sold,Sold by private treaty 07 Oct 2022,20221007,11 Cilento Crescent,DOUGLAS,QLD,4814,-19.3146324,146.761108,3,1,2,House,House,False,600,m2,False
2018070058,listing,/6-sabadine-street-aitkenvale-qld-4814-2018070058,630000,is-sold,Sold by private treaty 10 Oct 2022,20221010,6 Sabadine Street,AITKENVALE,QLD,4814,-19.29377,146.7769,5,3,4,House,House,False,2024,m2,False
2018071061,listing,/19-camira-avenue-cranbrook-qld-4814-2018071061,345000,is-sold,Sold by private treaty 12 Oct 2022,20221012,19 Camira Avenue,CRANBROOK,QLD,4814,-19.3036289,146.755142,4,1,2,House,House,False,655,m2,False
2018083323,listing,/28-lockheed-street-garbutt-qld-4814-2018083323,460000,is-sold,Sold by private treaty 07 Oct 2022,20221007,28 Lockheed Street,GARBUTT,QLD,4814,-19.2567329,146.7762,3,1,3,House,House,False,911,m2,False
2018084184,listing,/31-lockyer-place-mount-louisa-qld-4814-2018084184,520000,is-sold,Sold by private treaty 10 Oct 2022,20221010,31 Lockyer Place,MOUNT LOUISA,QLD,4814,-19.2707214,146.726746,4,2,2,House,House,False,714,m2,False
2018094125,listing,/aitkenvale-qld-4814-2018094125,340000,is-sold,Sold 07 Oct 2022,20221007,,AITKENVALE,QLD,4814,-19.2954445,146.770035,3,1,3,House,House,False,0,m2,False
2018098495,listing,/40-hatchett-street-cranbrook-qld-4814-2018098495,235000,is-sold,Sold by private treaty 10 Oct 2022,20221010,40 Hatchett Street,CRANBROOK,QLD,4814,-19.30433,146.757767,3,1,2,House,House,False,607,m2,False
2018098873,listing,/14-browning-street-mount-louisa-qld-4814-2018098873,525000,is-sold,Sold by private treaty 12 Oct 2022,20221012,14 Browning Street,MOUNT LOUISA,QLD,4814,-19.2684765,146.7335,4,2,2,House,House,False,601,m2,False
2018099199,listing,/10-kato-place-mount-louisa-qld-4814-2018099199,547500,is-sold,Sold by private treaty 10 Oct 2022,20221010,10 Kato Place,MOUNT LOUISA,QLD,4814,-19.2738934,146.7308,4,2,2,House,House,False,736,m2,False
2018120273,listing,/29-klewarra-boulevard-douglas-qld-4814-2018120273,599000,is-sold,Sold by private treaty 07 Oct 2022,20221007,29 Klewarra Boulevard,DOUGLAS,QLD,4814,-19.3228722,146.748779,5,2,2,House,House,False,634,m2,False
2018132237,listing,/4-goshawk-street-douglas-qld-4814-2018132237,390000,is-sold,Sold by private treaty 10 Oct 2022,20221010,4 GOSHAWK STREET,DOUGLAS,QLD,4814,-19.3249836,146.7342,3,2,1,House,House,False,352,m2,False
2018174120,listing,/81-estuary-pde-douglas-qld-4814-2018174120,482500,is-sold,Sold by private treaty 12 Oct 2022,20221012,81 Estuary Pde,DOUGLAS,QLD,4814,-19.3240013,146.736969,4,2,2,House,House,False,525,m2,False
2017668443,listing,/5-etheridge-street-mount-louisa-qld-4814-2017668443,375000,is-sold,Sold by private treaty 29 Sep 2022,20220929,5 Etheridge Street,MOUNT LOUISA,QLD,4814,-19.2785988,146.750137,4,2,4,House,House,False,642,m2,False
2017807121,listing,/8-lupin-court-annandale-qld-4814-2017807121,440000,is-sold,Sold by private treaty 04 Oct 2022,20221004,8 Lupin Court,ANNANDALE,QLD,4814,-19.3128319,146.774628,4,2,2,House,House,False,961,m2,False
2017898302,listing,/89-annandale-drive-annandale-qld-4814-2017898302,375000,is-sold,Sold by private treaty 28 Sep 2022,20220928,89 Annandale Drive,ANNANDALE,QLD,4814,-19.3093681,146.7839,3,1,2,House,House,False,817,m2,False
2017920434,listing,/16-mays-court-aitkenvale-qld-4814-2017920434,417000,is-sold,Sold by private treaty 03 Oct 2022,20221003,16 Mays Court,AITKENVALE,QLD,4814,-19.3032246,146.775391,4,3,3,House,House,False,637,m2,False
2017978914,listing,/9-southern-cross-circuit-douglas-qld-4814-2017978914,485000,is-sold,Sold by private treaty 04 Oct 2022,20221004,9 Southern Cross Circuit,DOUGLAS,QLD,4814,-19.31922,146.752243,4,2,2,House,House,False,630,m2,False
2017992932,listing,/96a-anne-street-aitkenvale-qld-4814-2017992932,340000,is-sold,Sold by private treaty 04 Oct 2022,20221004,96a Anne Street,AITKENVALE,QLD,4814,-19.302063,146.768356,3,2,2,House,House,False,450,m2,False
2017994201,listing,/78-anne-street-aitkenvale-qld-4814-2017994201,274000,is-sold,Sold by private treaty 02 Oct 2022,20221002,78 Anne Street,AITKENVALE,QLD,4814,-19.3004379,146.768555,3,2,2,House,House,False,1012,m2,False
2018001251,listing,/24-kosciusko-way-mount-louisa-qld-4814-2018001251,475000,is-sold,Sold by private treaty 03 Oct 2022,20221003,24 Kosciusko Way,MOUNT LOUISA,QLD,4814,-19.2761021,146.730743,4,2,2,House,House,False,646,m2,False
2018019334,listing,/6-wilkie-street-heatley-qld-4814-2018019334,279000,is-sold,Sold by private treaty 05 Oct 2022,20221005,6 Wilkie Street,HEATLEY,QLD,4814,-19.2864075,146.755844,3,1,2,House,House,False,607,m2,False
2018036300,listing,/52-lockheed-street-garbutt-qld-4814-2018036300,320000,is-sold,Sold by private treaty 30 Sep 2022,20220930,52 Lockheed Street,GARBUTT,QLD,4814,-19.2570343,146.778885,3,1,2,House,House,False,555,m2,False
2018040052,listing,/11-coates-street-mount-louisa-qld-4814-2018040052,330000,is-sold,Sold by private treaty 29 Sep 2022,20220929,11 Coates Street,MOUNT LOUISA,QLD,4814,-19.2788162,146.7518,3,1,2,House,House,False,607,m2,False
2018040862,listing,/5-paddington-terrace-douglas-qld-4814-2018040862,417000,is-sold,Sold by private treaty 03 Oct 2022,20221003,5 Paddington Terrace,DOUGLAS,QLD,4814,-19.3206139,146.738541,3,2,2,House,House,False,186,m2,False
2018041932,listing,/5-46-patrick-street-aitkenvale-qld-4814-2018041932,222500,is-sold,Sold by private treaty 01 Oct 2022,20221001,5/46 Patrick Street,AITKENVALE,QLD,4814,-19.29889,146.766632,2,1,1,ApartmentUnitFlat,Apartment / Unit / Flat,False,0,m2,False
2018045566,listing,/58-clarke-street-garbutt-qld-4814-2018045566,325000,is-sold,Sold by private treaty 30 Sep 2022,20220930,58 Clarke Street,GARBUTT,QLD,4814,-19.2611923,146.778488,3,1,4,House,House,False,911,m2,False
2018054168,listing,/34-barnard-street-aitkenvale-qld-4814-2018054168,285000,is-sold,Sold by private treaty 29 Sep 2022,20220929,34 Barnard Street,AITKENVALE,QLD,4814,-19.2956619,146.764221,3,1,2,House,House,False,1012,m2,False
2018071024,listing,/13-tableland-terrace-mount-louisa-qld-4814-2018071024,900000,is-sold,Sold by private treaty 30 Sep 2022,20220930,13 Tableland Terrace,MOUNT LOUISA,QLD,4814,-19.2762051,146.744614,4,2,2,House,House,False,1354,m2,False
2018085817,listing,/3-dalkeith-crescent-mount-louisa-qld-4814-2018085817,320000,is-sold,Sold by private treaty 04 Oct 2022,20221004,3 Dalkeith Crescent,MOUNT LOUISA,QLD,4814,-19.2678719,146.742722,3,2,1,House,House,False,0,m2,False
2018093708,listing,/7-yumba-circuit-mount-louisa-qld-4814-2018093708,471500,is-sold,Sold by private treaty 04 Oct 2022,20221004,7 Yumba Circuit,MOUNT LOUISA,QLD,4814,-19.2844257,146.732269,3,2,2,House,House,False,532,m2,False
2018107236,listing,/9-bursaria-court-douglas-qld-4814-2018107236,427000,is-sold,Sold by private treaty 29 Sep 2022,20220929,9 Bursaria Court,DOUGLAS,QLD,4814,-19.3173676,146.738815,3,2,2,House,House,False,0,m2,False
2018241378,listing,/2-tregaskis-street-vincent-qld-4814-2018241378,360000,is-sold,Sold by private treaty 07 Oct 2022,20221007,2 Tregaskis Street,VINCENT,QLD,4814,-19.2823372,146.764053,3,2,2,House,House,False,665,m2,False
2016232490,listing,/30-windarra-avenue-riverside-ridge-douglas-qld-4814-2016232490,760000,is-sold,Sold by private treaty 27 Sep 2022,20220927,30 Windarra Avenue (Riverside Ridge),DOUGLAS,QLD,4814,-19.3212242,146.7582,4,2,2,House,House,False,941,m2,False
2017907931,listing,/414-ross-river-road-cranbrook-qld-4814-2017907931,270000,is-sold,Sold by private treaty 24 Sep 2022,20220924,414 Ross River Road,CRANBROOK,QLD,4814,-19.302351,146.75412,3,1,1,House,House,False,607,m2,False
2017915039,listing,/6-symons-street-vincent-qld-4814-2017915039,330000,is-sold,Sold by private treaty 27 Sep 2022,20220927,6 Symons Street,VINCENT,QLD,4814,-19.28027,146.764709,3,1,1,House,House,False,613,m2,False
2017925314,listing,/57-charlotte-street-aitkenvale-qld-4814-2017925314,450000,is-sold,Sold by private treaty 21 Sep 2022,20220921,57 Charlotte Street,AITKENVALE,QLD,4814,-19.3013744,146.770233,5,2,2,House,House,False,1012,m2,False
2017928463,listing,/9-mona-vale-place-annandale-qld-4814-2017928463,425000,is-sold,Sold by private treaty 27 Sep 2022,20220927,9 Mona Vale Place,ANNANDALE,QLD,4814,-19.3143749,146.794952,4,2,1,House,House,False,605,m2,False
2017960840,listing,/18-canara-street-cranbrook-qld-4814-2017960840,270000,is-sold,Sold by private treaty 28 Sep 2022,20220928,18 Canara Street,CRANBROOK,QLD,4814,-19.3012352,146.7518,3,1,1,House,House,False,599,m2,False
2017963730,listing,/27-brock-street-aitkenvale-qld-4814-2017963730,340000,is-sold,Sold by private treaty 27 Sep 2022,20220927,27 Brock Street,AITKENVALE,QLD,4814,-19.3018646,146.776428,3,2,1,House,House,False,604,m2,False
2017991144,listing,/5-62-alfred-street-aitkenvale-qld-4814-2017991144,190000,is-sold,Sold by private treaty 27 Sep 2022,20220927,5/62 Alfred Street,AITKENVALE,QLD,4814,-19.30061,146.762741,2,1,1,Townhouse,Townhouse,False,0,m2,False
2017991450,listing,/12-timbury-way-mount-louisa-qld-4814-2017991450,575000,is-sold,Sold by private treaty 21 Sep 2022,20220921,12 Timbury Way,MOUNT LOUISA,QLD,4814,-19.2741261,146.732742,4,2,2,House,House,False,919,m2,False
2017996203,listing,/39-clements-crescent-vincent-qld-4814-2017996203,329000,is-sold,Sold by private treaty 23 Sep 2022,20220923,39 Clements Crescent,VINCENT,QLD,4814,-19.28156,146.763046,3,1,3,House,House,False,655,m2,False
2018012430,listing,/6-birdwing-court-douglas-qld-4814-2018012430,340000,is-sold,Sold by private treaty 23 Sep 2022,20220923,6 Birdwing Court,DOUGLAS,QLD,4814,-19.325264,146.736572,3,1,1,House,House,False,305,m2,False
2018034614,listing,/26-cypress-drive-annandale-qld-4814-2018034614,361700,is-sold,Sold by private treaty 27 Sep 2022,20220927,26 Cypress Drive,ANNANDALE,QLD,4814,-19.3125725,146.777344,4,1,4,House,House,False,625,m2,False
2018040761,listing,/9-jenkinson-drive-annandale-qld-4814-2018040761,505250,is-sold,Sold by private treaty 22 Sep 2022,20220922,9 Jenkinson Drive,ANNANDALE,QLD,4814,-19.3137951,146.7935,4,2,2,House,House,False,725,m2,False
2018053552,listing,/16-caroline-street-aitkenvale-qld-4814-2018053552,399000,is-sold,Sold by private treaty 20 Sep 2022,20220920,16 Caroline Street,AITKENVALE,QLD,4814,-19.3036823,146.765366,3,1,2,House,House,False,1012,m2,False
2018053906,listing,/135-freshwater-drive-douglas-qld-4814-2018053906,,is-sold,Sold by private treaty 26 Sep 2022,20220926,135 Freshwater Drive,DOUGLAS,QLD,4814,-19.3270645,146.73175,3,1,1,House,House,False,305,m2,False
2018056148,listing,/21-arana-close-douglas-qld-4814-2018056148,810000,is-sold,Sold by private treaty 27 Sep 2022,20220927,21 Arana Close,DOUGLAS,QLD,4814,-19.32809,146.74202,4,2,2,House,House,False,724,m2,False
2018058049,listing,/2-ella-court-mount-louisa-qld-4814-2018058049,440000,is-sold,Sold by private treaty 27 Sep 2022,20220927,2 Ella Court,MOUNT LOUISA,QLD,4814,-19.2719517,146.731583,4,2,2,House,House,False,560,m2,False
2018065602,listing,/91-clarke-street-garbutt-qld-4814-2018065602,180000,is-sold,Sold by private treaty 26 Sep 2022,20220926,91 Clarke Street,GARBUTT,QLD,4814,-19.2603378,146.77449,3,1,,House,House,False,911,m2,False
2018066763,listing,/34-paddington-terrace-douglas-qld-4814-2018066763,392500,is-sold,Sold by private treaty 28 Sep 2022,20220928,34 Paddington Terrace,DOUGLAS,QLD,4814,-19.31952,146.737976,3,2,1,House,House,False,308,m2,False
2018089671,listing,/13-warbler-crescent-douglas-qld-4814-2018089671,531000,is-sold,Sold by private treaty 23 Sep 2022,20220923,13 Warbler Crescent,DOUGLAS,QLD,4814,-19.325367,146.735474,4,2,2,House,House,False,717,m2,False
2017854895,listing,/22-lonerganne-street-garbutt-qld-4814-2017854895,250000,is-sold,Sold by private treaty 15 Sep 2022,20220915,22 Lonerganne Street,GARBUTT,QLD,4814,-19.2639179,146.780853,3,2,2,House,House,False,1012,m2,False
2017870811,listing,/8-alleena-street-cranbrook-qld-4814-2017870811,320000,is-sold,Sold by private treaty 12 Sep 2022,20220912,8 Alleena Street,CRANBROOK,QLD,4814,-19.3092632,146.752991,5,2,1,House,House,False,607,m2,False
2017898463,listing,/4-dimmock-street-heatley-qld-4814-2017898463,270000,is-sold,Sold by private treaty 14 Sep 2022,20220914,4 Dimmock Street,HEATLEY,QLD,4814,-19.2875576,146.760269,3,1,,House,House,False,756,m2,False
2017905411,listing,/8-thorley-street-heatley-qld-4814-2017905411,415000,is-sold,Sold by private treaty 13 Sep 2022,20220913,8 Thorley Street,HEATLEY,QLD,4814,-19.2951736,146.752075,6,2,2,House,House,False,809,m2,False
2017960676,listing,/115-lillipilli-street-vincent-qld-4814-2017960676,300000,is-sold,Sold by private treaty 13 Sep 2022,20220913,115 Lillipilli Street,VINCENT,QLD,4814,-19.2821312,146.760452,4,1,1,House,House,False,607,m2,False
2017976931,listing,/28-badelona-street-cranbrook-qld-4814-2017976931,355000,is-sold,Sold by private treaty 12 Sep 2022,20220912,28 Badelona Street,CRANBROOK,QLD,4814,-19.308136,146.745483,4,2,2,House,House,False,600,m2,False
2017995391,listing,/23-goldsworthy-street-heatley-qld-4814-2017995391,293000,is-sold,Sold by private treaty 15 Sep 2022,20220915,23 Goldsworthy Street,HEATLEY,QLD,4814,-19.2851,146.759613,3,1,1,House,House,False,607,m2,False
2018011046,listing,/5-cambridge-street-vincent-qld-4814-2018011046,385000,is-sold,Sold by private treaty 15 Sep 2022,20220915,5 Cambridge Street,VINCENT,QLD,4814,-19.2762375,146.769318,4,1,4,House,House,False,617,m2,False
2018013387,listing,/8-13-15-beatrice-street-aitkenvale-qld-4814-2018013387,175000,is-sold,Sold by private treaty 12 Sep 2022,20220912,8/13-15 Beatrice Street,AITKENVALE,QLD,4814,-19.3017845,146.763153,2,1,1,ApartmentUnitFlat,Apartment / Unit / Flat,False,0,m2,False
2018014816,listing,/97-chandler-street-garbutt-qld-4814-2018014816,400000,is-sold,Sold by private treaty 20 Sep 2022,20220920,97 Chandler Street,GARBUTT,QLD,4814,-19.2612228,146.773438,4,2,2,House,House,False,511,m2,False
2018020696,listing,/14-lansing-street-mount-louisa-qld-4814-2018020696,385000,is-sold,Sold by private treaty 16 Sep 2022,20220916,14 Lansing Street,MOUNT LOUISA,QLD,4814,-19.2868137,146.721756,3,2,2,House,House,False,627,m2,False
2018039510,listing,/4-bounty-court-douglas-qld-4814-2018039510,710000,is-sold,Sold at auction 19 Sep 2022,20220919,4 Bounty Court,DOUGLAS,QLD,4814,-19.3206234,146.73381,3,2,2,House,House,False,560,m2,False
2018044418,listing,/44-pixley-crescent-heatley-qld-4814-2018044418,310000,is-sold,Sold by private treaty 16 Sep 2022,20220916,44 Pixley Crescent,HEATLEY,QLD,4814,-19.2843933,146.75795,3,1,3,House,House,False,607,m2,False
2018046555,listing,/4-clements-crescent-vincent-qld-4814-2018046555,257500,is-sold,Sold by private treaty 17 Sep 2022,20220917,4 Clements Crescent,VINCENT,QLD,4814,-19.2809868,146.764618,3,1,2,House,House,False,610,m2,False
2018050644,listing,/13-linaria-court-annandale-qld-4814-2018050644,566000,is-sold,Sold by private treaty 13 Sep 2022,20220913,13 Linaria Court,ANNANDALE,QLD,4814,-19.3119011,146.78244,4,2,2,House,House,False,806,m2,False
2018052406,listing,/55-burt-street-aitkenvale-qld-4814-2018052406,330000,is-sold,Sold by private treaty 20 Sep 2022,20220920,55 Burt Street,AITKENVALE,QLD,4814,-19.3021126,146.775238,3,1,1,House,House,False,615,m2,False
2018054030,listing,/9-chauncy-crescent-douglas-qld-4814-2018054030,421500,is-sold,Sold by private treaty 13 Sep 2022,20220913,9 Chauncy Crescent,DOUGLAS,QLD,4814,-19.3138046,146.758652,3,1,2,House,House,False,758,m2,False
2018054871,listing,/53-timbury-way-mount-louisa-qld-4814-2018054871,560000,is-sold,Sold by private treaty 16 Sep 2022,20220916,53 Timbury Way,MOUNT LOUISA,QLD,4814,-19.2757053,146.736176,4,2,2,House,House,False,700,m2,False
2018085252,listing,/3-columbia-way-douglas-qld-4814-2018085252,430000,is-sold,Sold by private treaty 12 Sep 2022,20220912,3 Columbia Way,DOUGLAS,QLD,4814,-19.3173428,146.754333,3,2,2,House,House,False,504,m2,False
2018153771,listing,/69-annandale-drive-annandale-qld-4814-2018153771,541000,is-sold,Sold by private treaty 19 Sep 2022,20220919,69 Annandale Drive,ANNANDALE,QLD,4814,-19.3113213,146.7842,4,2,2,House,House,False,707,m2,False
2017483302,listing,/8-eckhoff-street-heatley-qld-4814-2017483302,270000,is-sold,Sold by private treaty 07 Sep 2022,20220907,8 Eckhoff Street,HEATLEY,QLD,4814,-19.2899666,146.74733,3,1,2,House,House,False,668,m2,False
2017791534,listing,/5-arila-street-cranbrook-qld-4814-2017791534,255000,is-sold,Sold by private treaty 08 Sep 2022,20220908,5 Arila Street,CRANBROOK,QLD,4814,-19.2982063,146.751144,3,1,1,House,House,False,688,m2,False
2017827753,listing,/67-71-corbett-street-mount-louisa-qld-4814-2017827753,650000,is-sold,Sold by private treaty 12 Sep 2022,20220912,67-71 Corbett Street,MOUNT LOUISA,QLD,4814,-19.2682877,146.7317,3,2,4,House,House,False,2095,m2,False
2017909579,listing,/49-estuary-parade-douglas-qld-4814-2017909579,390000,is-sold,Sold by private treaty 07 Sep 2022,20220907,49 Estuary Parade,DOUGLAS,QLD,4814,-19.3227272,146.737717,3,2,2,House,House,False,432,m2,False
2017923648,listing,/18-tambo-court-mount-louisa-qld-4814-2017923648,515000,is-sold,Sold by private treaty 12 Sep 2022,20220912,18 Tambo Court,MOUNT LOUISA,QLD,4814,-19.27147,146.726624,4,2,2,House,House,False,741,m2,False
2017950334,listing,/10-aloomba-crescent-cranbrook-qld-4814-2017950334,330000,is-sold,Sold by private treaty 08 Sep 2022,20220908,10 Aloomba Crescent,CRANBROOK,QLD,4814,-19.3069344,146.753159,3,1,1,House,House,False,683,m2,False
2017975213,listing,/80-lillipilli-street-vincent-qld-4814-2017975213,388000,is-sold,Sold by private treaty 12 Sep 2022,20220912,80 Lillipilli Street,VINCENT,QLD,4814,-19.2807026,146.762024,3,2,2,House,House,False,607,m2,False
2017984059,listing,/59-roosevelt-loop-mount-louisa-qld-4814-2017984059,350000,is-sold,Sold by private treaty 12 Sep 2022,20220912,59 Roosevelt Loop,MOUNT LOUISA,QLD,4814,-19.2896385,146.722015,3,2,1,House,House,False,331,m2,False
2018004083,listing,/404-fulham-road-heatley-qld-4814-2018004083,253000,is-sold,Sold by private treaty 09 Sep 2022,20220909,404 Fulham Road,HEATLEY,QLD,4814,-19.2926674,146.748779,3,1,1,House,House,False,617,m2,False
2018013963,listing,/12-clements-crescent-vincent-qld-4814-2018013963,290000,is-sold,Sold by private treaty 12 Sep 2022,20220912,12 Clements Crescent,VINCENT,QLD,4814,-19.28072,146.763916,3,1,2,House,House,False,835,m2,False
2018022454,listing,/3-92-94-dearness-street-garbutt-qld-4814-2018022454,182500,is-sold,Sold by private treaty 09 Sep 2022,20220909,3/92-94 Dearness Street,GARBUTT,QLD,4814,-19.2601261,146.7764,2,1,1,ApartmentUnitFlat,Apartment / Unit / Flat,False,0,m2,False
2018026088,listing,/14-leopold-street-aitkenvale-qld-4814-2018026088,365000,is-sold,Sold by private treaty 10 Sep 2022,20220910,14 Leopold Street,AITKENVALE,QLD,4814,-19.3047371,146.762558,6,1,2,House,House,False,809,m2,False
2018028691,listing,/7-lancaster-street-garbutt-qld-4814-2018028691,381000,is-sold,Sold by private treaty 12 Sep 2022,20220912,7 Lancaster Street,GARBUTT,QLD,4814,-19.2591114,146.781479,3,1,2,House,House,False,850,m2,False
2018037144,listing,/13-sotelo-street-cranbrook-qld-4814-2018037144,273100,is-sold,Sold by private treaty 07 Sep 2022,20220907,13 Sotelo Street,CRANBROOK,QLD,4814,-19.3071918,146.745667,3,1,1,House,House,False,604,m2,False
2018040561,listing,/13-lansing-street-mount-louisa-qld-4814-2018040561,410000,is-sold,Sold by private treaty 10 Sep 2022,20220910,13 Lansing Street,MOUNT LOUISA,QLD,4814,-19.2863884,146.721664,4,2,2,House,House,False,660,m2,False
2018051115,listing,/14-nutwood-court-annandale-qld-4814-2018051115,470000,is-sold,Sold by private treaty 09 Sep 2022,20220909,14 Nutwood Court,ANNANDALE,QLD,4814,-19.3127136,146.7884,4,2,2,House,House,False,757,m2,False
2018054119,listing,/2-fuji-court-mount-louisa-qld-4814-2018054119,695000,is-sold,Sold by private treaty 11 Sep 2022,20220911,2 Fuji Court,MOUNT LOUISA,QLD,4814,-19.2742729,146.730957,4,2,2,House,House,False,749,m2,False
2018054518,listing,/23-casuarina-drive-annandale-qld-4814-2018054518,480000,is-sold,Sold by private treaty 09 Sep 2022,20220909,23 Casuarina Drive,ANNANDALE,QLD,4814,-19.3162651,146.772079,3,2,3,House,House,False,1015,m2,False
2018064840,listing,/67-riverbend-drive-douglas-qld-4814-2018064840,450000,is-sold,Sold by private treaty 09 Sep 2022,20220909,67 Riverbend Drive,DOUGLAS,QLD,4814,-19.3188248,146.74176,4,2,2,House,House,False,510,m2,False
2018183531,listing,/22-blaxland-crescent-vincent-qld-4814-2018183531,332500,is-sold,Sold by private treaty 12 Sep 2022,20220912,22 BLAXLAND CRESCENT,VINCENT,QLD,4814,-19.2837276,146.761673,3,1,,House,House,False,658,m2,False
2017730834,listing,/4-riechelmann-street-heatley-qld-4814-2017730834,290000,is-sold,Sold by private treaty 05 Sep 2022,20220905,4 Riechelmann Street,HEATLEY,QLD,4814,-19.2824745,146.75914,4,1,2,House,House,False,647,m2,False
2017792486,listing,/20-stockton-elbow-mount-louisa-qld-4814-2017792486,412000,is-sold,Sold by private treaty 07 Sep 2022,20220907,20 Stockton Elbow,MOUNT LOUISA,QLD,4814,-19.2892818,146.718674,4,2,2,House,House,False,680,m2,False
2017860215,listing,/7-tregaskis-street-vincent-qld-4814-2017860215,256000,is-sold,Sold by private treaty 04 Sep 2022,20220904,7 Tregaskis Street,VINCENT,QLD,4814,-19.2818851,146.763824,3,1,,House,House,False,647,m2,False
2017873029,listing,/9-eura-court-mount-louisa-qld-4814-2017873029,285000,is-sold,Sold by private treaty 07 Sep 2022,20220907,9 Eura Court,MOUNT LOUISA,QLD,4814,-19.27699,146.751846,3,1,4,House,House,False,597,m2,False
2017879429,listing,/28-glendale-drive-annandale-qld-4814-2017879429,475000,is-sold,Sold by private treaty 31 Aug 2022,20220831,28 Glendale Drive,ANNANDALE,QLD,4814,-19.3098068,146.793945,4,2,2,House,House,False,857,m2,False
2017893803,listing,/7-picton-court-cranbrook-qld-4814-2017893803,465000,is-sold,Sold by private treaty 04 Sep 2022,20220904,7 Picton Court,CRANBROOK,QLD,4814,-19.3147564,146.745972,4,2,2,House,House,False,787,m2,False
2017905495,listing,/3-siris-place-douglas-qld-4814-2017905495,382000,is-sold,Sold by private treaty 06 Sep 2022,20220906,3 Siris Place,DOUGLAS,QLD,4814,-19.31994,146.746414,4,1,1,House,House,False,432,m2,False
2017921381,listing,/91-river-park-dr-annandale-qld-4814-2017921381,498500,is-sold,Sold by private treaty 06 Sep 2022,20220906,91 River Park Dr,ANNANDALE,QLD,4814,-19.305891,146.783752,5,2,2,House,House,False,841,m2,False
2017922282,listing,/6-keeper-court-mount-louisa-qld-4814-2017922282,450000,is-sold,Sold by private treaty 31 Aug 2022,20220831,6 Keeper Court,MOUNT LOUISA,QLD,4814,-19.2852364,146.730179,3,2,2,House,House,False,517,m2,False
2017929406,listing,/1-lonerganne-street-garbutt-qld-4814-2017929406,260000,is-sold,Sold by private treaty 05 Sep 2022,20220905,1 Lonerganne Street,GARBUTT,QLD,4814,-19.2637081,146.78363,3,1,1,House,House,False,731,m2,False
2017961836,listing,/85-annandale-drive-annandale-qld-4814-2017961836,452000,is-sold,Sold by private treaty 31 Aug 2022,20220831,85 Annandale Drive,ANNANDALE,QLD,4814,-19.3097363,146.784027,4,2,2,House,House,False,884,m2,False
2017993750,listing,/14-monaro-circuit-mount-louisa-qld-4814-2017993750,519000,is-sold,Sold by private treaty 01 Sep 2022,20220901,14 Monaro Circuit,MOUNT LOUISA,QLD,4814,-19.2733936,146.735046,4,2,4,House,House,False,704,m2,False
2017994476,listing,/38-wandella-crescent-cranbrook-qld-4814-2017994476,310000,is-sold,Sold by private treaty 02 Sep 2022,20220902,38 Wandella Crescent,CRANBROOK,QLD,4814,-19.3016014,146.759171,3,1,1,House,House,False,597,m2,False
2018012149,listing,/28-bladensberg-crescent-annandale-qld-4814-2018012149,491000,is-sold,Sold by private treaty 02 Sep 2022,20220902,28 Bladensberg Crescent,ANNANDALE,QLD,4814,-19.3089314,146.796448,3,2,4,House,House,False,579,m2,False
2018025119,listing,/1-rivergreen-circuit-douglas-qld-4814-2018025119,830000,is-sold,Sold at auction 03 Sep 2022,20220903,1 Rivergreen Circuit,DOUGLAS,QLD,4814,-19.3161278,146.740524,5,3,4,House,House,False,760,m2,False
2018027197,listing,/13-elderslie-street-annandale-qld-4814-2018027197,575000,is-sold,Sold by private treaty 31 Aug 2022,20220831,13 Elderslie Street,ANNANDALE,QLD,4814,-19.30431,146.79039,4,2,2,House,House,False,759,m2,False
2018028637,listing,/10-dugong-crescent-mount-louisa-qld-4814-2018028637,500000,is-sold,Sold by private treaty 06 Sep 2022,20220906,10 Dugong Crescent,MOUNT LOUISA,QLD,4814,-19.2661629,146.726181,4,2,2,House,House,False,637,m2,False
2018028881,listing,/30-baralga-street-cranbrook-qld-4814-2018028881,329000,is-sold,Sold by private treaty 05 Sep 2022,20220905,30 Baralga Street,CRANBROOK,QLD,4814,-19.3029766,146.752548,3,1,2,House,House,False,673,m2,False
2018039384,listing,/1-trickey-avenue-cranbrook-qld-4814-2018039384,510000,is-sold,Sold by private treaty 06 Sep 2022,20220906,1 Trickey Avenue,CRANBROOK,QLD,4814,-19.3143768,146.744522,3,2,3,House,House,False,653,m2,False
2018063373,listing,/12-paperbark-place-mount-louisa-qld-4814-2018063373,400400,is-sold,Sold by private treaty 05 Sep 2022,20220905,12 Paperbark Place,MOUNT LOUISA,QLD,4814,-19.2881775,146.72583,4,2,2,House,House,False,700,m2,False
2017662247,listing,/48-yolanda-drive-annandale-qld-4814-2017662247,357000,is-sold,Sold by private treaty 29 Aug 2022,20220829,48 Yolanda Drive,ANNANDALE,QLD,4814,-19.3142319,146.770111,3,2,1,House,House,False,734,m2,False
2017839219,listing,/17-college-lane-douglas-qld-4814-2017839219,320000,is-sold,Sold by private treaty 29 Aug 2022,20220829,17 College Lane,DOUGLAS,QLD,4814,-19.3175011,146.7554,3,1,1,House,House,False,281,m2,False
2017874756,listing,/12-banfield-drive-mount-louisa-qld-4814-2017874756,255000,is-sold,Sold by private treaty 30 Aug 2022,20220830,12 Banfield Drive,MOUNT LOUISA,QLD,4814,-19.2732639,146.750351,3,1,2,House,House,False,0,m2,False
2017895311,listing,/16-armit-street-aitkenvale-qld-4814-2017895311,305000,is-sold,Sold by private treaty 30 Aug 2022,20220830,16 Armit Street,AITKENVALE,QLD,4814,-19.2906971,146.777435,3,1,1,House,House,False,896,m2,False
2017897871,listing,/59-estuary-parade-douglas-qld-4814-2017897871,433500,is-sold,Sold by private treaty 26 Aug 2022,20220826,59 Estuary Parade,DOUGLAS,QLD,4814,-19.3235531,146.737854,4,2,2,House,House,False,446,m2,False
2017936020,listing,/14-hibiscus-street-cranbrook-qld-4814-2017936020,220000,is-sold,Sold by private treaty 30 Aug 2022,20220830,14 Hibiscus Street,CRANBROOK,QLD,4814,-19.2971382,146.75679,3,1,1,House,House,False,926,m2,False
2017942232,listing,/34-cuthbert-crescent-vincent-qld-4814-2017942232,349000,is-sold,Sold by private treaty 31 Aug 2022,20220831,34 Cuthbert Crescent,VINCENT,QLD,4814,-19.2861862,146.762726,3,1,4,House,House,False,809,m2,False
2017951532,listing,/119-bergin-road-cranbrook-qld-4814-2017951532,375000,is-sold,Sold by private treaty 30 Aug 2022,20220830,119 Bergin Road,CRANBROOK,QLD,4814,-19.3121738,146.751678,4,2,2,House,House,False,658,m2,False
2017961706,listing,/13-banyan-ct-annandale-qld-4814-2017961706,380000,is-sold,Sold by private treaty 30 Aug 2022,20220830,13 BANYAN CT,ANNANDALE,QLD,4814,-19.3155441,146.77533,3,2,2,House,House,False,656,m2,False
2017962631,listing,/5-bathurst-way-mount-louisa-qld-4814-2017962631,492000,is-sold,Sold by private treaty 23 Aug 2022,20220823,5 Bathurst Way,MOUNT LOUISA,QLD,4814,-19.2718029,146.73494,4,2,2,House,House,False,753,m2,False
2017981406,listing,/39-estuary-parade-douglas-qld-4814-2017981406,386500,is-sold,Sold by private treaty 26 Aug 2022,20220826,39 Estuary Parade,DOUGLAS,QLD,4814,-19.3220749,146.737717,3,2,1,House,House,False,352,m2,False
2017982855,listing,/4-bancroft-street-mount-louisa-qld-4814-2017982855,295000,is-sold,Sold by private treaty 31 Aug 2022,20220831,4 Bancroft Street,MOUNT LOUISA,QLD,4814,-19.27581,146.749252,3,1,3,House,House,False,607,m2,False
2017982941,listing,/20-san-antonio-court-mount-louisa-qld-4814-2017982941,380000,is-sold,Sold by private treaty 29 Aug 2022,20220829,20 San Antonio Court,MOUNT LOUISA,QLD,4814,-19.2731438,146.737808,3,2,2,House,House,False,641,m2,False
2017996333,listing,/16-yale-close-douglas-qld-4814-2017996333,535000,is-sold,Sold by private treaty 26 Aug 2022,20220826,16 Yale Close,DOUGLAS,QLD,4814,-19.31612,146.754333,4,2,2,House,House,False,717,m2,False
2018010059,listing,/54-minaret-way-mount-louisa-qld-4814-2018010059,465000,is-sold,Sold by private treaty 25 Aug 2022,20220825,54 Minaret Way,MOUNT LOUISA,QLD,4814,-19.2739544,146.7288,4,2,2,House,House,False,591,m2,False
2018010136,listing,/2-canoona-ct-annandale-qld-4814-2018010136,454000,is-sold,Sold by private treaty 25 Aug 2022,20220825,2 Canoona Ct,ANNANDALE,QLD,4814,-19.3122482,146.789734,4,1,3,House,House,False,770,m2,False
2018010494,listing,/40-lillipilli-street-vincent-qld-4814-2018010494,245000,is-sold,Sold by private treaty 29 Aug 2022,20220829,40 Lillipilli Street,VINCENT,QLD,4814,-19.2784481,146.765762,3,1,1,House,House,False,788,m2,False
2018012657,listing,/5-zamia-court-annandale-qld-4814-2018012657,516000,is-sold,Sold by private treaty 29 Aug 2022,20220829,5 Zamia Court,ANNANDALE,QLD,4814,-19.3151951,146.788986,4,2,2,House,House,False,789,m2,False
2018030197,listing,/74-banfield-drive-mount-louisa-qld-4814-2018030197,376000,is-sold,Sold by private treaty 29 Aug 2022,20220829,74 Banfield Drive,MOUNT LOUISA,QLD,4814,-19.2792549,146.749954,3,1,2,House,House,False,608,m2,False
2018037990,listing,/6-windarra-avenue-douglas-qld-4814-2018037990,430000,is-sold,Sold by private treaty 25 Aug 2022,20220825,6 Windarra Avenue,DOUGLAS,QLD,4814,-19.3232746,146.743774,4,2,2,House,House,False,708,m2,False
2017533175,listing,/17-rowers-lane-douglas-qld-4814-2017533175,370000,is-sold,Sold by private treaty 17 Aug 2022,20220817,17 Rowers Lane,DOUGLAS,QLD,4814,-19.3159866,146.756714,,,,VacantLand,Vacant land,False,820,m2,False
2017651657,listing,/annandale-qld-4814-2017651657,525000,is-sold,Sold by private treaty 22 Aug 2022,20220822,,ANNANDALE,QLD,4814,-19.3127861,146.787491,4,2,2,House,House,False,787,m2,False
2017671628,listing,/18-berrigan-avenue-annandale-qld-4814-2017671628,450000,is-sold,Sold by private treaty 19 Aug 2022,20220819,18 Berrigan Avenue,ANNANDALE,QLD,4814,-19.3147049,146.774521,7,4,2,House,House,False,621,m2,False
2017784936,listing,/4-miranda-circle-annandale-qld-4814-2017784936,565000,is-sold,Sold by private treaty 18 Aug 2022,20220818,4 Miranda Circle,ANNANDALE,QLD,4814,-19.3130283,146.793945,5,2,4,House,House,False,860,m2,False
2017805653,listing,/342-fulham-rd-heatley-qld-4814-2017805653,,is-sold,Sold by private treaty 19 Aug 2022,20220819,342 Fulham Rd,HEATLEY,QLD,4814,-19.2884254,146.751862,8,4,4,BlockOfUnits,Block of Units,False,600,m2,False
