id,listingType,url,price,tagClassName,tagText,date,street,suburb,state,postcode,lat,lng,beds,baths,parking,propertyType,propertyTypeFormatted,isRural,landSize,landUnit,isRetirement
2018241486,listing,/690-bilwon-road-biboohra-qld-4880-2018241486,380000,is-sold,Sold by private treaty 28 Feb 2023,20230228,690 Bilwon Road,BIBOOHRA,QLD,4880,-16.86905,145.4207,,,,VacantLand,Vacant land,False,160900,m2,False
2018284939,listing,/76-strattmann-street-mareeba-qld-4880-2018284939,205000,is-sold,Sold by private treaty 01 Mar 2023,20230301,76 Strattmann Street,MAREEBA,QLD,4880,-16.9989414,145.420929,2,2,2,House,House,False,708,m2,False
2018233299,listing,/30-vaughan-street-mareeba-qld-4880-2018233299,370000,is-sold,Sold by private treaty 03 Mar 2023,20230303,30 Vaughan Street,MAREEBA,QLD,4880,-16.9909229,145.41098,4,4,4,BlockOfUnits,Block of Units,False,708,m2,False
2018077782,listing,/14-lawson-street-mareeba-qld-4880-2018077782,600000,is-sold,Sold by private treaty 06 Mar 2023,20230306,14 Lawson Street,MAREEBA,QLD,4880,-17.0023689,145.421112,6,3,3,BlockOfUnits,Block of Units,False,1012,m2,False
2017102354,listing,/200-country-road-mareeba-qld-4880-2017102354,800000,is-sold,Sold by private treaty 16 Feb 2023,20230216,200 Country Road,MAREEBA,QLD,4880,-16.9805164,145.447617,,,,VacantLand,Vacant land,False,0,m2,False
2017238261,listing,/21-vaughan-street-mareeba-qld-4880-2017238261,240000,is-sold,Sold by private treaty 30 Jan 2023,20230130,21 Vaughan Street,MAREEBA,QLD,4880,-16.9870434,145.4159,4,1,1,House,House,False,1037,m2,False
2017816353,listing,/26-royes-street-mareeba-qld-4880-2017816353,250000,is-sold,Sold by private treaty 27 Jan 2023,20230127,26 Royes Street,MAREEBA,QLD,4880,-16.9916382,145.411575,4,1,2,House,House,False,708,m2,False
2017898074,listing,/89-walsh-street-mareeba-qld-4880-2017898074,315000,is-sold,Sold by private treaty 15 Feb 2023,20230215,89 Walsh Street,MAREEBA,QLD,4880,-16.9872837,145.4223,3,1,1,House,House,False,759,m2,False
2017962547,listing,/8-andre-street-mareeba-qld-4880-2017962547,250000,is-sold,Sold by private treaty 15 Feb 2023,20230215,8 Andre Street,MAREEBA,QLD,4880,-17.0170212,145.431839,,,,VacantLand,Vacant land,False,4503,m2,False
2018045555,listing,/13-byrnes-street-mareeba-qld-4880-2018045555,120000,is-sold,Sold by private treaty 30 Jan 2023,20230130,13 Byrnes Street,MAREEBA,QLD,4880,-16.9858952,145.420273,4,1,2,House,House,False,1012,m2,False
2018117056,listing,/79-walsh-street-mareeba-qld-4880-2018117056,350000,is-sold,Sold by private treaty 03 Feb 2023,20230203,79 Walsh Street,MAREEBA,QLD,4880,-16.986393,145.421616,4,1,1,House,House,False,1135,m2,False
2018138363,listing,/42-jacana-close-mareeba-qld-4880-2018138363,,is-sold,Sold by private treaty 16 Feb 2023,20230216,42 Jacana Close,MAREEBA,QLD,4880,-16.9954052,145.434143,4,2,2,House,House,False,1051,m2,False
2018152532,listing,/1104-mareeba-dimbulah-highway-mareeba-qld-4880-2018152532,430000,is-sold,Sold by private treaty 20 Jan 2023,20230120,1104 Mareeba-Dimbulah Highway,MAREEBA,QLD,4880,-17.015337,145.359009,4,2,,House,House,False,5000,m2,False
2018167555,listing,/2-curlew-close-mareeba-qld-4880-2018167555,710000,is-sold,Sold by private treaty 20 Jan 2023,20230120,2 Curlew Close,MAREEBA,QLD,4880,-16.9977779,145.435,4,2,2,House,House,False,900,m2,False
2018188049,listing,/3a-rosario-close-mareeba-qld-4880-2018188049,535000,is-sold,Sold by private treaty 18 Jan 2023,20230118,3a Rosario Close,MAREEBA,QLD,4880,-17.02223,145.429184,4,2,3,House,House,False,2806,m2,False
2018194662,listing,/50-doyle-street-mareeba-qld-4880-2018194662,560000,is-sold,Sold by private treaty 30 Jan 2023,20230130,50 Doyle Street,MAREEBA,QLD,4880,-16.993639,145.41452,5,2,1,House,House,False,1704,m2,False
2018246133,listing,/5-mountain-view-close-mareeba-qld-4880-2018246133,425000,is-sold,Sold by private treaty 20 Feb 2023,20230220,5 Mountain View Close,MAREEBA,QLD,4880,-17.0201263,145.435028,3,1,1,House,House,False,800,m2,False
2018263148,listing,/99-constance-street-mareeba-qld-4880-2018263148,,is-sold,Sold by private treaty 17 Feb 2023,20230217,99 Constance Street,MAREEBA,QLD,4880,-16.9994068,145.426239,5,2,2,House,House,False,1012,m2,False
2018306215,listing,/14-macrae-street-mareeba-qld-4880-2018306215,325000,is-sold,Sold by private treaty 20 Jan 2023,20230120,14 Macrae Street,MAREEBA,QLD,4880,-16.9849415,145.422562,3,1,2,House,House,False,319,m2,False
2018306218,listing,/32-amaroo-drive-mareeba-qld-4880-2018306218,515000,is-sold,Sold by private treaty 20 Jan 2023,20230120,32 Amaroo Drive,MAREEBA,QLD,4880,-16.99111,145.436584,4,3,2,House,House,False,1011,m2,False
2017180870,listing,/mareeba-qld-4880-2017180870,230000,is-sold,Sold by private treaty 08 Dec 2022,20221208,,MAREEBA,QLD,4880,-16.9973583,145.423065,2,1,1,ApartmentUnitFlat,Apartment / Unit / Flat,False,101,m2,False
2017647498,listing,/20-marinelli-drive-mareeba-qld-4880-2017647498,530000,is-sold,Sold by private treaty 14 Dec 2022,20221214,20 Marinelli Drive,MAREEBA,QLD,4880,-17.0214863,145.4365,4,2,3,House,House,False,844,m2,False
2017819035,listing,/77-carman-road-mareeba-qld-4880-2017819035,810000,is-sold,Sold by private treaty 14 Dec 2022,20221214,77 Carman Road,MAREEBA,QLD,4880,-17.0047379,145.3655,7,2,4,House,House,False,19020,m2,False
2017948888,listing,/460-springs-road-paddys-green-qld-4880-2017948888,801000,is-sold,Sold by private treaty 15 Dec 2022,20221215,460 Springs Road,PADDYS GREEN,QLD,4880,-16.9914761,145.35144,3,2,1,House,House,False,44200,m2,False
2017965118,listing,/54-la-spina-road-mareeba-qld-4880-2017965118,685000,is-sold,Sold by private treaty 06 Dec 2022,20221206,54 La Spina Road,MAREEBA,QLD,4880,-17.0054073,145.402191,4,2,,Rural,Rural,True,2.17,ha,False
2018002521,listing,/lannoy-street-mareeba-qld-4880-2018002521,293000,is-sold,Sold by private treaty 02 Dec 2022,20221202,Lannoy Street,MAREEBA,QLD,4880,-17.0139179,145.430634,3,1,1,House,House,False,733,m2,False
2018008025,listing,/19-ceola-drive-mareeba-qld-4880-2018008025,540000,is-sold,Sold by private treaty 25 Nov 2022,20221125,19 Ceola Drive,MAREEBA,QLD,4880,-16.9997768,145.4382,4,2,2,House,House,False,874,m2,False
2018050217,listing,/129-coronet-drive-mareeba-qld-4880-2018050217,790000,is-sold,Sold by private treaty 05 Dec 2022,20221205,129 Coronet Drive,MAREEBA,QLD,4880,-17.01846,145.486649,5,2,3,AcreageSemiRural,Acreage / Semi-Rural,True,2.39,ha,False
2018125062,listing,/17-karobean-drive-mareeba-qld-4880-2018125062,560000,is-sold,Sold by private treaty 16 Dec 2022,20221216,17 Karobean Drive,MAREEBA,QLD,4880,-16.9943867,145.44046,4,2,2,House,House,False,958,m2,False
2018143183,listing,/4-mountain-view-close-mareeba-qld-4880-2018143183,435000,is-sold,Sold by private treaty 23 Nov 2022,20221123,4 Mountain View Close,MAREEBA,QLD,4880,-17.01963,145.434937,3,1,1,House,House,False,1000,m2,False
2018158135,listing,/10-godwin-drive-mareeba-qld-4880-2018158135,590000,is-sold,Sold by private treaty 19 Dec 2022,20221219,10 Godwin Drive,MAREEBA,QLD,4880,-17.0162086,145.43602,4,2,2,House,House,False,1020,m2,False
2018159138,listing,/77-mason-street-mareeba-qld-4880-2018159138,215000,is-sold,Sold by private treaty 23 Dec 2022,20221223,77 Mason Street,MAREEBA,QLD,4880,-16.9994316,145.420364,2,1,1,House,House,False,976,m2,False
2018170257,listing,/31-coronet-drive-mareeba-qld-4880-2018170257,535000,is-sold,Sold by private treaty 22 Dec 2022,20221222,31 Coronet Drive,MAREEBA,QLD,4880,-17.0082912,145.487518,2,1,2,House,House,False,24900,m2,False
2018174436,listing,/18-andre-street-mareeba-qld-4880-2018174436,515000,is-sold,Sold by private treaty 04 Jan 2023,20230104,18 Andre Street,MAREEBA,QLD,4880,-17.0176258,145.43161,4,2,2,House,House,False,1061,m2,False
2018195602,listing,/16-leinster-drive-mareeba-qld-4880-2018195602,452000,is-sold,Sold by private treaty 30 Nov 2022,20221130,16 Leinster Drive,MAREEBA,QLD,4880,-17.0149117,145.434464,3,2,2,House,House,False,1003,m2,False
2018208427,listing,/65-vaughan-street-mareeba-qld-4880-2018208427,238000,is-sold,Sold by private treaty 10 Jan 2023,20230110,65 Vaughan Street,MAREEBA,QLD,4880,-16.9905815,145.4121,3,1,2,House,House,False,708,m2,False
2018257686,listing,/308-bilwon-road-mareeba-qld-4880-2018257686,404000,is-sold,Sold by private treaty 21 Dec 2022,20221221,308 Bilwon Road,MAREEBA,QLD,4880,-16.9011173,145.432434,1,1,3,Rural,Rural,True,2.14,ha,False
2018266550,listing,/10-kevin-court-mareeba-qld-4880-2018266550,112000,is-sold,Sold by private treaty 20 Dec 2022,20221220,10 Kevin Court,MAREEBA,QLD,4880,-17.01941,145.43364,,,,VacantLand,Vacant land,False,939,m2,False
2018306219,listing,/44-rankin-street-mareeba-qld-4880-2018306219,270000,is-sold,Sold by private treaty 12 Dec 2022,20221212,44 Rankin Street,MAREEBA,QLD,4880,-16.99797,145.420227,2,1,1,House,House,False,615,m2,False
2011764591,listing,/15-earl-street-mareeba-qld-4880-2011764591,326000,is-sold,Sold by private treaty 03 Nov 2022,20221103,15 Earl Street,MAREEBA,QLD,4880,-16.9990177,145.411911,4,2,2,House,House,False,708,m2,False
2016396979,listing,/29-kimalo-feedlot-access-road-arriga-qld-4880-2016396979,,is-sold,Sold by private treaty 08 Nov 2022,20221108,29 Kimalo Feedlot Access Road,ARRIGA,QLD,4880,-17.0201874,145.293411,3,1,4,Rural,Rural,True,6175,ha,False
2017218153,listing,/4-chewko-road-mareeba-qld-4880-2017218153,208000,is-sold,Sold by private treaty 03 Nov 2022,20221103,4 Chewko Road,MAREEBA,QLD,4880,-16.9988651,145.4166,2,1,2,House,House,False,807,m2,False
2017899508,listing,/9-couper-street-mareeba-qld-4880-2017899508,290000,is-sold,Sold by private treaty 31 Oct 2022,20221031,9 Couper Street,MAREEBA,QLD,4880,-16.9843082,145.420319,3,1,1,House,House,False,703,m2,False
2017925065,listing,/73-querin-road-biboohra-qld-4880-2017925065,475000,is-sold,Sold by private treaty 14 Nov 2022,20221114,73 Querin Road,BIBOOHRA,QLD,4880,-16.894392,145.430847,,,,VacantLand,Vacant land,False,161874,m2,False
2017932243,listing,/3-allara-street-mareeba-qld-4880-2017932243,584725,is-sold,Sold by private treaty 17 Nov 2022,20221117,3 Allara Street,MAREEBA,QLD,4880,-16.9931545,145.441818,4,2,2,House,House,False,957,m2,False
2017987718,listing,/48-constance-street-mareeba-qld-4880-2017987718,350000,is-sold,Sold by private treaty 01 Nov 2022,20221101,48 Constance Street,MAREEBA,QLD,4880,-16.9938526,145.424728,3,1,2,House,House,False,1012,m2,False
2018027911,listing,/30-andre-street-mareeba-qld-4880-2018027911,105000,is-sold,Sold by private treaty 07 Nov 2022,20221107,30 Andre Street,MAREEBA,QLD,4880,-17.0189667,145.431519,,,,VacantLand,Vacant land,False,881,m2,False
2018070373,listing,/13-couper-street-mareeba-qld-4880-2018070373,272000,is-sold,Sold by private treaty 08 Nov 2022,20221108,13 Couper Street,MAREEBA,QLD,4880,-16.9842644,145.420715,4,1,4,House,House,False,703,m2,False
2018074952,listing,/32-parklands-circuit-mareeba-qld-4880-2018074952,245000,is-sold,Sold by private treaty 08 Nov 2022,20221108,32 Parklands Circuit,MAREEBA,QLD,4880,-17.0059357,145.445114,,,,VacantLand,Vacant land,False,3080,m2,False
2018074957,listing,/11-river-drive-mareeba-qld-4880-2018074957,560000,is-sold,Sold by private treaty 26 Oct 2022,20221026,11 River Drive,MAREEBA,QLD,4880,-17.00594,145.436646,4,2,2,House,House,False,921,m2,False
2018099532,listing,/13-tilse-street-mareeba-qld-4880-2018099532,825000,is-sold,Sold by private treaty 02 Nov 2022,20221102,13 Tilse Street,MAREEBA,QLD,4880,-17.009964,145.4115,6,3,3,House,House,False,920,m2,False
2018109243,listing,/6-damien-street-mareeba-qld-4880-2018109243,435000,is-sold,Sold by private treaty 09 Nov 2022,20221109,6 Damien Street,MAREEBA,QLD,4880,-17.0177689,145.432739,4,1,3,House,House,False,945,m2,False
2018151644,listing,/5-ashfield-close-mareeba-qld-4880-2018151644,400000,is-sold,Sold by private treaty 17 Nov 2022,20221117,5 Ashfield Close,MAREEBA,QLD,4880,-17.0009766,145.4317,3,1,1,House,House,False,1153,m2,False
2018152790,listing,/163-orchid-close-biboohra-qld-4880-2018152790,300000,is-sold,Sold by private treaty 21 Nov 2022,20221121,163 Orchid Close,BIBOOHRA,QLD,4880,-16.8741951,145.444519,1,1,6,House,House,True,2.01,ha,False
2018167296,listing,/20-agius-crescent-mareeba-qld-4880-2018167296,785000,is-sold,Sold by private treaty 11 Nov 2022,20221111,20 Agius Crescent,MAREEBA,QLD,4880,-17.0353,145.421768,3,2,6,House,House,False,4001,m2,False
2018199030,listing,/28-foulis-street-mareeba-qld-4880-2018199030,335000,is-sold,Sold by private treaty 16 Nov 2022,20221116,28 Foulis Street,MAREEBA,QLD,4880,-17.01489,145.430008,3,1,1,House,House,False,1138,m2,False
2018203482,listing,/4-adams-street-mareeba-qld-4880-2018203482,315000,is-sold,Sold by private treaty 22 Nov 2022,20221122,4 Adams Street,MAREEBA,QLD,4880,-16.99217,145.415176,3,1,1,House,House,False,630,m2,False
2018210612,listing,/25-kevin-court-mareeba-qld-4880-2018210612,115000,is-sold,Sold by private treaty 28 Oct 2022,20221028,25 Kevin Court,MAREEBA,QLD,4880,-17.0206032,145.431915,,,,VacantLand,Vacant land,False,1077,m2,False
2018266552,listing,/8-kevin-court-mareeba-qld-4880-2018266552,110000,is-sold,Sold by private treaty 15 Nov 2022,20221115,8 Kevin Court,MAREEBA,QLD,4880,-17.0180359,145.433075,,,,VacantLand,Vacant land,False,824,m2,False
2014072045,listing,/6-debel-close-mareeba-qld-4880-2014072045,620000,is-sold,Sold by private treaty 03 Oct 2022,20221003,6 Debel Close,MAREEBA,QLD,4880,-16.97218,145.41655,3,2,4,House,House,False,3801,m2,False
2016166130,listing,/602-hodzic-road-biboohra-qld-4880-2016166130,540000,is-sold,Sold by private treaty 10 Oct 2022,20221010,602 Hodzic Road,BIBOOHRA,QLD,4880,-16.83956,145.437042,4,1,1,Rural,Rural,True,11.33,ha,False
2016874523,listing,/90-north-walsh-road-arriga-qld-4880-2016874523,,is-sold,Sold by private treaty 29 Sep 2022,20220929,90 North Walsh Road,ARRIGA,QLD,4880,-17.04338,145.311813,5,2,6,Rural,Rural,True,61.51,ha,False
2017299316,listing,/5-shepherd-street-mareeba-qld-4880-2017299316,330000,is-sold,Sold by private treaty 04 Oct 2022,20221004,5 Shepherd Street,MAREEBA,QLD,4880,-17.0117054,145.427765,3,1,2,House,House,False,792,m2,False
2017574290,listing,/52-strattmann-street-mareeba-qld-4880-2017574290,355000,is-sold,Sold by private treaty 26 Sep 2022,20220926,52 Strattmann Street,MAREEBA,QLD,4880,-16.9965439,145.420486,3,1,4,House,House,False,1012,m2,False
2017666400,listing,/55-vaughan-street-mareeba-qld-4880-2017666400,275000,is-sold,Sold by private treaty 07 Oct 2022,20221007,55 Vaughan Street,MAREEBA,QLD,4880,-16.9899483,145.41275,4,1,1,House,House,False,708,m2,False
2017704974,listing,/47-pine-close-biboohra-qld-4880-2017704974,535000,is-sold,Sold by private treaty 24 Oct 2022,20221024,47 Pine Close,BIBOOHRA,QLD,4880,-16.8822689,145.434357,2,1,2,House,House,False,24300,m2,False
2017806803,listing,/171-pine-close-biboohra-qld-4880-2017806803,900000,is-sold,Sold by private treaty 24 Sep 2022,20220924,171 Pine Close,BIBOOHRA,QLD,4880,-16.8778858,145.436737,3,3,4,Rural,Rural,True,6.3,ha,False
2017867513,listing,/22-sunbird-parade-mareeba-qld-4880-2017867513,445000,is-sold,Sold by private treaty 26 Sep 2022,20220926,22 Sunbird Parade,MAREEBA,QLD,4880,-16.9973736,145.434937,3,2,2,House,House,False,901,m2,False
2017894330,listing,/17-lannoy-street-mareeba-qld-4880-2017894330,290000,is-sold,Sold by private treaty 25 Oct 2022,20221025,17 Lannoy Street,MAREEBA,QLD,4880,-17.0140476,145.431213,3,1,1,House,House,False,733,m2,False
2017899504,listing,/100-walsh-street-mareeba-qld-4880-2017899504,240000,is-sold,Sold by private treaty 27 Sep 2022,20220927,100 Walsh Street,MAREEBA,QLD,4880,-16.9883213,145.4223,3,1,1,House,House,False,1012,m2,False
2017965070,listing,/3-shepherd-street-mareeba-qld-4880-2017965070,295000,is-sold,Sold by private treaty 05 Oct 2022,20221005,3 Shepherd Street,MAREEBA,QLD,4880,-17.01157,145.427887,3,1,1,House,House,False,792,m2,False
2018062250,listing,/19-mason-street-mareeba-qld-4880-2018062250,218000,is-sold,Sold by private treaty 24 Oct 2022,20221024,19 Mason Street,MAREEBA,QLD,4880,-16.9938316,145.4194,3,1,1,House,House,False,915,m2,False
2018069622,listing,/12-wilson-street-mareeba-qld-4880-2018069622,300000,is-sold,Sold by private treaty 26 Sep 2022,20220926,12 Wilson Street,MAREEBA,QLD,4880,-16.9793644,145.4224,3,1,2,House,House,False,1012,m2,False
2018088102,listing,/111-macadamia-street-mareeba-qld-4880-2018088102,455000,is-sold,Sold by private treaty 23 Sep 2022,20220923,111 Macadamia Street,MAREEBA,QLD,4880,-17.110754,145.34581,2,1,2,Rural,Rural,True,2.02,ha,False
2018099311,listing,/78-mason-street-mareeba-qld-4880-2018099311,195000,is-sold,Sold by private treaty 23 Oct 2022,20221023,78 Mason Street,MAREEBA,QLD,4880,-16.99989,145.419846,3,1,,House,House,False,850,m2,False
2018117655,listing,/10-damien-street-mareeba-qld-4880-2018117655,465000,is-sold,Sold by private treaty 19 Oct 2022,20221019,10 Damien Street,MAREEBA,QLD,4880,-17.0180359,145.433075,4,1,4,House,House,False,1097,m2,False
2018168466,listing,/114-coolamon-close-mareeba-qld-4880-2018168466,747000,is-sold,Sold by private treaty 20 Oct 2022,20221020,114 Coolamon Close,MAREEBA,QLD,4880,-17.040659,145.414413,4,3,5,Rural,Rural,True,2,ha,False
2018195872,listing,/78-strattmann-street-mareeba-qld-4880-2018195872,290000,is-sold,Sold by private treaty 20 Oct 2022,20221020,78 Strattmann Street,MAREEBA,QLD,4880,-16.9991,145.420929,2,1,1,House,House,False,744,m2,False
2018222955,listing,/9-yarrabee-close-mareeba-qld-4880-2018222955,680000,is-sold,Sold by private treaty 23 Sep 2022,20220923,9 Yarrabee Close,MAREEBA,QLD,4880,-16.992794,145.438812,4,2,2,House,House,False,1242,m2,False
2012974173,listing,/88-barry-estate-mareeba-qld-4880-2012974173,102500,is-sold,Sold by private treaty 21 Sep 2022,20220921,88 Barry Estate,MAREEBA,QLD,4880,-17.01931,145.429138,,,,VacantLand,Vacant land,False,1120,m2,False
2017647881,listing,/3340-kennedy-highway-mareeba-qld-4880-2017647881,,is-sold,Sold by private treaty 01 Sep 2022,20220901,3340 Kennedy Highway,MAREEBA,QLD,4880,-16.96294,145.536316,1,1,10,Rural,Rural,True,9,ha,False
2017768113,listing,/37-royes-street-mareeba-qld-4880-2017768113,270000,is-sold,Sold by private treaty 22 Aug 2022,20220822,37 Royes Street,MAREEBA,QLD,4880,-16.99373,145.410019,4,2,2,House,House,False,708,m2,False
2017819622,listing,/45-mason-street-mareeba-qld-4880-2017819622,282500,is-sold,Sold by private treaty 02 Sep 2022,20220902,45 Mason Street,MAREEBA,QLD,4880,-16.99646,145.419846,4,1,1,House,House,False,1012,m2,False
2017845829,listing,/6-foulis-street-mareeba-qld-4880-2017845829,340000,is-sold,Sold by private treaty 26 Aug 2022,20220826,6 Foulis Street,MAREEBA,QLD,4880,-17.0138512,145.428864,3,1,1,House,House,False,763,m2,False
2017904880,listing,/2-emerald-end-road-mareeba-qld-4880-2017904880,,is-sold,Sold by private treaty 17 Aug 2022,20220817,2 Emerald End Road,MAREEBA,QLD,4880,-16.9965076,145.443268,,,,VacantLand,Vacant land,True,3.24,ha,False
2017913523,listing,/12-brown-street-mareeba-qld-4880-2017913523,280000,is-sold,Sold by private treaty 20 Sep 2022,20220920,12 Brown Street,MAREEBA,QLD,4880,-16.999054,145.413437,3,1,3,House,House,False,809,m2,False
2017931990,listing,/39-jamieson-street-mareeba-qld-4880-2017931990,515000,is-sold,Sold by private treaty 16 Aug 2022,20220816,39 Jamieson Street,MAREEBA,QLD,4880,-17.0162964,145.427475,4,2,4,House,House,False,3586,m2,False
2017934670,listing,/11-luisa-circuit-mareeba-qld-4880-2017934670,500000,is-sold,Sold by private treaty 12 Sep 2022,20220912,11 Luisa Circuit,MAREEBA,QLD,4880,-17.0213928,145.4358,4,2,2,House,House,False,1000,m2,False
2017936633,listing,/83-summer-street-mareeba-qld-4880-2017936633,175000,is-sold,Sold by private treaty 09 Sep 2022,20220909,83 Summer Street,MAREEBA,QLD,4880,-17.0131836,145.4353,,,,VacantLand,Vacant land,False,3111,m2,False
2017993769,listing,/9-mirrabook-avenue-mareeba-qld-4880-2017993769,502300,is-sold,Sold by private treaty 01 Sep 2022,20220901,9 Mirrabook Avenue,MAREEBA,QLD,4880,-16.9919052,145.434784,4,2,2,House,House,False,1009,m2,False
2017998501,listing,/157-pine-close-biboohra-qld-4880-2017998501,390000,is-sold,Sold by private treaty 13 Sep 2022,20220913,157 Pine Close,BIBOOHRA,QLD,4880,-16.8810024,145.438751,3,2,2,Rural,Rural,True,4.62,ha,False
2018001680,listing,/15-vaughan-street-mareeba-qld-4880-2018001680,300000,is-sold,Sold by private treaty 26 Aug 2022,20220826,15 Vaughan Street,MAREEBA,QLD,4880,-16.9863834,145.4166,4,1,4,House,House,False,1012,m2,False
2018007478,listing,/18-doyle-street-mareeba-qld-4880-2018007478,260000,is-sold,Sold by private treaty 22 Aug 2022,20220822,18 Doyle Street,MAREEBA,QLD,4880,-16.9910126,145.416,4,1,1,House,House,False,2021,m2,False
2018015965,listing,/13-jacana-close-mareeba-qld-4880-2018015965,570000,is-sold,Sold by private treaty 03 Sep 2022,20220903,13 Jacana Close,MAREEBA,QLD,4880,-16.9962177,145.435974,4,2,4,House,House,False,1026,m2,False
2018026340,listing,/1-240-walsh-street-mareeba-qld-4880-2018026340,260000,is-sold,Sold by private treaty 22 Sep 2022,20220922,1/240 Walsh Street,MAREEBA,QLD,4880,-17.0021648,145.424759,2,1,1,ApartmentUnitFlat,Apartment / Unit / Flat,False,119,m2,False
2018036965,listing,/3-14-kearney-street-mareeba-qld-4880-2018036965,249000,is-sold,Sold by private treaty 06 Sep 2022,20220906,3/14 Kearney Street,MAREEBA,QLD,4880,-16.9838219,145.420883,2,1,1,ApartmentUnitFlat,Apartment / Unit / Flat,False,0,m2,False
2018060250,listing,/189-martin-avenue-mareeba-qld-4880-2018060250,1100000,is-sold,Sold by private treaty 02 Sep 2022,20220902,189 Martin Avenue,MAREEBA,QLD,4880,-17.0308151,145.43399,4,2,4,House,House,True,9.86,ha,False
2018076300,listing,/10-jamieson-street-mareeba-qld-4880-2018076300,380000,is-sold,Sold by private treaty 19 Sep 2022,20220919,10 Jamieson Street,MAREEBA,QLD,4880,-17.0153446,145.43,3,1,1,House,House,False,824,m2,False
2018092229,listing,/23-karobean-drive-mareeba-qld-4880-2018092229,510000,is-sold,Sold by private treaty 26 Aug 2022,20220826,23 Karobean Drive,MAREEBA,QLD,4880,-16.9939041,145.439911,4,2,2,House,House,False,907,m2,False
2017392281,listing,/209-antonio-drive-mareeba-qld-4880-2017392281,133000,is-sold,Sold by private treaty 01 Aug 2022,20220801,209 Antonio Drive,MAREEBA,QLD,4880,-17.00854,145.429749,,,,VacantLand,Vacant land,False,901,m2,False
2017531826,listing,/34-cypress-road-biboohra-qld-4880-2017531826,590000,is-sold,Sold by private treaty 29 Jul 2022,20220729,34 Cypress Road,BIBOOHRA,QLD,4880,-16.8813572,145.4285,3,2,2,Rural,Rural,True,4.16,ha,False
2017686874,listing,/29-basalt-street-mareeba-qld-4880-2017686874,520000,is-sold,Sold by private treaty 09 Aug 2022,20220809,29 Basalt Street,MAREEBA,QLD,4880,-17.003273,145.425812,5,3,2,House,House,False,708,m2,False
2017703478,listing,/75-summer-street-mareeba-qld-4880-2017703478,135000,is-sold,Sold by private treaty 03 Aug 2022,20220803,75 Summer Street,MAREEBA,QLD,4880,-17.0131836,145.4353,,,,VacantLand,Vacant land,False,1305,m2,False
2017805630,listing,/5-kylie-close-mareeba-qld-4880-2017805630,390000,is-sold,Sold by private treaty 11 Aug 2022,20220811,5 Kylie Close,MAREEBA,QLD,4880,-17.0090122,145.4111,3,2,2,House,House,False,1075,m2,False
2017828282,listing,/9-kenneally-road-mareeba-qld-4880-2017828282,730000,is-sold,Sold by private treaty 10 Aug 2022,20220810,9 Kenneally Road,MAREEBA,QLD,4880,-17.0125751,145.432587,3,2,4,House,House,True,1.81,ha,False
2017828428,listing,/40-ward-street-mareeba-qld-4880-2017828428,245000,is-sold,Sold by private treaty 12 Aug 2022,20220812,40 Ward Street,MAREEBA,QLD,4880,-16.994154,145.410156,4,1,,House,House,False,824,m2,False
2017845835,listing,/13-bailey-street-mareeba-qld-4880-2017845835,560000,is-sold,Sold by private treaty 09 Aug 2022,20220809,13 Bailey Street,MAREEBA,QLD,4880,-17.0136452,145.4281,6,2,2,BlockOfUnits,Block of Units,False,880,m2,False
2017866425,listing,/119-walsh-street-mareeba-qld-4880-2017866425,375000,is-sold,Sold by private treaty 28 Jul 2022,20220728,119 Walsh Street,MAREEBA,QLD,4880,-16.9901257,145.4236,4,3,1,House,House,False,1013,m2,False
2017867512,listing,/20-sunbird-parade-mareeba-qld-4880-2017867512,135000,is-sold,Sold by private treaty 10 Aug 2022,20220810,20 Sunbird Parade,MAREEBA,QLD,4880,-16.9973469,145.43512,,,,VacantLand,Vacant land,False,1000,m2,False
2017912016,listing,/20-norman-street-mareeba-qld-4880-2017912016,715000,is-sold,Sold by private treaty 25 Jul 2022,20220725,20 Norman Street,MAREEBA,QLD,4880,-17.04656,145.42514,3,2,,Rural,Rural,True,2,ha,False
2017923831,listing,/967-bilwon-road-biboohra-qld-4880-2017923831,450000,is-sold,Sold by private treaty 09 Aug 2022,20220809,967 Bilwon Road,BIBOOHRA,QLD,4880,-16.85489,145.432831,4,1,2,Rural,Rural,True,16.98,ha,False
2017928484,listing,/11-starcke-street-mareeba-qld-4880-2017928484,285000,is-sold,Sold by private treaty 11 Aug 2022,20220811,11 Starcke Street,MAREEBA,QLD,4880,-16.98684,145.417725,3,1,1,House,House,False,802,m2,False
2017948677,listing,/13-karobean-drive-mareeba-qld-4880-2017948677,439000,is-sold,Sold by private treaty 27 Jul 2022,20220727,13 Karobean Drive,MAREEBA,QLD,4880,-16.99478,145.440521,3,2,2,House,House,False,705,m2,False
2017953159,listing,/15-jamieson-street-mareeba-qld-4880-2017953159,290000,is-sold,Sold by private treaty 15 Aug 2022,20220815,15 Jamieson Street,MAREEBA,QLD,4880,-17.01566,145.430481,3,1,1,House,House,False,1855,m2,False
2017974991,listing,/14-wylandra-drive-mareeba-qld-4880-2017974991,625000,is-sold,Sold by private treaty 26 Jul 2022,20220726,14 Wylandra Drive,MAREEBA,QLD,4880,-17.05505,145.427887,3,2,4,House,House,False,4000,m2,False
2017978567,listing,/11-tilse-street-mareeba-qld-4880-2017978567,405000,is-sold,Sold by private treaty 11 Aug 2022,20220811,11 Tilse Street,MAREEBA,QLD,4880,-17.00975,145.411621,4,1,4,House,House,False,968,m2,False
2017991913,listing,/91-constance-street-mareeba-qld-4880-2017991913,830000,is-sold,Sold by private treaty 11 Aug 2022,20220811,91 Constance Street,MAREEBA,QLD,4880,-16.9984646,145.426117,6,3,3,BlockOfUnits,Block of Units,False,822,m2,False
2018044021,listing,/4-best-street-mareeba-qld-4880-2018044021,495000,is-sold,Sold by private treaty 26 Jul 2022,20220726,4 Best Street,MAREEBA,QLD,4880,-17.0155,145.436066,3,2,2,House,House,False,1000,m2,False
2018078620,listing,/12-dandaloo-close-mareeba-qld-4880-2018078620,515000,is-sold,Sold by private treaty 11 Aug 2022,20220811,12 Dandaloo Close,MAREEBA,QLD,4880,-16.9937782,145.441818,3,2,2,House,House,False,905,m2,False
2016066020,listing,/mareeba-qld-4880-2016066020,,is-sold,Sold by private treaty 20 Jun 2022,20220620,,MAREEBA,QLD,4880,-17.001936,145.438858,4,1,3,Rural,Rural,True,10000,m2,False
2016672481,listing,/3-carrol-street-mareeba-qld-4880-2016672481,285000,is-sold,Sold by private treaty 29 Jun 2022,20220629,3 Carrol Street,MAREEBA,QLD,4880,-16.9920635,145.4111,5,2,2,House,House,False,842,m2,False
2017382338,listing,/253-10-sebastiano-close-mareeba-qld-4880-2017382338,465000,is-sold,Sold by private treaty 04 Jul 2022,20220704,253/10 Sebastiano Close,MAREEBA,QLD,4880,-16.9886227,145.385,4,2,2,House,House,False,929,m2,False
2017486584,listing,/3-stanley-street-mareeba-qld-4880-2017486584,440000,is-sold,Sold by private treaty 27 Jun 2022,20220627,3 Stanley Street,MAREEBA,QLD,4880,-16.9800358,145.4236,3,1,6,House,House,False,7325,m2,False
2017608948,listing,/390-ray-road-mareeba-qld-4880-2017608948,465000,is-sold,Sold by private treaty 27 Jun 2022,20220627,390 Ray Road,MAREEBA,QLD,4880,-17.0515957,145.415619,4,2,4,Rural,Rural,True,2,ha,False
2017666378,listing,/116-mcgrath-road-mareeba-qld-4880-2017666378,570000,is-sold,Sold by private treaty 27 Jun 2022,20220627,116 McGrath Road,MAREEBA,QLD,4880,-16.9623775,145.414932,4,2,3,House,House,False,7760,m2,False
2017732081,listing,/3702-kennedy-highway-mareeba-qld-4880-2017732081,925000,is-sold,Sold by private treaty 20 Jun 2022,20220620,3702 Kennedy Highway,MAREEBA,QLD,4880,-16.98355,145.522552,3,2,2,House,House,False,21286,m2,False
2017787713,listing,/8-courtney-street-mareeba-qld-4880-2017787713,251500,is-sold,Sold by private treaty 25 Jul 2022,20220725,8 Courtney Street,MAREEBA,QLD,4880,-16.998127,145.412354,3,1,1,House,House,False,711,m2,False
2017791212,listing,/17-slape-road-mareeba-qld-4880-2017791212,1050000,is-sold,Sold by private treaty 01 Jul 2022,20220701,17 Slape Road,MAREEBA,QLD,4880,-17.0335064,145.402969,8,3,7,Rural,Rural,True,3.03,ha,False
2017801879,listing,/2-3-hort-street-mareeba-qld-4880-2017801879,225000,is-sold,Sold by private treaty 18 Jul 2022,20220718,2/3 Hort Street,MAREEBA,QLD,4880,-16.9954166,145.420166,2,1,1,ApartmentUnitFlat,Apartment / Unit / Flat,False,100,m2,False
2017834985,listing,/8-summer-street-mareeba-qld-4880-2017834985,499000,is-sold,Sold by private treaty 30 Jun 2022,20220630,8 Summer Street,MAREEBA,QLD,4880,-17.0144138,145.43541,4,2,2,House,House,False,1132,m2,False
2017835548,listing,/70-grigg-road-biboohra-qld-4880-2017835548,860000,is-sold,Sold by private treaty 01 Jul 2022,20220701,70 Grigg Road,BIBOOHRA,QLD,4880,-16.8445988,145.459488,4,1,3,Rural,Rural,True,12.15,ha,False
2017862027,listing,/14-yarrabee-close-mareeba-qld-4880-2017862027,575000,is-sold,Sold by private treaty 26 Jun 2022,20220626,14 Yarrabee Close,MAREEBA,QLD,4880,-16.9923611,145.439117,4,2,2,House,House,False,880,m2,False
2017871011,listing,/8-caterina-close-mareeba-qld-4880-2017871011,560000,is-sold,Sold by private treaty 21 Jun 2022,20220621,8 Caterina Close,MAREEBA,QLD,4880,-17.0181,145.429382,4,2,5,House,House,False,4004,m2,False
2017897407,listing,/36-iluka-street-mareeba-qld-4880-2017897407,389000,is-sold,Sold by private treaty 19 Jul 2022,20220719,36 Iluka Street,MAREEBA,QLD,4880,-17.00704,145.426117,4,3,4,House,House,False,994,m2,False
2017913520,listing,/109-coolamon-close-mareeba-qld-4880-2017913520,600000,is-sold,Sold by private treaty 12 Jul 2022,20220712,109 Coolamon Close,MAREEBA,QLD,4880,-17.0401955,145.41243,3,1,1,Rural,Rural,True,2.06,ha,False
2017927999,listing,/18-river-drive-mareeba-qld-4880-2017927999,450000,is-sold,Sold by private treaty 18 Jul 2022,20220718,18 River Drive,MAREEBA,QLD,4880,-17.00663,145.436188,3,2,2,House,House,False,1009,m2,False
2017962287,listing,/245-gilmore-road-mareeba-qld-4880-2017962287,1500000,is-sold,Sold by private treaty 28 Jun 2022,20220628,245 Gilmore Road,MAREEBA,QLD,4880,-16.972187,145.45607,4,3,3,House,House,True,14.93,ha,False
2017986767,listing,/20-gallo-drive-mareeba-qld-4880-2017986767,720000,is-sold,Sold by private treaty 02 Jul 2022,20220702,20 Gallo Drive,MAREEBA,QLD,4880,-17.0519161,145.427765,3,2,2,House,House,False,3333,m2,False
2018010274,listing,/118-constance-street-mareeba-qld-4880-2018010274,340000,is-sold,Sold by private treaty 04 Jul 2022,20220704,118 Constance Street,MAREEBA,QLD,4880,-17.0018673,145.425919,4,1,2,House,House,False,1742,m2,False
2011951104,listing,/16-ward-street-mareeba-qld-4880-2011951104,227500,is-sold,Sold by private treaty 25 May 2022,20220525,16 Ward Street,MAREEBA,QLD,4880,-16.9923038,145.41214,3,1,1,House,House,False,709,m2,False
2014475309,listing,/mareeba-qld-4880-2014475309,2205700,is-sold,Sold by private treaty 31 May 2022,20220531,,MAREEBA,QLD,4880,-17.001936,145.438858,,,,Rural,Rural,True,64.29,ha,False
2015860292,listing,/11-13-gowan-street-mareeba-qld-4880-2015860292,230000,is-sold,Sold by private treaty 13 Jun 2022,20220613,11-13 Gowan Street,MAREEBA,QLD,4880,-16.97767,145.404419,,,,VacantLand,Vacant land,False,4356,m2,False
2017403097,listing,/229-pietro-close-mareeba-qld-4880-2017403097,136000,is-sold,Sold by private treaty 31 May 2022,20220531,229 Pietro Close,MAREEBA,QLD,4880,-16.9954586,145.423,,,,VacantLand,Vacant land,False,1003,m2,False
2017418758,listing,/3-kylie-close-mareeba-qld-4880-2017418758,420000,is-sold,Sold by private treaty 31 May 2022,20220531,3 Kylie Close,MAREEBA,QLD,4880,-17.0090122,145.411209,5,2,1,Duplex,Duplex,False,1246,m2,False
2017558496,listing,/6-michelina-close-mareeba-qld-4880-2017558496,469000,is-sold,Sold by private treaty 14 Jun 2022,20220614,6 Michelina Close,MAREEBA,QLD,4880,-17.0092411,145.429871,4,2,2,House,House,False,839,m2,False
2017576219,listing,/468-bilwon-road-biboohra-qld-4880-2017576219,585000,is-sold,Sold by private treaty 01 Jun 2022,20220601,468 Bilwon Road,BIBOOHRA,QLD,4880,-16.8868237,145.429169,3,1,4,Rural,Rural,True,8.5,ha,False
2017589817,listing,/5-riordan-street-mareeba-qld-4880-2017589817,286000,is-sold,Sold by private treaty 16 Jun 2022,20220616,5 Riordan Street,MAREEBA,QLD,4880,-16.9969463,145.415131,3,1,3,House,House,False,837,m2,False
2017630118,listing,/mareeba-qld-4880-2017630118,359000,is-sold,Sold by private treaty 10 Jun 2022,20220610,,MAREEBA,QLD,4880,-16.9973583,145.423065,4,1,3,House,House,False,1287,m2,False
2017666398,listing,/1c-bourke-street-mareeba-qld-4880-2017666398,340000,is-sold,Sold by private treaty 07 Jun 2022,20220607,1C Bourke Street,MAREEBA,QLD,4880,-16.9848251,145.42244,3,1,1,House,House,False,338,m2,False
2017700524,listing,/9-shepherd-street-mareeba-qld-4880-2017700524,375000,is-sold,Sold by private treaty 16 Jun 2022,20220616,9 Shepherd Street,MAREEBA,QLD,4880,-17.0120068,145.427567,4,2,3,House,House,False,792,m2,False
2017756981,listing,/32-mcgrath-road-mareeba-qld-4880-2017756981,440000,is-sold,Sold by private treaty 14 Jun 2022,20220614,32 McGrath Road,MAREEBA,QLD,4880,-16.96962,145.415482,5,2,2,House,House,False,1007,m2,False
2017770918,listing,/8-moondani-avenue-mareeba-qld-4880-2017770918,500000,is-sold,Sold by private treaty 10 Jun 2022,20220610,8 Moondani Avenue,MAREEBA,QLD,4880,-16.9931545,145.441818,4,2,2,House,House,False,1053,m2,False
2017800817,listing,/2-agius-crescent-mareeba-qld-4880-2017800817,570000,is-sold,Sold by private treaty 09 Jun 2022,20220609,2 Agius Crescent,MAREEBA,QLD,4880,-17.0344086,145.4184,4,2,2,House,House,False,3003,m2,False
2017800819,listing,/3-buffalo-close-mareeba-qld-4880-2017800819,872000,is-sold,Sold by private treaty 08 Jun 2022,20220608,3 Buffalo Close,MAREEBA,QLD,4880,-17.0563965,145.429382,4,2,6,House,House,False,4000,m2,False
2017808971,listing,/16-dangaard-street-mareeba-qld-4880-2017808971,375000,is-sold,Sold by private treaty 01 Jun 2022,20220601,16 Dangaard Street,MAREEBA,QLD,4880,-17.0149155,145.428284,4,1,1,House,House,False,779,m2,False
2017826185,listing,/16-marinelli-avenue-mareeba-qld-4880-2017826185,447000,is-sold,Sold by private treaty 13 Jun 2022,20220613,16 Marinelli Avenue,MAREEBA,QLD,4880,-17.0211658,145.436279,4,2,2,House,House,False,859,m2,False
2017852701,listing,/140-constance-street-mareeba-qld-4880-2017852701,400000,is-sold,Sold by private treaty 10 Jun 2022,20220610,140 Constance Street,MAREEBA,QLD,4880,-17.0040436,145.4265,3,1,3,House,House,False,1094,m2,False
2017854683,listing,/266-malone-road-mareeba-qld-4880-2017854683,740000,is-sold,Sold by private treaty 30 May 2022,20220530,266 Malone Road,MAREEBA,QLD,4880,-17.0062847,145.487259,4,2,,House,House,False,20234,m2,False
2017981624,listing,/5-sunbird-parade-mareeba-qld-4880-2017981624,585000,is-sold,Sold by private treaty 30 May 2022,20220530,5 Sunbird Parade,MAREEBA,QLD,4880,-16.99788,145.437363,4,2,2,House,House,False,1000,m2,False
2012749160,listing,/mareeba-qld-4880-2012749160,250000,is-sold,Sold by private treaty 16 May 2022,20220516,,MAREEBA,QLD,4880,-16.9973583,145.423065,2,1,1,ApartmentUnitFlat,Apartment / Unit / Flat,False,0,m2,False
2014771720,listing,/mareeba-qld-4880-2014771720,205000,is-sold,Sold by private treaty 19 May 2022,20220519,,MAREEBA,QLD,4880,-16.9899731,145.423431,2,1,1,ApartmentUnitFlat,Apartment / Unit / Flat,False,0,m2,False
2017227161,listing,/8-2-4-strattmann-street-mareeba-qld-4880-2017227161,232000,is-sold,Sold by private treaty 02 May 2022,20220502,8/2-4 Strattmann Street,MAREEBA,QLD,4880,-16.9914875,145.419586,2,1,2,ApartmentUnitFlat,Apartment / Unit / Flat,False,0,m2,False
2017270128,listing,/18-moondani-avenue-mareeba-qld-4880-2017270128,125000,is-sold,Sold by private treaty 24 May 2022,20220524,18 Moondani Avenue,MAREEBA,QLD,4880,-16.99323,145.4418,,,,VacantLand,Vacant land,False,884,m2,False
2017309050,listing,/157-peters-road-mareeba-qld-4880-2017309050,495000,is-sold,Sold by private treaty 09 May 2022,20220509,157 Peters Road,MAREEBA,QLD,4880,-16.9390736,145.40181,,,,Rural,Rural,True,118.57,ha,False
2017538927,listing,/97-rozel-close-mareeba-qld-4880-2017538927,725000,is-sold,Sold by private treaty 16 May 2022,20220516,97 Rozel Close,MAREEBA,QLD,4880,-17.01257,145.482651,5,3,2,Rural,Rural,True,2.04,ha,False
2017550333,listing,/65-kevin-court-mareeba-qld-4880-2017550333,117500,is-sold,Sold by private treaty 09 May 2022,20220509,65 Kevin Court,MAREEBA,QLD,4880,-17.01941,145.43364,,,,VacantLand,Vacant land,False,1120,m2,False
2017562971,listing,/1-11-middlemiss-street-mareeba-qld-4880-2017562971,285000,is-sold,Sold by private treaty 12 May 2022,20220512,1/11 Middlemiss Street,MAREEBA,QLD,4880,-16.9905987,145.423935,2,1,2,ApartmentUnitFlat,Apartment / Unit / Flat,False,148,m2,False
2017610613,listing,/17-robins-street-mareeba-qld-4880-2017610613,278000,is-sold,Sold by private treaty 04 May 2022,20220504,17 Robins Street,MAREEBA,QLD,4880,-16.98096,145.42157,3,1,2,House,House,False,698,m2,False
2017615518,listing,/5-ashfield-close-mareeba-qld-4880-2017615518,375000,is-sold,Sold by private treaty 09 May 2022,20220509,5 Ashfield Close,MAREEBA,QLD,4880,-17.0009766,145.4317,3,1,1,House,House,False,1153,m2,False
2017624632,listing,/12-jacinta-crescent-mareeba-qld-4880-2017624632,610000,is-sold,Sold by private treaty 12 May 2022,20220512,12 Jacinta Crescent,MAREEBA,QLD,4880,-16.9992,145.439758,4,2,2,House,House,False,1074,m2,False
2017641658,listing,/3-3-hort-street-mareeba-qld-4880-2017641658,227500,is-sold,Sold by private treaty 19 May 2022,20220519,3/3 Hort Street,MAREEBA,QLD,4880,-16.9954014,145.420273,2,1,1,ApartmentUnitFlat,Apartment / Unit / Flat,False,100,m2,False
2017720557,listing,/5-norman-street-mareeba-qld-4880-2017720557,,is-sold,Sold by private treaty 23 May 2022,20220523,5 Norman Street,MAREEBA,QLD,4880,-17.0489674,145.425537,4,2,5,House,House,False,4569,m2,False
2017736712,listing,/mareeba-qld-4880-2017736712,230000,is-sold,Sold by private treaty 20 May 2022,20220520,,MAREEBA,QLD,4880,-16.9973583,145.423065,7,2,2,Rural,Rural,True,9999,m2,False
2017748580,listing,/251-dural-close-mareeba-qld-4880-2017748580,179000,is-sold,Sold by private treaty 09 May 2022,20220509,251 Dural Close,MAREEBA,QLD,4880,-16.9969521,145.4233,,,,VacantLand,Vacant land,False,2215,m2,False
2017776040,listing,/324-ray-road-mareeba-qld-4880-2017776040,670000,is-sold,Sold by private treaty 10 May 2022,20220510,324 Ray Road,MAREEBA,QLD,4880,-17.04606,145.41626,3,2,2,Rural,Rural,True,2.02,ha,False
2017814335,listing,/28-andre-street-mareeba-qld-4880-2017814335,106000,is-sold,Sold by private treaty 05 May 2022,20220505,28 Andre Street,MAREEBA,QLD,4880,-17.0187778,145.431549,,,,VacantLand,Vacant land,False,1000,m2,False
2017931472,listing,/11-bailey-street-mareeba-qld-4880-2017931472,395000,is-sold,Sold by private treaty 10 May 2022,20220510,11 Bailey Street,MAREEBA,QLD,4880,-17.013401,145.4285,3,2,1,House,House,False,804,m2,False
2017936035,listing,/31-andre-street-mareeba-qld-4880-2017936035,115000,is-sold,Sold by private treaty 18 May 2022,20220518,31 Andre Street,MAREEBA,QLD,4880,-17.019062,145.4315,,,,VacantLand,Vacant land,False,924,m2,False
2018010276,listing,/173-emerald-end-road-mareeba-qld-4880-2018010276,840000,is-sold,Sold by private treaty 17 May 2022,20220517,173 Emerald End Road,MAREEBA,QLD,4880,-16.9828548,145.437027,4,1,2,Rural,Rural,True,16.29,ha,False
2011966483,listing,/4-toll-close-mareeba-qld-4880-2011966483,300000,is-sold,Sold by private treaty 04 Apr 2022,20220404,4 Toll Close,MAREEBA,QLD,4880,-17.00917,145.41658,3,1,1,House,House,False,805,m2,False
2013988698,listing,/28-seary-road-mareeba-qld-4880-2013988698,101750,is-sold,Sold by private treaty 06 Apr 2022,20220406,28 Seary Road,MAREEBA,QLD,4880,-17.019434,145.433655,,,,VacantLand,Vacant land,False,800,m2,False
2016992999,listing,/36-ward-street-mareeba-qld-4880-2016992999,198000,is-sold,Sold by private treaty 14 Apr 2022,20220414,36 Ward Street,MAREEBA,QLD,4880,-16.9938488,145.410446,3,1,1,House,House,False,709,m2,False
2017074114,listing,/336-fichera-road-mareeba-qld-4880-2017074114,640000,is-sold,Sold by private treaty 01 Apr 2022,20220401,336 Fichera Road,MAREEBA,QLD,4880,-17.0348721,145.443085,2,1,1,Rural,Rural,True,14.15,ha,False
2017314690,listing,/5-eagle-close-mareeba-qld-4880-2017314690,,is-sold,Sold by private treaty 29 Apr 2022,20220429,5 Eagle Close,MAREEBA,QLD,4880,-16.9968262,145.43541,4,2,2,House,House,False,974,m2,False
2017426034,listing,/343-emerald-end-road-mareeba-qld-4880-2017426034,550000,is-sold,Sold by private treaty 19 Apr 2022,20220419,343 Emerald End Road,MAREEBA,QLD,4880,-16.96735,145.426346,3,1,2,Rural,Rural,True,12.32,ha,False
2017470590,listing,/7-byrnes-street-mareeba-qld-4880-2017470590,289500,is-sold,Sold by private treaty 29 Apr 2022,20220429,7 Byrnes Street,MAREEBA,QLD,4880,-16.9853687,145.420227,5,2,2,House,House,False,1012,m2,False
2017539880,listing,/35-sutherland-street-mareeba-qld-4880-2017539880,767500,is-sold,Sold by private treaty 29 Apr 2022,20220429,35 Sutherland Street,MAREEBA,QLD,4880,-16.9886169,145.4254,5,3,3,House,House,False,4202,m2,False
2017580861,listing,/82-kenneally-road-mareeba-qld-4880-2017580861,420000,is-sold,Sold by private treaty 14 Apr 2022,20220414,82 Kenneally Road,MAREEBA,QLD,4880,-17.01723,145.43396,4,2,2,House,House,False,1000,m2,False
2017597260,listing,/693-bilwon-road-biboohra-qld-4880-2017597260,850000,is-sold,Sold by private treaty 05 Apr 2022,20220405,693 Bilwon Road,BIBOOHRA,QLD,4880,-16.8685188,145.421692,,,,Rural,Rural,True,8.79,ha,False
2017619417,listing,/110-malone-road-mareeba-qld-4880-2017619417,640000,is-sold,Sold by private treaty 04 Apr 2022,20220404,110 Malone Road,MAREEBA,QLD,4880,-17.00116,145.474609,4,1,2,House,House,False,20234,m2,False
2017630106,listing,/9-donlen-street-mareeba-qld-4880-2017630106,340000,is-sold,Sold by private treaty 05 Apr 2022,20220405,9 Donlen Street,MAREEBA,QLD,4880,-17.0144882,145.427719,3,1,1,House,House,False,800,m2,False
2017675641,listing,/10-eccles-street-mareeba-qld-4880-2017675641,421000,is-sold,Sold by private treaty 16 Apr 2022,20220416,10 Eccles Street,MAREEBA,QLD,4880,-16.9868546,145.422455,3,2,2,House,House,False,1444,m2,False
2017703401,listing,/16-gallo-drive-mareeba-qld-4880-2017703401,720000,is-sold,Sold by private treaty 07 Apr 2022,20220407,16 Gallo Drive,MAREEBA,QLD,4880,-17.0519161,145.427765,4,2,6,House,House,False,5082,m2,False
2017723368,listing,/13-mirrabook-avenue-mareeba-qld-4880-2017723368,490000,is-sold,Sold by private treaty 20 Apr 2022,20220420,13 Mirrabook Avenue,MAREEBA,QLD,4880,-16.9918747,145.434769,4,2,2,House,House,False,935,m2,False
2017735238,listing,/31-mirrabook-avenue-mareeba-qld-4880-2017735238,489000,is-sold,Sold by private treaty 21 Apr 2022,20220421,31 Mirrabook Avenue,MAREEBA,QLD,4880,-16.99145,145.4342,3,2,2,House,House,False,1004,m2,False
2017743548,listing,/106-mcgrath-road-mareeba-qld-4880-2017743548,680000,is-sold,Sold by private treaty 20 Apr 2022,20220420,106 McGrath Road,MAREEBA,QLD,4880,-16.9630966,145.415451,4,2,4,Rural,Rural,True,2,ha,False
2017749729,listing,/10-middlemiss-street-mareeba-qld-4880-2017749729,195000,is-sold,Sold by private treaty 29 Apr 2022,20220429,10 Middlemiss Street,MAREEBA,QLD,4880,-16.991087,145.42421,2,1,1,House,House,False,1012,m2,False
2017814392,listing,/4-haines-close-mareeba-qld-4880-2017814392,310000,is-sold,Sold by private treaty 21 Apr 2022,20220421,4 Haines Close,MAREEBA,QLD,4880,-17.008913,145.412659,3,1,6,House,House,False,1007,m2,False
2017834276,listing,/19-owens-street-mareeba-qld-4880-2017834276,800000,is-sold,Sold by private treaty 27 Apr 2022,20220427,19 Owens Street,MAREEBA,QLD,4880,-17.0158,145.417877,6,4,6,House,House,False,4812,m2,False
2017142648,listing,/61-vaughan-street-mareeba-qld-4880-2017142648,175000,is-sold,Sold by private treaty 28 Mar 2022,20220328,61 Vaughan Street,MAREEBA,QLD,4880,-16.9903831,145.412323,2,1,1,House,House,False,708,m2,False
2017284334,listing,/9-mcgrath-road-mareeba-qld-4880-2017284334,125000,is-sold,Sold by private treaty 28 Mar 2022,20220328,9 McGrath Road,MAREEBA,QLD,4880,-16.97153,145.415161,,,,VacantLand,Vacant land,False,4131,m2,False
2017499145,listing,/mareeba-qld-4880-2017499145,245000,is-sold,Sold by private treaty 15 Mar 2022,20220315,,MAREEBA,QLD,4880,-17.0014458,145.42067,4,1,1,House,House,False,1034,m2,False
2017518806,listing,/28-bilwon-road-biboohra-qld-4880-2017518806,385000,is-sold,Sold by private treaty 18 Mar 2022,20220318,28 Bilwon Road,BIBOOHRA,QLD,4880,-16.921711,145.418747,3,1,2,House,House,False,4242,m2,False
2017532407,listing,/mareeba-qld-4880-2017532407,432000,is-sold,Sold by private treaty 17 Mar 2022,20220317,,MAREEBA,QLD,4880,-16.9973583,145.423065,3,2,2,House,House,False,1199,m2,False
2017548673,listing,/1-maria-close-mareeba-qld-4880-2017548673,495000,is-sold,Sold by private treaty 24 Mar 2022,20220324,1 Maria Close,MAREEBA,QLD,4880,-16.9977989,145.4386,4,2,2,House,House,False,998,m2,False
2017586616,listing,/mareeba-qld-4880-2017586616,375000,is-sold,Sold by private treaty 17 Mar 2022,20220317,,MAREEBA,QLD,4880,-16.9973583,145.423065,4,1,2,House,House,False,907,m2,False
2017591818,listing,/3-brodziac-close-mareeba-qld-4880-2017591818,130000,is-sold,Sold by private treaty 21 Mar 2022,20220321,3 Brodziac Close,MAREEBA,QLD,4880,-17.013216,145.422043,,,,VacantLand,Vacant land,False,1448,m2,False
2017624135,listing,/28-kowa-street-mareeba-qld-4880-2017624135,440000,is-sold,Sold by private treaty 18 Mar 2022,20220318,28 Kowa Street,MAREEBA,QLD,4880,-17.0059528,145.434326,4,2,2,House,House,False,899,m2,False
2017625959,listing,/24-parklands-circuit-mareeba-qld-4880-2017625959,340000,is-sold,Sold by private treaty 26 Mar 2022,20220326,24 Parklands Circuit,MAREEBA,QLD,4880,-17.0075016,145.444382,,,,VacantLand,Vacant land,False,5290,m2,False
2017635613,listing,/40-strattmann-street-mareeba-qld-4880-2017635613,275000,is-sold,Sold by private treaty 30 Mar 2022,20220330,40 Strattmann Street,MAREEBA,QLD,4880,-16.9952259,145.420273,3,1,2,House,House,False,1012,m2,False
2017641354,listing,/9-jacinta-crescent-mareeba-qld-4880-2017641354,367000,is-sold,Sold by private treaty 17 Mar 2022,20220317,9 Jacinta Crescent,MAREEBA,QLD,4880,-16.9987221,145.439758,3,1,1,House,House,False,905,m2,False
2017657569,listing,/18-rankin-street-mareeba-qld-4880-2017657569,295000,is-sold,Sold by private treaty 25 Mar 2022,20220325,18 Rankin Street,MAREEBA,QLD,4880,-16.9996643,145.414963,3,1,1,House,House,False,809,m2,False
2017674039,listing,/mareeba-qld-4880-2017674039,275000,is-sold,Sold by private treaty 28 Mar 2022,20220328,,MAREEBA,QLD,4880,-16.9973583,145.423065,3,1,1,House,House,False,0,m2,False
2017675295,listing,/84-kenneally-road-mareeba-qld-4880-2017675295,420000,is-sold,Sold by private treaty 01 Apr 2022,20220401,84 Kenneally Road,MAREEBA,QLD,4880,-17.0171833,145.434143,4,2,2,House,House,False,1000,m2,False
2017676066,listing,/8-allara-street-mareeba-qld-4880-2017676066,,is-sold,Sold by private treaty 15 Mar 2022,20220315,8 Allara Street,MAREEBA,QLD,4880,-16.99323,145.4418,4,2,2,House,House,False,1007,m2,False
2017690929,listing,/4-wren-close-mareeba-qld-4880-2017690929,500000,is-sold,Sold by private treaty 25 Mar 2022,20220325,4 Wren Close,MAREEBA,QLD,4880,-16.9987049,145.4364,4,2,2,House,House,False,800,m2,False
2017723363,listing,/13-hoevet-court-mareeba-qld-4880-2017723363,629000,is-sold,Sold by private treaty 28 Mar 2022,20220328,13 Hoevet Court,MAREEBA,QLD,4880,-16.9973583,145.423065,4,2,5,House,House,False,4017,m2,False
2017786007,listing,/64-emerald-end-close-mareeba-qld-4880-2017786007,530000,is-sold,Sold by private treaty 18 Mar 2022,20220318,64 Emerald End Close,MAREEBA,QLD,4880,-16.9470119,145.434662,4,2,2,House,House,False,7365,m2,False
2017804060,listing,/27-robins-street-mareeba-qld-4880-2017804060,231500,is-sold,Sold by private treaty 23 Mar 2022,20220323,27 Robins Street,MAREEBA,QLD,4880,-16.9811573,145.42218,3,1,2,House,House,False,698,m2,False
2014126639,listing,/3-4497-kennedy-highway-mareeba-qld-4880-2014126639,250000,is-sold,Sold by private treaty 07 Mar 2022,20220307,3/4497 Kennedy Highway,MAREEBA,QLD,4880,-16.99923,145.4609,,,,VacantLand,Vacant land,False,19900,m2,False
2017230542,listing,/lot-7-kennedy-highway-mareeba-qld-4880-2017230542,400000,is-sold,Sold by private treaty 08 Mar 2022,20220308,Lot 7 Kennedy Highway,MAREEBA,QLD,4880,-16.9993534,145.459122,,,,VacantLand,Vacant land,True,1.09,ha,False
2017286824,listing,/29-kenneally-road-mareeba-qld-4880-2017286824,490000,is-sold,Sold by private treaty 10 Mar 2022,20220310,29 Kenneally Road,MAREEBA,QLD,4880,-17.015522,145.432144,,,,VacantLand,Vacant land,True,6.08,ha,False
2017377953,listing,/26-wren-close-mareeba-qld-4880-2017377953,425000,is-sold,Sold by private treaty 02 Mar 2022,20220302,26 Wren Close,MAREEBA,QLD,4880,-16.99884,145.437469,4,2,2,House,House,False,1001,m2,False
2017432749,listing,/7-mcdowall-street-mareeba-qld-4880-2017432749,307000,is-sold,Sold by private treaty 03 Mar 2022,20220303,7 McDowall Street,MAREEBA,QLD,4880,-17.01242,145.42186,3,1,,House,House,False,900,m2,False
2017473060,listing,/63-kevin-court-mareeba-qld-4880-2017473060,125000,is-sold,Sold by private treaty 14 Mar 2022,20220314,63 Kevin Court,MAREEBA,QLD,4880,-17.01941,145.43364,,,,VacantLand,Vacant land,False,1202,m2,False
2017483910,listing,/654-bilwon-road-biboohra-qld-4880-2017483910,600000,is-sold,Sold by private treaty 09 Mar 2022,20220309,654 Bilwon Road,BIBOOHRA,QLD,4880,-16.8710785,145.423813,3,1,6,House,House,True,15.4,ha,False
2017514308,listing,/4-andre-street-mareeba-qld-4880-2017514308,530000,is-sold,Sold by private treaty 14 Mar 2022,20220314,4 Andre Street,MAREEBA,QLD,4880,-17.01685,145.431885,4,1,2,House,House,False,3960,m2,False
2017515047,listing,/mareeba-qld-4880-2017515047,365500,is-sold,Sold by private treaty 11 Mar 2022,20220311,,MAREEBA,QLD,4880,-16.9973583,145.423065,3,1,2,House,House,False,1012,m2,False
2017517432,listing,/15-seary-road-mareeba-qld-4880-2017517432,408000,is-sold,Sold by private treaty 02 Mar 2022,20220302,15 Seary Road,MAREEBA,QLD,4880,-17.01971,145.434113,4,1,2,House,House,False,800,m2,False
2017537882,listing,/42-shaban-close-mareeba-qld-4880-2017537882,620000,is-sold,Sold by private treaty 07 Mar 2022,20220307,42 Shaban Close,MAREEBA,QLD,4880,-17.04133,145.4216,4,2,2,House,House,False,20000,m2,False
2017557458,listing,/17-troughton-street-mareeba-qld-4880-2017557458,310000,is-sold,Sold by private treaty 14 Mar 2022,20220314,17 Troughton Street,MAREEBA,QLD,4880,-16.9938774,145.4172,3,1,,House,House,False,779,m2,False
2017596458,listing,/9-antonio-drive-mareeba-qld-4880-2017596458,450000,is-sold,Sold by private treaty 09 Mar 2022,20220309,9 Antonio Drive,MAREEBA,QLD,4880,-17.0083275,145.4306,4,2,2,House,House,False,903,m2,False
2017605177,listing,/brown-street-mareeba-qld-4880-2017605177,205000,is-sold,Sold by private treaty 08 Mar 2022,20220308,Brown Street,MAREEBA,QLD,4880,-16.9993725,145.413727,3,1,1,House,House,False,9002,m2,False
2017613491,listing,/15-emerald-heights-road-mareeba-qld-4880-2017613491,570000,is-sold,Sold by private treaty 02 Mar 2022,20220302,15 Emerald Heights Road,MAREEBA,QLD,4880,-17.0030422,145.473114,3,1,4,Rural,Rural,True,2.02,ha,False
2017618631,listing,/5-damien-street-mareeba-qld-4880-2017618631,410000,is-sold,Sold by private treaty 14 Mar 2022,20220314,5 Damien Street,MAREEBA,QLD,4880,-17.0174046,145.433121,4,2,3,House,House,False,835,m2,False
2017647861,listing,/10-riverlands-drive-mareeba-qld-4880-2017647861,700000,is-sold,Sold by private treaty 12 Mar 2022,20220312,10 Riverlands Drive,MAREEBA,QLD,4880,-17.0060539,145.442917,3,2,4,House,House,False,3512,m2,False
2017677648,listing,/lot-7-12-powell-road-mareeba-qld-4880-2017677648,640000,is-sold,Sold by private treaty 10 Mar 2022,20220310,"Lot 7, 12 Powell Road",MAREEBA,QLD,4880,-16.9973583,145.423065,3,1,5,Rural,Rural,True,2.34,ha,False
2017741597,listing,/18-martin-avenue-mareeba-qld-4880-2017741597,383000,is-sold,Sold by private treaty 09 Mar 2022,20220309,18 Martin Avenue,MAREEBA,QLD,4880,-17.0177326,145.427368,3,1,1,House,House,False,809,m2,False
2017797791,listing,/11-wren-close-mareeba-qld-4880-2017797791,430000,is-sold,Sold by private treaty 03 Mar 2022,20220303,11 Wren Close,MAREEBA,QLD,4880,-16.9982452,145.4372,3,2,2,House,House,False,800,m2,False
2014500622,listing,/mareeba-qld-4880-2014500622,,is-sold,Sold by private treaty 22 Feb 2022,20220222,,MAREEBA,QLD,4880,-17.001936,145.438858,4,2,5,AcreageSemiRural,Acreage / Semi-Rural,True,1.51,ha,False
2016843541,listing,/23-langton-avenue-mareeba-qld-4880-2016843541,288000,is-sold,Sold by private treaty 09 Feb 2022,20220209,23 Langton Avenue,MAREEBA,QLD,4880,-17.0004482,145.4281,3,1,1,House,House,False,607,m2,False
2016858696,listing,/8-emerald-falls-road-mareeba-qld-4880-2016858696,324500,is-sold,Sold by private treaty 16 Feb 2022,20220216,8 Emerald Falls Road,MAREEBA,QLD,4880,-17.044632,145.522339,,,,Rural,Rural,True,33.83,ha,False
2016957067,listing,/208-george-fabris-road-mareeba-qld-4880-2016957067,1350000,is-sold,Sold by private treaty 23 Feb 2022,20220223,208 George Fabris Road,MAREEBA,QLD,4880,-17.0558338,145.393646,5,2,12,Rural,Rural,True,46.2,ha,False
2017141068,listing,/33-dean-circuit-mareeba-qld-4880-2017141068,,is-sold,Sold 17 Feb 2022,20220217,33 Dean Circuit,MAREEBA,QLD,4880,-17.0620384,145.42807,4,2,4,House,House,False,10140,m2,False
2017270123,listing,/7-leinster-drive-mareeba-qld-4880-2017270123,405000,is-sold,Sold by private treaty 15 Feb 2022,20220215,7 Leinster Drive,MAREEBA,QLD,4880,-17.0161819,145.434631,4,2,2,House,House,False,981,m2,False
2017353695,listing,/4-best-street-mareeba-qld-4880-2017353695,447000,is-sold,Sold by private treaty 25 Feb 2022,20220225,4 Best Street,MAREEBA,QLD,4880,-17.0153942,145.435928,3,2,2,House,House,False,1000,m2,False
2017405764,listing,/3-adams-street-mareeba-qld-4880-2017405764,360000,is-sold,Sold by private treaty 01 Mar 2022,20220301,3 Adams Street,MAREEBA,QLD,4880,-16.99254,145.41507,4,2,2,BlockOfUnits,Block of Units,False,640,m2,False
2017415300,listing,/10-kylie-close-mareeba-qld-4880-2017415300,375000,is-sold,Sold by private treaty 23 Feb 2022,20220223,10 Kylie Close,MAREEBA,QLD,4880,-17.0099277,145.410889,4,2,1,House,House,False,900,m2,False
2017429849,listing,/310-shanty-creek-road-biboohra-qld-4880-2017429849,1445000,is-sold,Sold by private treaty 09 Feb 2022,20220209,310 Shanty Creek Road,BIBOOHRA,QLD,4880,-16.92763,145.4302,5,3,,Rural,Rural,True,19.02,ha,False
2017439355,listing,/12-bilwon-road-biboohra-qld-4880-2017439355,290000,is-sold,Sold by private treaty 01 Mar 2022,20220301,12 Bilwon Road,BIBOOHRA,QLD,4880,-16.91722,145.420319,4,1,4,House,House,False,2911,m2,False
2017439982,listing,/143-emerald-heights-road-mareeba-qld-4880-2017439982,470000,is-sold,Sold by private treaty 21 Feb 2022,20220221,143 Emerald Heights Road,MAREEBA,QLD,4880,-17.0073948,145.484161,2,1,4,House,House,False,20200,m2,False
2017462935,listing,/84-summer-street-mareeba-qld-4880-2017462935,175000,is-sold,Sold by private treaty 10 Feb 2022,20220210,84 Summer Street,MAREEBA,QLD,4880,-17.0131836,145.4353,,,,VacantLand,Vacant land,False,3701,m2,False
2017476379,listing,/35-la-spina-road-mareeba-qld-4880-2017476379,675000,is-sold,Sold by private treaty 24 Feb 2022,20220224,35 La Spina Road,MAREEBA,QLD,4880,-17.0067711,145.397675,5,2,5,Rural,Rural,True,2.59,ha,False
2017544552,listing,/33-andre-street-mareeba-qld-4880-2017544552,120000,is-sold,Sold by private treaty 23 Feb 2022,20220223,33 Andre Street,MAREEBA,QLD,4880,-17.0191784,145.431488,,,,VacantLand,Vacant land,False,1056,m2,False
2017551681,listing,/lot-512-kennedy-highway-mareeba-qld-4880-2017551681,275000,is-sold,Sold by private treaty 08 Feb 2022,20220208,Lot 512 Kennedy Highway,MAREEBA,QLD,4880,-16.9973583,145.423065,,,,VacantLand,Vacant land,False,8385,m2,False
2017562578,listing,/32-summer-street-mareeba-qld-4880-2017562578,100000,is-sold,Sold by private treaty 23 Feb 2022,20220223,32 Summer Street,MAREEBA,QLD,4880,-17.0131836,145.4353,,,,VacantLand,Vacant land,False,969,m2,False
2017593145,listing,/15-bethel-close-mareeba-qld-4880-2017593145,360000,is-sold,Sold by private treaty 23 Feb 2022,20220223,15 Bethel Close,MAREEBA,QLD,4880,-17.0102654,145.4229,3,2,1,House,House,False,991,m2,False
2017624156,listing,/1-norman-street-mareeba-qld-4880-2017624156,775000,is-sold,Sold by private treaty 02 Mar 2022,20220302,1 Norman Street,MAREEBA,QLD,4880,-17.0489674,145.425537,4,2,6,House,House,False,4555,m2,False
2017628695,listing,/5-buffalo-close-mareeba-qld-4880-2017628695,645000,is-sold,Sold by private treaty 23 Feb 2022,20220223,5 Buffalo Close,MAREEBA,QLD,4880,-17.056385,145.429886,4,2,4,House,House,False,4000,m2,False
2014095772,listing,/6-swan-street-mareeba-qld-4880-2014095772,250000,is-sold,Sold by private treaty 28 Jan 2022,20220128,6 Swan Street,MAREEBA,QLD,4880,-16.9973869,145.415451,3,1,2,House,House,False,830,m2,False
2016133251,listing,/69-walsh-street-mareeba-qld-4880-2016133251,,is-sold,Sold by private treaty 28 Jan 2022,20220128,69 Walsh Street,MAREEBA,QLD,4880,-16.9854679,145.42157,1,1,1,House,House,False,1012,m2,False
2016867429,listing,/40-malone-road-mareeba-qld-4880-2016867429,570000,is-sold,Sold by private treaty 25 Jan 2022,20220125,40 Malone Road,MAREEBA,QLD,4880,-16.99753,145.469116,3,1,3,House,House,False,9995,m2,False
2016908461,listing,/562-tinaroo-creek-road-mareeba-qld-4880-2016908461,950000,is-sold,Sold by private treaty 27 Jan 2022,20220127,562 Tinaroo Creek Road,MAREEBA,QLD,4880,-17.0400543,145.473526,4,1,2,Rural,Rural,True,136.99,ha,False
2017270653,listing,/2-wylandra-drive-mareeba-qld-4880-2017270653,559000,is-sold,Sold by private treaty 24 Jan 2022,20220124,2 Wylandra Drive,MAREEBA,QLD,4880,-17.05225,145.427353,4,2,5,House,House,False,3413,m2,False
2017280651,listing,/10-robins-street-mareeba-qld-4880-2017280651,485000,is-sold,Sold by private treaty 31 Jan 2022,20220131,10 Robins Street,MAREEBA,QLD,4880,-16.98129,145.4209,5,3,2,House,House,False,2565,m2,False
2017280986,listing,/9-wren-close-mareeba-qld-4880-2017280986,445000,is-sold,Sold by private treaty 24 Jan 2022,20220124,9 Wren Close,MAREEBA,QLD,4880,-16.9982662,145.437012,4,2,4,House,House,False,1000,m2,False
2017286723,listing,/25-wylandra-drive-mareeba-qld-4880-2017286723,510000,is-sold,Sold by private treaty 27 Jan 2022,20220127,25 Wylandra Drive,MAREEBA,QLD,4880,-17.0612068,145.427231,4,2,3,AcreageSemiRural,Acreage / Semi-Rural,True,1.12,ha,False
2017316513,listing,/7-haren-street-mareeba-qld-4880-2017316513,115000,is-sold,Sold by private treaty 21 Jan 2022,20220121,7 Haren Street,MAREEBA,QLD,4880,-17.0085049,145.425827,,,,VacantLand,Vacant land,False,850,m2,False
2017418111,listing,/15-amaroo-drive-mareeba-qld-4880-2017418111,430000,is-sold,Sold by private treaty 25 Jan 2022,20220125,15 Amaroo Drive,MAREEBA,QLD,4880,-16.992897,145.4372,4,2,2,House,House,False,900,m2,False
2017435673,listing,/5-barrett-street-mareeba-qld-4880-2017435673,625000,is-sold,Sold by private treaty 21 Jan 2022,20220121,5 Barrett Street,MAREEBA,QLD,4880,-16.9713726,145.413284,3,2,4,House,House,False,4429,m2,False
2017451845,listing,/11-jannali-court-mareeba-qld-4880-2017451845,580000,is-sold,Sold by private treaty 01 Feb 2022,20220201,11 Jannali Court,MAREEBA,QLD,4880,-16.9955711,145.439789,4,2,2,House,House,False,815,m2,False
2017451847,listing,/20-beames-street-mareeba-qld-4880-2017451847,569000,is-sold,Sold by private treaty 24 Jan 2022,20220124,20 Beames Street,MAREEBA,QLD,4880,-17.0123425,145.415344,4,1,6,AcreageSemiRural,Acreage / Semi-Rural,True,1.1,ha,False
2017467942,listing,/21-doyle-street-mareeba-qld-4880-2017467942,292000,is-sold,Sold by private treaty 28 Jan 2022,20220128,21 Doyle Street,MAREEBA,QLD,4880,-16.99205,145.416214,3,1,2,House,House,False,1080,m2,False
2017483822,listing,/55-barry-estate-mareeba-qld-4880-2017483822,115000,is-sold,Sold by private treaty 27 Jan 2022,20220127,55 Barry Estate,MAREEBA,QLD,4880,-16.9969521,145.4233,,,,VacantLand,Vacant land,False,1073,m2,False
2017488815,listing,/mareeba-qld-4880-2017488815,365000,is-sold,Sold by private treaty 03 Feb 2022,20220203,,MAREEBA,QLD,4880,-17.0175419,145.433212,3,1,2,House,House,False,830,m2,False
2017495641,listing,/mareeba-qld-4880-2017495641,,is-sold,Sold by private treaty 04 Feb 2022,20220204,,MAREEBA,QLD,4880,-16.9973583,145.423065,4,2,2,Duplex,Duplex,False,769,m2,False
2017502675,listing,/8-wilson-street-mareeba-qld-4880-2017502675,258000,is-sold,Sold by private treaty 08 Feb 2022,20220208,8 Wilson Street,MAREEBA,QLD,4880,-16.9792976,145.422043,3,1,2,House,House,False,1012,m2,False
2017534894,listing,/andre-mareeba-qld-4880-2017534894,195000,is-sold,Sold by private treaty 31 Jan 2022,20220131,Andre,MAREEBA,QLD,4880,-17.0184689,145.431717,1,1,,House,House,False,991,m2,False
2017572930,listing,/18-godwin-drive-mareeba-qld-4880-2017572930,415000,is-sold,Sold by private treaty 04 Feb 2022,20220204,18 Godwin Drive,MAREEBA,QLD,4880,-17.0156155,145.436676,3,2,2,House,House,False,1020,m2,False
2014919286,listing,/lot-2-4497-kennedy-highway-mareeba-qld-4880-2014919286,235000,is-sold,Sold by private treaty 13 Jan 2022,20220113,Lot 2 / 4497 Kennedy Highway,MAREEBA,QLD,4880,-16.99923,145.4609,,,,VacantLand,Vacant land,True,1.51,ha,False
2016565558,listing,/lot-240-antonio-drive-mareeba-qld-4880-2016565558,449000,is-sold,Sold by private treaty 01 Jan 2022,20220101,Lot 240 Antonio Drive,MAREEBA,QLD,4880,-17.00854,145.429749,4,2,2,House,House,False,981,m2,False
2017071010,listing,/mareeba-qld-4880-2017071010,230000,is-sold,Sold by private treaty 17 Jan 2022,20220117,,MAREEBA,QLD,4880,-16.9973583,145.423065,,,,VacantLand,Vacant land,False,7284,m2,False
2017111287,listing,/10-antonio-drive-mareeba-qld-4880-2017111287,900000,is-sold,Sold by private treaty 17 Jan 2022,20220117,10 Antonio Drive,MAREEBA,QLD,4880,-17.0088272,145.430679,5,3,2,House,House,False,1822,m2,False
2017227392,listing,/15-troughton-street-mareeba-qld-4880-2017227392,200000,is-sold,Sold by private treaty 12 Jan 2022,20220112,15 Troughton Street,MAREEBA,QLD,4880,-16.99374,145.417114,3,1,2,House,House,False,779,m2,False
2017228998,listing,/21-maria-close-mareeba-qld-4880-2017228998,150000,is-sold,Sold by private treaty 22 Dec 2021,20211222,21 Maria Close,MAREEBA,QLD,4880,-16.9961624,145.437469,,,,VacantLand,Vacant land,False,1435,m2,False
2017291774,listing,/37-vaughan-street-mareeba-qld-4880-2017291774,155000,is-sold,Sold by private treaty 19 Jan 2022,20220119,37 Vaughan Street,MAREEBA,QLD,4880,-16.9881573,145.414856,3,1,2,House,House,False,873,m2,False
2017294187,listing,/paddys-green-qld-4880-2017294187,475000,is-sold,Sold by private treaty 20 Jan 2022,20220120,,PADDYS GREEN,QLD,4880,-17.01613,145.3513,4,2,2,House,House,False,5000,m2,False
2017308375,listing,/4-caterina-close-mareeba-qld-4880-2017308375,565000,is-sold,Sold by private treaty 21 Dec 2021,20211221,4 Caterina Close,MAREEBA,QLD,4880,-17.0193787,145.429123,4,1,5,House,House,False,20234,m2,False
2017327357,listing,/9-iluka-street-mareeba-qld-4880-2017327357,265000,is-sold,Sold by private treaty 10 Jan 2022,20220110,9 Iluka Street,MAREEBA,QLD,4880,-17.0045662,145.4259,2,1,3,House,House,False,607,m2,False
2017329946,listing,/mareeba-qld-4880-2017329946,473400,is-sold,Sold by private treaty 24 Dec 2021,20211224,,MAREEBA,QLD,4880,-16.9973583,145.423065,3,2,2,House,House,False,3379,m2,False
2017341773,listing,/mareeba-qld-4880-2017341773,240000,is-sold,Sold by private treaty 18 Jan 2022,20220118,,MAREEBA,QLD,4880,-17.0051384,145.421768,3,1,1,House,House,False,607,m2,False
2017346673,listing,/11-ceola-drive-mareeba-qld-4880-2017346673,375000,is-sold,Sold by private treaty 23 Dec 2021,20211223,11 Ceola Drive,MAREEBA,QLD,4880,-17.0005169,145.43779,3,1,4,House,House,False,948,m2,False
2017362627,listing,/31-walsh-street-mareeba-qld-4880-2017362627,305000,is-sold,Sold by private treaty 19 Jan 2022,20220119,31 Walsh Street,MAREEBA,QLD,4880,-16.9814548,145.423523,3,1,2,House,House,False,799,m2,False
2017363709,listing,/22-petersen-street-mareeba-qld-4880-2017363709,190050,is-sold,Sold by private treaty 17 Jan 2022,20220117,22 Petersen Street,MAREEBA,QLD,4880,-16.9808846,145.42305,3,1,1,House,House,False,1055,m2,False
2017376528,listing,/6-seary-road-mareeba-qld-4880-2017376528,390000,is-sold,Sold by private treaty 22 Dec 2021,20211222,6 Seary Road,MAREEBA,QLD,4880,-17.0182934,145.435242,3,1,1,House,House,False,1031,m2,False
2017411928,listing,/33-jebreen-street-mareeba-qld-4880-2017411928,250000,is-sold,Sold by private treaty 12 Jan 2022,20220112,33 Jebreen Street,MAREEBA,QLD,4880,-17.0065632,145.4205,3,1,1,House,House,False,599,m2,False
2017442284,listing,/10-moondani-avenue-mareeba-qld-4880-2017442284,140000,is-sold,Sold by private treaty 22 Dec 2021,20211222,10 Moondani Avenue,MAREEBA,QLD,4880,-16.99323,145.4418,,,,VacantLand,Vacant land,False,1140,m2,False
2017533703,listing,/proposed-lot-44-summer-street-mareeba-qld-4880-2017533703,102000,is-sold,Sold by private treaty 11 Jan 2022,20220111,Proposed Lot 44 Summer Street,MAREEBA,QLD,4880,-17.0131836,145.4353,,,,VacantLand,Vacant land,False,1001,m2,False
2017533704,listing,/4-trevarthan-close-mareeba-qld-4880-2017533704,300000,is-sold,Sold by private treaty 12 Jan 2022,20220112,4 Trevarthan Close,MAREEBA,QLD,4880,-16.9939041,145.428009,3,1,1,House,House,False,1217,m2,False
2016105675,listing,/mareeba-qld-4880-2016105675,316000,is-sold,Sold by private treaty 17 Dec 2021,20211217,,MAREEBA,QLD,4880,-17.001936,145.438858,4,1,2,House,House,False,800,m2,False
2016288001,listing,/241-sebastiano-close-mareeba-qld-4880-2016288001,118000,is-sold,Sold by private treaty 15 Dec 2021,20211215,241 Sebastiano Close,MAREEBA,QLD,4880,-17.0140839,145.457367,,,,VacantLand,Vacant land,False,926,m2,False
2016523366,listing,/11-donlen-street-mareeba-qld-4880-2016523366,362000,is-sold,Sold by private treaty 15 Dec 2021,20211215,11 Donlen Street,MAREEBA,QLD,4880,-17.0146637,145.4278,3,1,2,House,House,False,800,m2,False
2016540144,listing,/242-sebastiano-close-mareeba-qld-4880-2016540144,120000,is-sold,Sold by private treaty 15 Dec 2021,20211215,242 Sebastiano Close,MAREEBA,QLD,4880,-16.9886227,145.385,,,,VacantLand,Vacant land,False,926,m2,False
2016548512,listing,/243-sebastiano-close-mareeba-qld-4880-2016548512,117000,is-sold,Sold by private treaty 15 Dec 2021,20211215,243 Sebastiano Close,MAREEBA,QLD,4880,-16.9909649,145.422333,,,,VacantLand,Vacant land,False,926,m2,False
2016559980,listing,/244-sebastiano-close-mareeba-qld-4880-2016559980,120000,is-sold,Sold by private treaty 15 Dec 2021,20211215,244 Sebastiano Close,MAREEBA,QLD,4880,-16.9909649,145.422333,,,,VacantLand,Vacant land,False,827,m2,False
2016576612,listing,/246-sebastiano-close-mareeba-qld-4880-2016576612,120000,is-sold,Sold by private treaty 15 Dec 2021,20211215,246 Sebastiano Close,MAREEBA,QLD,4880,-16.9886227,145.385,,,,VacantLand,Vacant land,False,1039,m2,False
2016588634,listing,/247-sebastiano-close-mareeba-qld-4880-2016588634,121000,is-sold,Sold by private treaty 15 Dec 2021,20211215,247 Sebastiano Close,MAREEBA,QLD,4880,-16.9909649,145.422333,,,,VacantLand,Vacant land,False,969,m2,False
2016604188,listing,/248-sebastiano-close-mareeba-qld-4880-2016604188,125000,is-sold,Sold by private treaty 15 Dec 2021,20211215,248 Sebastiano Close,MAREEBA,QLD,4880,-16.9886227,145.385,,,,VacantLand,Vacant land,False,1063,m2,False
2016640658,listing,/249-sebastiano-close-mareeba-qld-4880-2016640658,125000,is-sold,Sold by private treaty 15 Dec 2021,20211215,249 Sebastiano Close,MAREEBA,QLD,4880,-16.9886227,145.385,,,,VacantLand,Vacant land,False,1339,m2,False
2016641104,listing,/251-sebastiano-close-mareeba-qld-4880-2016641104,120000,is-sold,Sold by private treaty 15 Dec 2021,20211215,251 Sebastiano Close,MAREEBA,QLD,4880,-16.9909649,145.422333,,,,VacantLand,Vacant land,False,954,m2,False
2016659378,listing,/250-sebastiano-close-mareeba-qld-4880-2016659378,120000,is-sold,Sold by private treaty 15 Dec 2021,20211215,250 Sebastiano Close,MAREEBA,QLD,4880,-16.9886227,145.385,,,,VacantLand,Vacant land,False,1010,m2,False
2016813427,listing,/18-michelina-close-mareeba-qld-4880-2016813427,442000,is-sold,Sold by private treaty 15 Dec 2021,20211215,18 Michelina Close,MAREEBA,QLD,4880,-17.0103779,145.429977,4,2,2,House,House,False,901,m2,False
2017037425,listing,/2-river-road-biboohra-qld-4880-2017037425,209000,is-sold,Sold by private treaty 20 Dec 2021,20211220,2 River Road,BIBOOHRA,QLD,4880,-16.9125633,145.417648,,,,VacantLand,Vacant land,False,40468,m2,False
2017166250,listing,/8-byrnes-road-mareeba-qld-4880-2017166250,435000,is-sold,Sold by private treaty 15 Dec 2021,20211215,8 Byrnes Road,MAREEBA,QLD,4880,-17.0151062,145.36351,4,2,4,Rural,Rural,True,6813,m2,False
2017188668,listing,/5707-kennedy-highway-mareeba-qld-4880-2017188668,1115000,is-sold,Sold by private treaty 15 Dec 2021,20211215,5707 Kennedy Highway,MAREEBA,QLD,4880,-17.0791664,145.439774,4,3,9,AcreageSemiRural,Acreage / Semi-Rural,True,14.03,ha,False
2017302596,listing,/9-kennedy-street-mareeba-qld-4880-2017302596,255000,is-sold,Sold by private treaty 15 Dec 2021,20211215,9 Kennedy Street,MAREEBA,QLD,4880,-17.00595,145.423859,2,1,2,House,House,False,1077,m2,False
2017326167,listing,/6-quill-street-mareeba-qld-4880-2017326167,320000,is-sold,Sold by private treaty 20 Dec 2021,20211220,6 Quill Street,MAREEBA,QLD,4880,-16.99403,145.427109,3,1,1,House,House,False,1230,m2,False
2017404122,listing,/968-bilwon-road-biboohra-qld-4880-2017404122,429000,is-sold,Sold by private treaty 20 Dec 2021,20211220,968 Bilwon Road,BIBOOHRA,QLD,4880,-16.85797,145.443222,2,1,2,Rural,Rural,True,12.88,ha,False
2017491334,listing,/2-kearney-street-mareeba-qld-4880-2017491334,345000,is-sold,Sold by private treaty 16 Dec 2021,20211216,2 Kearney Street,MAREEBA,QLD,4880,-16.9838619,145.419449,3,1,4,House,House,False,2241,m2,False
2014169387,listing,/3-emerald-heights-road-mareeba-qld-4880-2014169387,515000,is-sold,Sold by private treaty 07 Dec 2021,20211207,3 Emerald Heights Road,MAREEBA,QLD,4880,-17.0021553,145.471588,4,2,2,AcreageSemiRural,Acreage / Semi-Rural,True,2,ha,False
2014388958,listing,/100-tilse-street-mareeba-qld-4880-2014388958,,is-sold,Sold by private treaty 26 Nov 2021,20211126,100 Tilse Street,MAREEBA,QLD,4880,-17.0126266,145.412277,,,,VacantLand,Vacant land,False,43179,m2,False
2016173025,listing,/310-bellevue-close-mareeba-qld-4880-2016173025,225000,is-sold,Sold by private treaty 09 Dec 2021,20211209,310 Bellevue Close,MAREEBA,QLD,4880,-16.9967422,145.42334,,,,VacantLand,Vacant land,False,21800,m2,False
2017037424,listing,/1-river-road-biboohra-qld-4880-2017037424,300000,is-sold,Sold by private treaty 01 Dec 2021,20211201,1 River Road,BIBOOHRA,QLD,4880,-16.9125633,145.417648,,,,VacantLand,Vacant land,False,50383,m2,False
2017064621,listing,/25-country-road-mareeba-qld-4880-2017064621,495000,is-sold,Sold by private treaty 29 Nov 2021,20211129,25 Country Road,MAREEBA,QLD,4880,-16.9804249,145.442657,3,2,2,House,House,False,4991,m2,False
2017151728,listing,/13-eccles-street-mareeba-qld-4880-2017151728,265000,is-sold,Sold by private treaty 07 Dec 2021,20211207,13 Eccles Street,MAREEBA,QLD,4880,-16.9862022,145.4227,3,1,1,House,House,False,1545,m2,False
2017151800,listing,/3-trevarthen-close-mareeba-qld-4880-2017151800,305000,is-sold,Sold by private treaty 02 Dec 2021,20211202,3 Trevarthen Close,MAREEBA,QLD,4880,-16.9936428,145.427948,3,1,2,House,House,False,802,m2,False
2017241765,listing,/73-emerald-heights-road-mareeba-qld-4880-2017241765,565000,is-sold,Sold by private treaty 29 Nov 2021,20211129,73 Emerald Heights Road,MAREEBA,QLD,4880,-17.0041714,145.477661,4,1,4,House,House,False,20000,m2,False
2017247893,listing,/mareeba-qld-4880-2017247893,175000,is-sold,Sold by private treaty 01 Dec 2021,20211201,,MAREEBA,QLD,4880,-17.01113,145.427673,2,1,1,ApartmentUnitFlat,Apartment / Unit / Flat,False,0,m2,False
2017283136,listing,/14-eccles-street-mareeba-qld-4880-2017283136,270000,is-sold,Sold by private treaty 30 Nov 2021,20211130,14 Eccles Street,MAREEBA,QLD,4880,-16.9868031,145.422913,3,1,1,House,House,False,830,m2,False
2017292318,listing,/10-sunbird-parade-mareeba-qld-4880-2017292318,435000,is-sold,Sold by private treaty 09 Dec 2021,20211209,10 Sunbird Parade,MAREEBA,QLD,4880,-16.99728,145.436432,4,2,2,House,House,False,968,m2,False
2017301090,listing,/13-wilson-street-mareeba-qld-4880-2017301090,377020,is-sold,Sold by private treaty 24 Nov 2021,20211124,13 Wilson Street,MAREEBA,QLD,4880,-16.9790726,145.422745,3,1,3,House,House,False,1029,m2,False
2017337188,listing,/20-yarrabee-close-mareeba-qld-4880-2017337188,485000,is-sold,Sold by private treaty 13 Dec 2021,20211213,20 Yarrabee Close,MAREEBA,QLD,4880,-16.9943314,145.438339,4,2,2,House,House,False,950,m2,False
2017355979,listing,/lot-6-country-road-mareeba-qld-4880-2017355979,150000,is-sold,Sold by private treaty 14 Dec 2021,20211214,Lot 6 Country Road,MAREEBA,QLD,4880,-16.9804249,145.442657,,,,NewLand,New land,False,4001,m2,False
2017364219,listing,/15-haren-street-mareeba-qld-4880-2017364219,420000,is-sold,Sold by private treaty 14 Dec 2021,20211214,15 Haren Street,MAREEBA,QLD,4880,-17.0082836,145.426865,4,2,2,House,House,False,812,m2,False
2017370285,listing,/8-casey-street-mareeba-qld-4880-2017370285,315000,is-sold,Sold by private treaty 14 Dec 2021,20211214,8 Casey Street,MAREEBA,QLD,4880,-17.0000286,145.419327,3,1,2,House,House,False,850,m2,False
2017409926,listing,/154-hastie-road-mareeba-qld-4880-2017409926,485000,is-sold,Sold by private treaty 10 Dec 2021,20211210,154 Hastie Road,MAREEBA,QLD,4880,-16.99543,145.439346,4,2,2,House,House,False,840,m2,False
2017416054,listing,/mareeba-qld-4880-2017416054,375000,is-sold,Sold by private treaty 26 Nov 2021,20211126,,MAREEBA,QLD,4880,-17.0113583,145.411392,3,2,,House,House,False,1487,m2,False
2017471649,listing,/7-iluka-street-mareeba-qld-4880-2017471649,265000,is-sold,Sold by private treaty 02 Dec 2021,20211202,7 Iluka Street,MAREEBA,QLD,4880,-17.0044136,145.425949,2,1,1,House,House,False,885,m2,False
2017646185,listing,/629-bilwon-road-biboohra-qld-4880-2017646185,,is-sold,Sold by private treaty 24 Nov 2021,20211124,629 Bilwon Road,BIBOOHRA,QLD,4880,-16.8747787,145.420959,3,1,2,AcreageSemiRural,Acreage / Semi-Rural,True,7.18,ha,False
2016366960,listing,/mareeba-qld-4880-2016366960,,is-sold,Sold by private treaty 04 Nov 2021,20211104,,MAREEBA,QLD,4880,-17.001936,145.438858,2,1,1,House,House,False,696,m2,False
2016944870,listing,/6a-molloy-street-mareeba-qld-4880-2016944870,295000,is-sold,Sold by private treaty 15 Nov 2021,20211115,6A Molloy Street,MAREEBA,QLD,4880,-16.9975586,145.42865,3,2,2,House,House,False,1232,m2,False
2017044938,listing,/326-byrnes-street-mareeba-qld-4880-2017044938,220000,is-sold,Sold by private treaty 05 Nov 2021,20211105,326 Byrnes Street,MAREEBA,QLD,4880,-17.007267,145.4246,3,1,1,House,House,False,1189,m2,False
2017049944,listing,/6-gibbins-lane-mareeba-qld-4880-2017049944,245000,is-sold,Sold by private treaty 03 Nov 2021,20211103,6 Gibbins Lane,MAREEBA,QLD,4880,-17.0070286,145.410538,,,,VacantLand,Vacant land,False,1802,m2,False
2017070232,listing,/13-couper-street-mareeba-qld-4880-2017070232,260000,is-sold,Sold by private treaty 09 Nov 2021,20211109,13 Couper Street,MAREEBA,QLD,4880,-16.9842949,145.42067,4,1,4,House,House,False,703,m2,False
2017163002,listing,/296-chewko-road-mareeba-qld-4880-2017163002,440000,is-sold,Sold by private treaty 08 Nov 2021,20211108,296 Chewko Road,MAREEBA,QLD,4880,-17.01553,145.397934,4,1,4,House,House,False,21700,m2,False
2017226167,listing,/15-river-drive-mareeba-qld-4880-2017226167,480000,is-sold,Sold by private treaty 08 Nov 2021,20211108,15 River Drive,MAREEBA,QLD,4880,-17.00623,145.437012,4,2,2,House,House,False,1258,m2,False
2017236022,listing,/36-la-spina-road-mareeba-qld-4880-2017236022,855000,is-sold,Sold by private treaty 22 Nov 2021,20211122,36 La Spina Road,MAREEBA,QLD,4880,-17.0068226,145.399963,6,2,6,House,House,False,21165,m2,False
2017255832,listing,/18-lloyd-street-mareeba-qld-4880-2017255832,262500,is-sold,Sold by private treaty 09 Nov 2021,20211109,18 Lloyd Street,MAREEBA,QLD,4880,-16.98785,145.425247,3,1,2,House,House,False,664,m2,False
2017280921,listing,/30-jacana-close-mareeba-qld-4880-2017280921,450000,is-sold,Sold by private treaty 16 Nov 2021,20211116,30 Jacana Close,MAREEBA,QLD,4880,-16.9957638,145.435181,5,2,2,House,House,False,1107,m2,False
2017293411,listing,/18-strattmann-street-mareeba-qld-4880-2017293411,172500,is-sold,Sold by private treaty 12 Nov 2021,20211112,18 Strattmann Street,MAREEBA,QLD,4880,-16.99271,145.419937,2,1,1,House,House,False,607,m2,False
2017298749,listing,/19-rains-street-mareeba-qld-4880-2017298749,340000,is-sold,Sold by private treaty 04 Nov 2021,20211104,19 Rains Street,MAREEBA,QLD,4880,-17.0112743,145.422653,3,1,1,House,House,False,839,m2,False
2017300248,listing,/1-martin-avenue-mareeba-qld-4880-2017300248,355000,is-sold,Sold by private treaty 04 Nov 2021,20211104,1 Martin Avenue,MAREEBA,QLD,4880,-17.0140572,145.426727,4,1,1,House,House,False,832,m2,False
2017319775,listing,/83-summer-street-mareeba-qld-4880-2017319775,165000,is-sold,Sold by private treaty 11 Nov 2021,20211111,83 Summer Street,MAREEBA,QLD,4880,-17.0131836,145.4353,,,,VacantLand,Vacant land,False,3108,m2,False
2017329057,listing,/134-bilwon-road-biboohra-qld-4880-2017329057,375000,is-sold,Sold by private treaty 02 Nov 2021,20211102,134 Bilwon Road,BIBOOHRA,QLD,4880,-16.915163,145.425461,2,1,2,House,House,False,58274,m2,False
2017333426,listing,/46-doyle-street-mareeba-qld-4880-2017333426,235000,is-sold,Sold by private treaty 10 Nov 2021,20211110,46 Doyle Street,MAREEBA,QLD,4880,-16.9933872,145.414871,3,1,1,House,House,False,943,m2,False
2017347553,listing,/79-barry-estate-mareeba-qld-4880-2017347553,106500,is-sold,Sold by private treaty 09 Nov 2021,20211109,79 Barry Estate,MAREEBA,QLD,4880,-16.9954586,145.423,,,,VacantLand,Vacant land,False,1071,m2,False
2017388324,listing,/208-antonio-drive-mareeba-qld-4880-2017388324,133000,is-sold,Sold by private treaty 15 Nov 2021,20211115,208 Antonio Drive,MAREEBA,QLD,4880,-17.00854,145.429749,,,,VacantLand,Vacant land,False,901,m2,False
2017404098,listing,/110-constance-street-mareeba-qld-4880-2017404098,250000,is-sold,Sold by private treaty 18 Nov 2021,20211118,110 Constance Street,MAREEBA,QLD,4880,-17.0011444,145.425949,2,1,,House,House,False,875,m2,False
2017435243,listing,/236-walsh-street-mareeba-qld-4880-2017435243,310000,is-sold,Sold by private treaty 22 Nov 2021,20211122,236 Walsh Street,MAREEBA,QLD,4880,-17.00176,145.424683,4,1,1,House,House,False,2023,m2,False
2016353366,listing,/1-michelina-close-mareeba-qld-4880-2016353366,427500,is-sold,Sold by private treaty 18 Oct 2021,20211018,1 Michelina Close,MAREEBA,QLD,4880,-17.0088768,145.430267,4,2,2,House,House,False,901,m2,False
2016462738,listing,/5-la-spina-road-mareeba-qld-4880-2016462738,210000,is-sold,Sold by private treaty 22 Oct 2021,20211022,5 La Spina Road,MAREEBA,QLD,4880,-17.0089664,145.397,,,,VacantLand,Vacant land,False,20400,m2,False
2016496189,listing,/lot-5-rodeo-close-mareeba-qld-4880-2016496189,,is-sold,Sold by private treaty 25 Oct 2021,20211025,Lot 5 Rodeo Close,MAREEBA,QLD,4880,-16.9924583,145.394424,4,2,2,House,House,False,21448,m2,False
2016508314,listing,/5-stanley-street-mareeba-qld-4880-2016508314,330000,is-sold,Sold by private treaty 18 Oct 2021,20211018,5 Stanley Street,MAREEBA,QLD,4880,-16.9794617,145.423523,3,2,4,House,House,False,1621,m2,False
2016567324,listing,/245-sebastiano-close-mareeba-qld-4880-2016567324,120000,is-sold,Sold by private treaty 31 Oct 2021,20211031,245 Sebastiano Close,MAREEBA,QLD,4880,-16.9909649,145.422333,,,,VacantLand,Vacant land,False,926,m2,False
2016659400,listing,/252-sebastiano-close-mareeba-qld-4880-2016659400,122000,is-sold,Sold by private treaty 02 Nov 2021,20211102,252 Sebastiano Close,MAREEBA,QLD,4880,-16.9909649,145.422333,,,,VacantLand,Vacant land,False,929,m2,False
2016659411,listing,/253-sebastiano-close-mareeba-qld-4880-2016659411,119000,is-sold,Sold by private treaty 29 Oct 2021,20211029,253 Sebastiano Close,MAREEBA,QLD,4880,-16.9886227,145.385,,,,VacantLand,Vacant land,False,929,m2,False
2016874711,listing,/2-martin-avenue-mareeba-qld-4880-2016874711,460000,is-sold,Sold by private treaty 01 Nov 2021,20211101,2 Martin Avenue,MAREEBA,QLD,4880,-17.0142727,145.4268,4,2,3,House,House,False,759,m2,False
2016980424,listing,/3-meehan-street-mareeba-qld-4880-2016980424,265000,is-sold,Sold by private treaty 29 Oct 2021,20211029,3 Meehan Street,MAREEBA,QLD,4880,-17.01099,145.427155,3,1,1,House,House,False,769,m2,False
2017097009,listing,/38-ceola-drive-mareeba-qld-4880-2017097009,462000,is-sold,Sold by private treaty 01 Nov 2021,20211101,38 Ceola Drive,MAREEBA,QLD,4880,-16.9965973,145.439392,4,2,4,House,House,False,855,m2,False
2017126620,listing,/76-kenneally-road-mareeba-qld-4880-2017126620,380000,is-sold,Sold by private treaty 18 Oct 2021,20211018,76 Kenneally Road,MAREEBA,QLD,4880,-17.0172157,145.43338,4,2,2,House,House,False,966,m2,False
2017184728,listing,/86-kenneally-road-mareeba-qld-4880-2017184728,385000,is-sold,Sold by private treaty 20 Oct 2021,20211020,86 Kenneally Road,MAREEBA,QLD,4880,-17.01724,145.434326,4,2,2,House,House,False,1000,m2,False
2017187940,listing,/14-dickson-street-mareeba-qld-4880-2017187940,305000,is-sold,Sold by private treaty 27 Oct 2021,20211027,14 Dickson Street,MAREEBA,QLD,4880,-16.98245,145.421234,4,1,1,House,House,False,1012,m2,False
2017198935,listing,/10-wilson-street-mareeba-qld-4880-2017198935,249000,is-sold,Sold by private treaty 25 Oct 2021,20211025,10 Wilson Street,MAREEBA,QLD,4880,-16.9793,145.422272,2,1,1,House,House,False,1012,m2,False
2017230080,listing,/20-pares-street-mareeba-qld-4880-2017230080,350000,is-sold,Sold by private treaty 22 Oct 2021,20211022,20 Pares Street,MAREEBA,QLD,4880,-16.9978867,145.426636,3,1,5,House,House,False,1004,m2,False
2017244505,listing,/70-kenneally-road-mareeba-qld-4880-2017244505,345000,is-sold,Sold by private treaty 29 Oct 2021,20211029,70 Kenneally Road,MAREEBA,QLD,4880,-17.016634,145.432434,3,1,2,House,House,False,997,m2,False
2017275526,listing,/4-33-strattmann-street-mareeba-qld-4880-2017275526,238000,is-sold,Sold by private treaty 30 Oct 2021,20211030,4/33 Strattmann Street,MAREEBA,QLD,4880,-16.9946346,145.420761,2,1,2,ApartmentUnitFlat,Apartment / Unit / Flat,False,192,m2,False
2017377834,listing,/9-mountain-view-close-mareeba-qld-4880-2017377834,352500,is-sold,Sold by private treaty 26 Oct 2021,20211026,9 Mountain View Close,MAREEBA,QLD,4880,-17.0203781,145.434677,3,1,2,House,House,False,883,m2,False
2017538539,listing,/19-amaroo-drive-mareeba-qld-4880-2017538539,525000,is-sold,Sold by private treaty 27 Oct 2021,20211027,19 Amaroo Drive,MAREEBA,QLD,4880,-16.9913845,145.435989,5,2,3,House,House,False,1004,m2,False
2017929395,listing,/5-clinton-close-mareeba-qld-4880-2017929395,293000,is-sold,Sold by private treaty 19 Oct 2021,20211019,5 Clinton Close,MAREEBA,QLD,4880,-17.010294,145.410934,3,1,1,House,House,False,1017,m2,False
2013372407,listing,/mareeba-qld-4880-2013372407,,is-sold,Sold by private treaty 18 Oct 2021,20211018,,MAREEBA,QLD,4880,-17.001936,145.438858,,,,VacantLand,Vacant land,False,3500,m2,False
2013914191,listing,/2-josephine-close-mareeba-qld-4880-2013914191,855000,is-sold,Sold by private treaty 29 Sep 2021,20210929,2 Josephine Close,MAREEBA,QLD,4880,-17.06146,145.43161,7,3,5,House,House,False,5337,m2,False
2015828772,listing,/7-salihe-avenue-mareeba-qld-4880-2015828772,455000,is-sold,Sold by private treaty 30 Sep 2021,20210930,7 Salihe Avenue,MAREEBA,QLD,4880,-17.0147381,145.422287,3,1,2,House,House,False,4222,m2,False
2016767202,listing,/4-2-4-strattmann-street-mareeba-qld-4880-2016767202,240000,is-sold,Sold by private treaty 05 Oct 2021,20211005,4/2-4 Strattmann Street,MAREEBA,QLD,4880,-16.9914875,145.419586,2,1,2,ApartmentUnitFlat,Apartment / Unit / Flat,False,101,m2,False
2016996795,listing,/19-anzac-avenue-mareeba-qld-4880-2016996795,352500,is-sold,Sold by private treaty 14 Oct 2021,20211014,19 Anzac Avenue,MAREEBA,QLD,4880,-17.00053,145.4327,4,2,2,House,House,False,964,m2,False
2017003802,listing,/mareeba-qld-4880-2017003802,,is-sold,Sold by private treaty 29 Sep 2021,20210929,,MAREEBA,QLD,4880,-16.9973583,145.423065,4,2,2,Rural,Rural,True,2.02,ha,False
2017097485,listing,/4-frigate-close-mareeba-qld-4880-2017097485,414000,is-sold,Sold by private treaty 15 Oct 2021,20211015,4 Frigate Close,MAREEBA,QLD,4880,-16.9970951,145.434937,4,2,2,House,House,False,816,m2,False
2017112996,listing,/200-river-road-biboohra-qld-4880-2017112996,275000,is-sold,Sold by private treaty 11 Oct 2021,20211011,200 River Road,BIBOOHRA,QLD,4880,-16.8952389,145.420822,4,2,2,House,House,False,1588,m2,False
2017144022,listing,/17-riverlands-drive-mareeba-qld-4880-2017144022,535000,is-sold,Sold by private treaty 14 Oct 2021,20211014,17 Riverlands Drive,MAREEBA,QLD,4880,-17.0050716,145.443375,4,2,2,House,House,False,3044,m2,False
2017144848,listing,/100-kenneally-road-mareeba-qld-4880-2017144848,357500,is-sold,Sold by private treaty 13 Oct 2021,20211013,100 Kenneally Road,MAREEBA,QLD,4880,-17.0176888,145.435516,3,2,1,House,House,False,1000,m2,False
2017155778,listing,/2-stewart-st-mareeba-qld-4880-2017155778,,is-sold,Sold by private treaty 18 Oct 2021,20211018,2 Stewart St,MAREEBA,QLD,4880,-16.9984913,145.41777,4,2,1,House,House,False,835,m2,False
2017159849,listing,/5-brown-street-biboohra-qld-4880-2017159849,450000,is-sold,Sold by private treaty 06 Oct 2021,20211006,5 Brown Street,BIBOOHRA,QLD,4880,-16.9147854,145.4196,4,2,3,House,House,False,10117,m2,False
2017177388,listing,/31-langton-avenue-mareeba-qld-4880-2017177388,325000,is-sold,Sold by private treaty 05 Oct 2021,20211005,31 Langton Avenue,MAREEBA,QLD,4880,-17.00058,145.427475,3,1,2,House,House,False,607,m2,False
2017197455,listing,/16-jacana-close-mareeba-qld-4880-2017197455,452000,is-sold,Sold by private treaty 05 Oct 2021,20211005,16 Jacana Close,MAREEBA,QLD,4880,-16.9961281,145.436646,4,2,5,House,House,False,918,m2,False
2017208872,listing,/25-kearney-street-mareeba-qld-4880-2017208872,285000,is-sold,Sold by private treaty 01 Oct 2021,20211001,25 Kearney Street,MAREEBA,QLD,4880,-16.9830074,145.42308,3,1,1,House,House,False,1024,m2,False
2017217126,listing,/15-parklands-circuit-mareeba-qld-4880-2017217126,225000,is-sold,Sold by private treaty 05 Oct 2021,20211005,15 Parklands Circuit,MAREEBA,QLD,4880,-17.0066948,145.443542,,,,VacantLand,Vacant land,False,3618,m2,False
2017234913,listing,/9-middlemiss-street-mareeba-qld-4880-2017234913,375000,is-sold,Sold by private treaty 15 Oct 2021,20211015,9 Middlemiss Street,MAREEBA,QLD,4880,-16.9906921,145.423767,4,2,2,BlockOfUnits,Block of Units,False,607,m2,False
2017250608,listing,/16-maria-close-mareeba-qld-4880-2017250608,700000,is-sold,Sold by private treaty 07 Oct 2021,20211007,16 Maria Close,MAREEBA,QLD,4880,-16.9959412,145.437347,5,3,3,House,House,False,2643,m2,False
2017264235,listing,/160-hastie-road-mareeba-qld-4880-2017264235,660000,is-sold,Sold by private treaty 30 Sep 2021,20210930,160 Hastie Road,MAREEBA,QLD,4880,-16.9957943,145.439728,4,3,4,House,House,False,3153,m2,False
2017337831,listing,/18-beames-street-mareeba-qld-4880-2017337831,445000,is-sold,Sold by private treaty 15 Oct 2021,20211015,18 Beames Street,MAREEBA,QLD,4880,-17.0116673,145.414734,3,2,4,House,House,True,1.01,ha,False
2012994335,listing,/7-dillon-street-mareeba-qld-4880-2012994335,290000,is-sold,Sold by private treaty 21 Sep 2021,20210921,7 Dillon Street,MAREEBA,QLD,4880,-16.99444,145.409027,4,2,1,House,House,False,703,m2,False
2016503488,listing,/13-jamieson-street-mareeba-qld-4880-2016503488,540000,is-sold,Sold by private treaty 10 Sep 2021,20210910,13 Jamieson Street,MAREEBA,QLD,4880,-17.015831,145.430847,3,2,9,House,House,False,3374,m2,False
2016739379,listing,/4-lannoy-street-mareeba-qld-4880-2016739379,275000,is-sold,Sold by private treaty 10 Sep 2021,20210910,4 Lannoy Street,MAREEBA,QLD,4880,-17.0134277,145.429657,3,1,1,House,House,False,883,m2,False
2016807412,listing,/mareeba-qld-4880-2016807412,840000,is-sold,Sold by private treaty 13 Sep 2021,20210913,,MAREEBA,QLD,4880,-16.9894581,145.426865,4,3,2,House,House,True,1.06,ha,False
2016816668,listing,/21-palm-close-mareeba-qld-4880-2016816668,357000,is-sold,Sold by private treaty 13 Sep 2021,20210913,21 Palm Close,MAREEBA,QLD,4880,-17.0003529,145.433426,4,2,2,House,House,False,800,m2,False
2016894533,listing,/60-summer-street-mareeba-qld-4880-2016894533,130000,is-sold,Sold by private treaty 09 Sep 2021,20210909,60 Summer Street,MAREEBA,QLD,4880,-17.0131836,145.4353,,,,VacantLand,Vacant land,False,1475,m2,False
2016979857,listing,/48-atherton-street-mareeba-qld-4880-2016979857,190000,is-sold,Sold by private treaty 21 Sep 2021,20210921,48 Atherton Street,MAREEBA,QLD,4880,-16.992712,145.427658,3,1,,House,House,False,2023,m2,False
2017038552,listing,/232-river-road-biboohra-qld-4880-2017038552,420000,is-sold,Sold by private treaty 13 Sep 2021,20210913,232 River Road,BIBOOHRA,QLD,4880,-16.892065,145.419083,3,3,3,House,House,False,22783,m2,False
2017044813,listing,/170-pine-close-biboohra-qld-4880-2017044813,470000,is-sold,Sold by private treaty 14 Sep 2021,20210914,170 Pine Close,BIBOOHRA,QLD,4880,-16.8794022,145.440048,4,1,2,Rural,Rural,True,7.36,ha,False
2017082047,listing,/6-molloy-street-mareeba-qld-4880-2017082047,290000,is-sold,Sold by private treaty 16 Sep 2021,20210916,6 Molloy Street,MAREEBA,QLD,4880,-16.9976311,145.428329,3,1,1,House,House,False,905,m2,False
2017111131,listing,/74-summer-street-mareeba-qld-4880-2017111131,98000,is-sold,Sold by private treaty 10 Sep 2021,20210910,74 Summer Street,MAREEBA,QLD,4880,-17.0131836,145.4353,,,,VacantLand,Vacant land,False,1032,m2,False
2017112991,listing,/35-ceola-drive-mareeba-qld-4880-2017112991,318500,is-sold,Sold by private treaty 14 Sep 2021,20210914,35 Ceola Drive,MAREEBA,QLD,4880,-16.99788,145.439163,3,1,3,House,House,False,1439,m2,False
2017137785,listing,/17-ceola-drive-mareeba-qld-4880-2017137785,,is-sold,Sold by private treaty 27 Sep 2021,20210927,17 Ceola Drive,MAREEBA,QLD,4880,-17.0000076,145.438049,4,2,2,House,House,False,874,m2,False
2017150010,listing,/24-parklands-circuit-mareeba-qld-4880-2017150010,315000,is-sold,Sold by private treaty 15 Sep 2021,20210915,24 Parklands Circuit,MAREEBA,QLD,4880,-17.0075016,145.444382,,,,VacantLand,Vacant land,False,5290,m2,False
2017178644,listing,/18-yarrabee-close-mareeba-qld-4880-2017178644,485000,is-sold,Sold by private treaty 27 Sep 2021,20210927,18 Yarrabee Close,MAREEBA,QLD,4880,-16.9943314,145.438339,4,2,2,House,House,False,880,m2,False
2017225848,listing,/67-mason-street-mareeba-qld-4880-2017225848,236000,is-sold,Sold by private treaty 23 Sep 2021,20210923,67 Mason Street,MAREEBA,QLD,4880,-16.998703,145.4201,3,1,1,House,House,False,650,m2,False
2017228971,listing,/24-vaughan-street-mareeba-qld-4880-2017228971,279000,is-sold,Sold by private treaty 24 Sep 2021,20210924,24 Vaughan Street,MAREEBA,QLD,4880,-16.9906063,145.4113,3,1,4,House,House,False,708,m2,False
2017237518,listing,/3357-kennedy-highway-mareeba-qld-4880-2017237518,440000,is-sold,Sold by private treaty 20 Sep 2021,20210920,3357 Kennedy Highway,MAREEBA,QLD,4880,-16.96085,145.539551,3,1,2,Rural,Rural,True,1.96,ha,False
2017250135,listing,/86-barry-estate-mareeba-qld-4880-2017250135,105000,is-sold,Sold by private treaty 16 Sep 2021,20210916,86 Barry Estate,MAREEBA,QLD,4880,-16.9954586,145.423,,,,VacantLand,Vacant land,False,914,m2,False
2017251999,listing,/40-jacinta-crescent-mareeba-qld-4880-2017251999,650000,is-sold,Sold by private treaty 10 Sep 2021,20210910,40 Jacinta Crescent,MAREEBA,QLD,4880,-16.99972,145.442871,4,2,5,House,House,False,1637,m2,False
2014649349,listing,/2-11-middlemiss-street-mareeba-qld-4880-2014649349,257000,is-sold,Sold by private treaty 20 Aug 2021,20210820,2/11 Middlemiss Street,MAREEBA,QLD,4880,-16.9905834,145.424,2,1,2,ApartmentUnitFlat,Apartment / Unit / Flat,False,148,m2,False
2015358944,listing,/14-pares-street-mareeba-qld-4880-2015358944,295000,is-sold,Sold by private treaty 06 Sep 2021,20210906,14 Pares Street,MAREEBA,QLD,4880,-16.9973774,145.426682,3,1,1,House,House,False,1004,m2,False
2015439612,listing,/4-constance-street-mareeba-qld-4880-2015439612,370000,is-sold,Sold by private treaty 08 Sep 2021,20210908,4 Constance Street,MAREEBA,QLD,4880,-16.9892178,145.423859,6,2,4,House,House,False,1013,m2,False
2015719661,listing,/lot-306-bellevue-close-mareeba-qld-4880-2015719661,220000,is-sold,Sold by private treaty 23 Aug 2021,20210823,Lot 306 Bellevue Close,MAREEBA,QLD,4880,-16.9973583,145.423065,,,,VacantLand,Vacant land,True,2.02,ha,False
2016276157,listing,/258-8-antonio-drive-mareeba-qld-4880-2016276157,99000,is-sold,Sold by private treaty 02 Sep 2021,20210902,258/8 Antonio Drive,MAREEBA,QLD,4880,-17.0088577,145.430481,,,,VacantLand,Vacant land,False,911,m2,False
2016898451,listing,/2-dowie-street-mareeba-qld-4880-2016898451,360000,is-sold,Sold by private treaty 02 Sep 2021,20210902,2 Dowie Street,MAREEBA,QLD,4880,-16.9994164,145.415741,5,2,2,House,House,False,809,m2,False
2016902449,listing,/3393-kennedy-highway-mareeba-qld-4880-2016902449,549000,is-sold,Sold by private treaty 30 Aug 2021,20210830,3393 Kennedy Highway,MAREEBA,QLD,4880,-16.962677,145.53952,4,1,2,AcreageSemiRural,Acreage / Semi-Rural,True,2,ha,False
2016922351,listing,/1028-bilwon-road-biboohra-qld-4880-2016922351,370000,is-sold,Sold by private treaty 20 Aug 2021,20210820,1028 Bilwon Road,BIBOOHRA,QLD,4880,-16.8521614,145.445862,,,,VacantLand,Vacant land,False,303000,m2,False
2016923694,listing,/18-wylandra-drive-mareeba-qld-4880-2016923694,480000,is-sold,Sold by private treaty 02 Sep 2021,20210902,18 Wylandra Drive,MAREEBA,QLD,4880,-17.0562515,145.428,5,2,2,House,House,False,4000,m2,False
2017008151,listing,/6-rodeo-close-mareeba-qld-4880-2017008151,,is-sold,Sold by private treaty 01 Sep 2021,20210901,6 Rodeo Close,MAREEBA,QLD,4880,-17.00087,145.421738,,,,VacantLand,Vacant land,False,20300,m2,False
2017037423,listing,/2-232-river-road-biboohra-qld-4880-2017037423,380000,is-sold,Sold by private treaty 01 Sep 2021,20210901,2/232 River Road,BIBOOHRA,QLD,4880,-16.892065,145.419083,,,,VacantLand,Vacant land,False,63697,m2,False
2017068715,listing,/2-brodziac-close-mareeba-qld-4880-2017068715,290000,is-sold,Sold by private treaty 26 Aug 2021,20210826,2 Brodziac Close,MAREEBA,QLD,4880,-17.0136375,145.421448,3,1,1,House,House,False,1411,m2,False
2017069394,listing,/14-martin-avenue-mareeba-qld-4880-2017069394,300000,is-sold,Sold by private treaty 30 Aug 2021,20210830,14 Martin Avenue,MAREEBA,QLD,4880,-17.0164146,145.427155,3,1,2,House,House,False,809,m2,False
2017099750,listing,/9-gallo-drive-mareeba-qld-4880-2017099750,860000,is-sold,Sold by private treaty 06 Sep 2021,20210906,9 Gallo Drive,MAREEBA,QLD,4880,-17.052206,145.428345,7,4,6,House,House,False,4000,m2,False
2017099774,listing,/3357-kennedy-highway-mareeba-qld-4880-2017099774,440000,is-sold,Sold by private treaty 30 Aug 2021,20210830,3357 Kennedy Highway,MAREEBA,QLD,4880,-16.96085,145.539551,3,1,2,Rural,Rural,True,1.96,ha,False
2017134665,listing,/446-emerald-end-road-mareeba-qld-4880-2017134665,700000,is-sold,Sold by private treaty 02 Sep 2021,20210902,446 Emerald End Road,MAREEBA,QLD,4880,-16.9599533,145.434464,6,3,2,House,House,False,142400,m2,False
2017208331,listing,/14-mcgrath-road-mareeba-qld-4880-2017208331,470000,is-sold,Sold by private treaty 20 Aug 2021,20210820,14 McGrath Road,MAREEBA,QLD,4880,-16.9711666,145.415543,4,2,2,House,House,False,4047,m2,False
2017208869,listing,/39-karobean-drive-mareeba-qld-4880-2017208869,485000,is-sold,Sold by private treaty 03 Sep 2021,20210903,39 Karobean Drive,MAREEBA,QLD,4880,-16.9958477,145.440628,4,2,2,House,House,False,880,m2,False
2017237867,listing,/21-marinelli-drive-mareeba-qld-4880-2017237867,360000,is-sold,Sold by private treaty 03 Sep 2021,20210903,21 Marinelli Drive,MAREEBA,QLD,4880,-17.0206966,145.436539,3,1,2,House,House,False,1000,m2,False
2017241323,listing,/123-hastie-road-mareeba-qld-4880-2017241323,532000,is-sold,Sold by private treaty 06 Sep 2021,20210906,123 Hastie Road,MAREEBA,QLD,4880,-16.9978561,145.442215,4,2,5,House,House,False,1530,m2,False
2012580513,listing,/3-12-egan-street-mareeba-qld-4880-2012580513,156000,is-sold,Sold by private treaty 16 Aug 2021,20210816,3/12 Egan Street,MAREEBA,QLD,4880,-17.0006142,145.427063,2,1,1,ApartmentUnitFlat,Apartment / Unit / Flat,False,0,m2,False
2013078054,listing,/745-mareeba-dimbulah-road-mareeba-qld-4880-2013078054,,is-sold,Sold by private treaty 16 Aug 2021,20210816,745 Mareeba Dimbulah Road,MAREEBA,QLD,4880,-16.9979019,145.386765,,,,VacantLand,Vacant land,False,0,m2,False
2015144005,listing,/8-kippen-drive-arriga-qld-4880-2015144005,,is-sold,Sold by private treaty 09 Aug 2021,20210809,8 Kippen Drive,ARRIGA,QLD,4880,-17.13325,145.380035,6,2,2,Farm,Farm,True,111.69,ha,False
2015504390,listing,/15-moody-mareeba-qld-4880-2015504390,215000,is-sold,Sold by private treaty 16 Aug 2021,20210816,15 Moody,MAREEBA,QLD,4880,-16.984745,145.4172,3,1,3,House,House,False,1060,m2,False
2016325019,listing,/1480-hodzic-road-biboohra-qld-4880-2016325019,610000,is-sold,Sold by private treaty 05 Aug 2021,20210805,1480 Hodzic Road,BIBOOHRA,QLD,4880,-16.8162518,145.505875,3,3,,Rural,Rural,True,64.75,ha,False
2016622063,listing,/15-palm-close-mareeba-qld-4880-2016622063,295000,is-sold,Sold by private treaty 06 Aug 2021,20210806,15 Palm Close,MAREEBA,QLD,4880,-16.9997635,145.433685,3,1,1,House,House,False,800,m2,False
2016639634,listing,/mareeba-qld-4880-2016639634,380000,is-sold,Sold by private treaty 02 Aug 2021,20210802,,MAREEBA,QLD,4880,-17.001936,145.438858,3,1,,AcreageSemiRural,Acreage / Semi-Rural,True,2,ha,False
2016656821,listing,/14-swan-street-mareeba-qld-4880-2016656821,215000,is-sold,Sold by private treaty 30 Jul 2021,20210730,14 Swan Street,MAREEBA,QLD,4880,-16.9972935,145.414658,3,1,,House,House,False,830,m2,False
2016679730,listing,/mareeba-qld-4880-2016679730,275000,is-sold,Sold by private treaty 03 Aug 2021,20210803,,MAREEBA,QLD,4880,-16.9973583,145.423065,3,2,2,House,House,False,0,m2,False
2016762904,listing,/4-pares-street-mareeba-qld-4880-2016762904,435000,is-sold,Sold by private treaty 27 Jul 2021,20210727,4 Pares Street,MAREEBA,QLD,4880,-16.9965458,145.4265,4,2,1,House,House,False,1406,m2,False
2016810623,listing,/arriga-qld-4880-2016810623,2010000,is-sold,Sold by private treaty 06 Aug 2021,20210806,,ARRIGA,QLD,4880,-17.0435829,145.322784,8,3,6,Rural,Rural,True,23.88,ha,False
2016950259,listing,/229-shanty-creek-road-mareeba-qld-4880-2016950259,380000,is-sold,Sold by private treaty 28 Jul 2021,20210728,229 Shanty Creek Road,MAREEBA,QLD,4880,-16.9503727,145.448975,,,,Rural,Rural,True,70.17,ha,False
2017036998,listing,/4-eagle-close-mareeba-qld-4880-2017036998,365500,is-sold,Sold by private treaty 29 Jul 2021,20210729,4 Eagle Close,MAREEBA,QLD,4880,-16.99703,145.4361,3,2,2,House,House,False,841,m2,False
2017044936,listing,/15-love-street-mareeba-qld-4880-2017044936,320000,is-sold,Sold by private treaty 23 Jul 2021,20210723,15 Love Street,MAREEBA,QLD,4880,-16.9907513,145.427887,3,1,3,House,House,False,1265,m2,False
2017055182,listing,/17-kearney-street-mareeba-qld-4880-2017055182,26000,is-sold,Sold by private treaty 04 Aug 2021,20210804,17 Kearney Street,MAREEBA,QLD,4880,-16.98308,145.421188,3,2,1,House,House,False,1184,m2,False
2017090683,listing,/13-bethel-close-mareeba-qld-4880-2017090683,357500,is-sold,Sold by private treaty 26 Jul 2021,20210726,13 Bethel Close,MAREEBA,QLD,4880,-17.0103512,145.422714,3,1,2,House,House,False,800,m2,False
2017103407,listing,/23-salihe-avenue-mareeba-qld-4880-2017103407,460000,is-sold,Sold by private treaty 18 Aug 2021,20210818,23 Salihe Avenue,MAREEBA,QLD,4880,-17.0168056,145.419785,5,2,2,House,House,False,4217,m2,False
