id,listingType,url,price,tagClassName,tagText,date,street,suburb,state,postcode,lat,lng,beds,baths,parking,propertyType,propertyTypeFormatted,isRural,landSize,landUnit,isRetirement
2016585187,listing,/3-65-jervois-avenue-magill-sa-5072-2016585187,,is-sold,Sold by private treaty 09 Feb 2023,20230209,3/65 Jervois Avenue,MAGILL,SA,5072,-34.9078255,138.6681,4,4,4,House,House,False,210,m2,False
2018154601,listing,/lot-263-16-highlands-court-woodforde-sa-5072-2018154601,790000,is-sold,Sold by private treaty 07 Feb 2023,20230207,Lot 263/16 Highlands Court,WOODFORDE,SA,5072,-34.9046059,138.689316,,,,VacantLand,Vacant land,False,0,m2,False
2018218587,listing,/9b-russell-street-magill-sa-5072-2018218587,1088000,is-sold,Sold by private treaty 16 Feb 2023,20230216,9B Russell Street,MAGILL,SA,5072,-34.9078751,138.679459,4,4,4,House,House,False,362,m2,False
2018228612,listing,/47-jervois-avenue-magill-sa-5072-2018228612,815000,is-sold,Sold by private treaty 25 Jan 2023,20230125,47 Jervois Avenue,MAGILL,SA,5072,-34.90926,138.668243,3,3,3,House,House,False,488,m2,False
2018232319,listing,/9b-davenport-terrace-magill-sa-5072-2018232319,812000,is-sold,Sold at auction 30 Jan 2023,20230130,9B Davenport Terrace,MAGILL,SA,5072,-34.9031143,138.678238,3,3,3,House,House,False,408,m2,False
2018232812,listing,/21-kintyre-road-woodforde-sa-5072-2018232812,,is-sold,Sold by private treaty 02 Mar 2023,20230302,21 Kintyre Road,WOODFORDE,SA,5072,-34.9059753,138.691147,,,,VacantLand,Vacant land,False,592,m2,False
2018246798,listing,/1-7-jackson-street-magill-sa-5072-2018246798,,is-sold,Sold by private treaty 27 Jan 2023,20230127,1/7 Jackson Street,MAGILL,SA,5072,-34.91587,138.673172,2,2,2,ApartmentUnitFlat,Apartment / Unit / Flat,False,0,m2,False
2018283846,listing,/63-jervois-avenue-magill-sa-5072-2018283846,915000,is-sold,Sold at auction 25 Jan 2023,20230125,63 Jervois Avenue,MAGILL,SA,5072,-34.90795,138.668228,3,3,3,House,House,False,687,m2,False
2018284942,listing,/4-leslie-street-magill-sa-5072-2018284942,950000,is-sold,Sold at auction 25 Jan 2023,20230125,4 Leslie Street,MAGILL,SA,5072,-34.9082069,138.6821,3,3,3,House,House,False,772,m2,False
2018289128,listing,/1-bonython-avenue-magill-sa-5072-2018289128,915000,is-sold,Sold at auction 07 Feb 2023,20230207,1 Bonython Avenue,MAGILL,SA,5072,-34.90255,138.6669,3,3,3,House,House,False,700,m2,False
2018302683,listing,/3-koongarra-avenue-magill-sa-5072-2018302683,905000,is-sold,Sold at auction 05 Feb 2023,20230205,3 Koongarra Avenue,MAGILL,SA,5072,-34.9051361,138.6763,5,5,5,House,House,False,826,m2,False
2018306377,listing,/29-eton-avenue-magill-sa-5072-2018306377,907000,is-sold,Sold at auction 13 Feb 2023,20230213,29 Eton Avenue,MAGILL,SA,5072,-34.8976021,138.669876,3,3,3,House,House,False,849,m2,False
2018311304,listing,/3-518-magill-road-magill-sa-5072-2018311304,760000,is-sold,Sold by private treaty 08 Feb 2023,20230208,3/518 Magill Road,MAGILL,SA,5072,-34.9136925,138.67099,3,3,3,House,House,False,270,m2,False
2018323578,listing,/4-grange-avenue-rosslyn-park-sa-5072-2018323578,1325000,is-sold,Sold by private treaty 14 Feb 2023,20230214,4 Grange Avenue,ROSSLYN PARK,SA,5072,-34.92118,138.67598,3,3,3,House,House,False,776,m2,False
2018326251,listing,/29-park-avenue-rosslyn-park-sa-5072-2018326251,,is-sold,Sold by private treaty 11 Feb 2023,20230211,29 Park Avenue,ROSSLYN PARK,SA,5072,-34.9217,138.672852,4,4,4,House,House,False,929,m2,False
2018339769,listing,/1-gardiner-court-magill-sa-5072-2018339769,755000,is-sold,Sold by private treaty 15 Feb 2023,20230215,1 Gardiner Court,MAGILL,SA,5072,-34.919178,138.673676,3,3,3,ApartmentUnitFlat,Apartment / Unit / Flat,False,0,m2,False
2018340408,listing,/3-parmentier-street-magill-sa-5072-2018340408,,is-sold,Sold at auction 25 Feb 2023,20230225,3 Parmentier Street,MAGILL,SA,5072,-34.9007378,138.672012,3,3,3,House,House,False,797,m2,False
2018343100,listing,/35-giles-street-magill-sa-5072-2018343100,,is-sold,Sold prior to auction 27 Feb 2023,20230227,35 Giles Street,MAGILL,SA,5072,-34.9152145,138.68132,2,2,2,House,House,False,1165,m2,False
2018363654,listing,/2b-daly-street-magill-sa-5072-2018363654,,is-sold,Sold by private treaty 17 Feb 2023,20230217,2B Daly Street,MAGILL,SA,5072,-34.9030266,138.6697,4,4,4,House,House,False,340,m2,False
2018368131,listing,/2-65-jervois-avenue-magill-sa-5072-2018368131,,is-sold,Sold by private treaty 09 Feb 2023,20230209,2/65 Jervois Avenue,MAGILL,SA,5072,-34.907856,138.668076,4,4,4,House,House,False,210,m2,False
2018319609,listing,/lot-266-19-highlands-court-woodforde-sa-5072-2018319609,,is-sold,Sold by private treaty 03 Mar 2023,20230303,"Lot 266, 19 Highlands Court",WOODFORDE,SA,5072,-34.9046059,138.689316,,,,VacantLand,Vacant land,False,561,m2,False
2018175114,listing,/24-rowland-road-magill-sa-5072-2018175114,745000,is-sold,Sold by private treaty 07 Mar 2023,20230307,24 Rowland Road,MAGILL,SA,5072,-34.91648,138.671936,3,2,2,House,House,False,360,m2,False
2018368713,listing,/11a-eton-avenue-magill-sa-5072-2018368713,,is-sold,Sold by private treaty 08 Mar 2023,20230308,11a Eton Avenue,MAGILL,SA,5072,-34.897747,138.6673,4,2,2,House,House,False,416,m2,False
2018379069,listing,/9-east-street-magill-sa-5072-2018379069,,is-sold,Sold by private treaty 03 Mar 2023,20230303,9 East Street,MAGILL,SA,5072,-34.9139023,138.682266,,,,VacantLand,Vacant land,False,895,m2,False
2018271039,listing,/7-barons-street-magill-sa-5072-2018271039,860000,is-sold,Sold by private treaty 23 Feb 2023,20230223,7 Barons Street,MAGILL,SA,5072,-34.90298,138.666779,3,1,2,House,House,False,685,m2,False
2018370161,listing,/34-jervois-avenue-magill-sa-5072-2018370161,1050000,is-sold,Sold at auction 11 Mar 2023,20230311,34 Jervois Avenue,MAGILL,SA,5072,-34.9101677,138.669235,4,2,2,House,House,False,708,m2,False
2018242942,listing,/2-old-norton-summit-road-auldana-sa-5072-2018242942,818000,is-sold,Sold at auction 17 Feb 2023,20230217,2 Old Norton Summit Road,AULDANA,SA,5072,-34.91314,138.6853,3,1,2,House,House,False,1372,m2,False
2018280198,listing,/2-25-cranbrook-avenue-magill-sa-5072-2018280198,502000,is-sold,Sold by private treaty 20 Feb 2023,20230220,2/25 Cranbrook Avenue,MAGILL,SA,5072,-34.9041557,138.683472,2,1,1,ApartmentUnitFlat,Apartment / Unit / Flat,False,0,m2,False
2018293620,listing,/1c-chinnery-avenue-magill-sa-5072-2018293620,,is-sold,Sold by private treaty 21 Feb 2023,20230221,1C Chinnery Avenue,MAGILL,SA,5072,-34.905777,138.672623,4,2,2,Townhouse,Townhouse,False,239,m2,False
2018411519,listing,/4-65-jervois-avenue-magill-sa-5072-2018411519,,is-sold,Sold by private treaty 26 Feb 2023,20230226,4/65 Jervois Avenue,MAGILL,SA,5072,-34.907856,138.668076,4,2,2,House,House,False,210,m2,False
2018006101,listing,/2-69-penfold-road-rosslyn-park-sa-5072-2018006101,,is-sold,Sold by private treaty 15 Jan 2023,20230115,2/69 Penfold Road,ROSSLYN PARK,SA,5072,-34.92056,138.676224,,,,VacantLand,Vacant land,False,619,m2,False
2018110460,listing,/35-hermitage-road-auldana-sa-5072-2018110460,1720000,is-sold,Sold by private treaty 23 Jan 2023,20230123,35 Hermitage Road,AULDANA,SA,5072,-34.91976,138.688812,4,2,2,House,House,False,1594,m2,False
2018141747,listing,/3-bonython-avenue-magill-sa-5072-2018141747,990000,is-sold,Sold by private treaty 06 Feb 2023,20230206,3 Bonython Avenue,MAGILL,SA,5072,-34.9026031,138.667114,4,1,2,House,House,False,0,m2,False
2018157467,listing,/20-park-avenue-rosslyn-park-sa-5072-2018157467,915000,is-sold,Sold by private treaty 20 Jan 2023,20230120,20 Park Avenue,ROSSLYN PARK,SA,5072,-34.9223,138.67067,3,1,2,House,House,False,411,m2,False
2018172238,listing,/11b-koongarra-avenue-magill-sa-5072-2018172238,,is-sold,Sold by private treaty 20 Jan 2023,20230120,11b Koongarra Avenue,MAGILL,SA,5072,-34.905056,138.67717,3,1,1,House,House,False,418,m2,False
2018180550,listing,/31-pepper-street-magill-sa-5072-2018180550,921000,is-sold,Sold at auction 19 Jan 2023,20230119,31 Pepper Street,MAGILL,SA,5072,-34.9175377,138.674957,3,1,3,House,House,False,684,m2,False
2018189160,listing,/48-lorne-avenue-magill-sa-5072-2018189160,855000,is-sold,Sold by private treaty 20 Jan 2023,20230120,48 Lorne Avenue,MAGILL,SA,5072,-34.90904,138.6714,3,1,2,House,House,False,0,m2,False
2018231894,listing,/25b-koongarra-avenue-magill-sa-5072-2018231894,,is-sold,Sold by private treaty 17 Jan 2023,20230117,25b Koongarra Avenue,MAGILL,SA,5072,-34.90492,138.678711,4,2,1,House,House,False,377,m2,False
2018315953,listing,/1-451-kensington-road-rosslyn-park-sa-5072-2018315953,360000,is-sold,Sold by private treaty 09 Feb 2023,20230209,1/451 Kensington Road,ROSSLYN PARK,SA,5072,-34.92426,138.67662,1,1,1,ApartmentUnitFlat,Apartment / Unit / Flat,False,0,m2,False
2018395624,listing,/1-65-jervois-avenue-magill-sa-5072-2018395624,,is-sold,Sold by private treaty 09 Feb 2023,20230209,1/65 Jervois Avenue,MAGILL,SA,5072,-34.907856,138.668076,4,2,2,House,House,False,210,m2,False
2018066146,listing,/520-norton-summit-road-teringie-sa-5072-2018066146,1650000,is-sold,Sold by private treaty 09 Jan 2023,20230109,520 Norton Summit Road,TERINGIE,SA,5072,-34.9114,138.7105,4,3,3,House,House,False,4100,m2,False
2018094575,listing,/31g-bricknell-street-magill-sa-5072-2018094575,480000,is-sold,Sold by private treaty 13 Jan 2023,20230113,31G Bricknell Street,MAGILL,SA,5072,-34.8984,138.670639,2,1,1,House,House,False,0,m2,False
2018124720,listing,/39-giles-street-magill-sa-5072-2018124720,,is-sold,Sold by private treaty 19 Dec 2022,20221219,39 Giles Street,MAGILL,SA,5072,-34.91516,138.6817,5,3,8,House,House,False,1186,m2,False
2018143837,listing,/529-the-parade-magill-sa-5072-2018143837,1180000,is-sold,Sold at auction 06 Jan 2023,20230106,529 The Parade,MAGILL,SA,5072,-34.91904,138.6741,3,2,1,House,House,False,558,m2,False
2018146058,listing,/4-vista-avenue-skye-sa-5072-2018146058,1200000,is-sold,Sold by private treaty 02 Dec 2022,20221202,4 Vista Avenue,SKYE,SA,5072,-34.9237747,138.689957,4,2,4,House,House,False,4115,m2,False
2018159318,listing,/100-shakespeare-avenue-magill-sa-5072-2018159318,850000,is-sold,Sold at auction 10 Jan 2023,20230110,100 Shakespeare Avenue,MAGILL,SA,5072,-34.9072075,138.671143,3,1,3,House,House,False,644,m2,False
2018164765,listing,/27-woodland-way-teringie-sa-5072-2018164765,1067000,is-sold,Sold prior to auction 14 Dec 2022,20221214,27 Woodland Way,TERINGIE,SA,5072,-34.9100952,138.691818,3,2,2,House,House,False,2813,m2,False
2018172088,listing,/109b-arthur-street-magill-sa-5072-2018172088,896000,is-sold,Sold by private treaty 14 Dec 2022,20221214,109B Arthur Street,MAGILL,SA,5072,-34.9032,138.671509,3,2,2,House,House,False,492,m2,False
2018172235,listing,/5-greenham-avenue-magill-sa-5072-2018172235,1125000,is-sold,Sold by private treaty 22 Dec 2022,20221222,5 Greenham Avenue,MAGILL,SA,5072,-34.9135,138.683578,4,3,2,House,House,False,828,m2,False
2018190771,listing,/8a-moules-road-magill-sa-5072-2018190771,650000,is-sold,Sold by private treaty 10 Jan 2023,20230110,8A Moules Road,MAGILL,SA,5072,-34.90297,138.676682,3,1,1,House,House,False,453,m2,False
2018201558,listing,/34-taylor-terrace-rosslyn-park-sa-5072-2018201558,995000,is-sold,Sold at auction 03 Dec 2022,20221203,34 Taylor Terrace,ROSSLYN PARK,SA,5072,-34.92431,138.6706,3,1,1,House,House,False,513,m2,False
2018204888,listing,/140-reid-avenue-magill-sa-5072-2018204888,791000,is-sold,Sold at auction 03 Dec 2022,20221203,140 Reid Avenue,MAGILL,SA,5072,-34.8968468,138.673813,,,,VacantLand,Vacant land,False,690,m2,False
2018211075,listing,/58-windsor-avenue-magill-sa-5072-2018211075,881000,is-sold,Sold by private treaty 06 Dec 2022,20221206,58 Windsor Avenue,MAGILL,SA,5072,-34.9082832,138.669418,3,1,4,House,House,False,677,m2,False
2018216452,listing,/12-gladstone-avenue-magill-sa-5072-2018216452,871000,is-sold,Sold at auction 09 Jan 2023,20230109,12 Gladstone Avenue,MAGILL,SA,5072,-34.9120064,138.667847,3,1,1,House,House,False,673,m2,False
2018225105,listing,/552-the-parade-rosslyn-park-sa-5072-2018225105,769000,is-sold,Sold by private treaty 02 Dec 2022,20221202,552 The Parade,ROSSLYN PARK,SA,5072,-34.9193649,138.679779,3,1,2,ApartmentUnitFlat,Apartment / Unit / Flat,False,0,m2,False
2018229090,listing,/1-9-harrow-avenue-magill-sa-5072-2018229090,835000,is-sold,Sold by private treaty 09 Dec 2022,20221209,1/9 Harrow Avenue,MAGILL,SA,5072,-34.89873,138.667053,3,2,2,House,House,False,0,m2,False
2018235308,listing,/5-rockness-court-woodforde-sa-5072-2018235308,1240000,is-sold,Sold by private treaty 20 Dec 2022,20221220,5 Rockness Court,WOODFORDE,SA,5072,-34.9028168,138.689621,4,3,5,House,House,False,913,m2,False
2018235769,listing,/66-park-avenue-rosslyn-park-sa-5072-2018235769,1363500,is-sold,Sold at auction 18 Dec 2022,20221218,66 Park Avenue,ROSSLYN PARK,SA,5072,-34.9221344,138.676224,3,1,2,House,House,False,910,m2,False
2018245309,listing,/15-bishop-street-skye-sa-5072-2018245309,1530000,is-sold,Sold by private treaty 13 Dec 2022,20221213,15 Bishop Street,SKYE,SA,5072,-34.9222755,138.694092,4,2,3,House,House,False,1170,m2,False
2018252877,listing,/17b-st-bernards-road-magill-sa-5072-2018252877,720000,is-sold,Sold by private treaty 05 Jan 2023,20230105,17B St Bernards Road,MAGILL,SA,5072,-34.91132,138.676254,2,1,3,House,House,False,342,m2,False
2017788525,listing,/8-greer-place-magill-sa-5072-2017788525,650000,is-sold,Sold by private treaty 30 Nov 2022,20221130,8 Greer Place,MAGILL,SA,5072,-34.91195,138.683716,,,,VacantLand,Vacant land,False,702,m2,False
2017960197,listing,/6-11-murray-avenue-magill-sa-5072-2017960197,440000,is-sold,Sold by private treaty 09 Nov 2022,20221109,6/11 Murray Avenue,MAGILL,SA,5072,-34.90331,138.677292,2,1,1,ApartmentUnitFlat,Apartment / Unit / Flat,False,0,m2,False
2017963367,listing,/36-central-avenue-magill-sa-5072-2017963367,1150000,is-sold,Sold by private treaty 14 Nov 2022,20221114,36 Central Avenue,MAGILL,SA,5072,-34.90555,138.6706,3,1,2,House,House,False,690,m2,False
2018008608,listing,/27b-gordon-terrace-rosslyn-park-sa-5072-2018008608,1600000,is-sold,Sold by private treaty 16 Nov 2022,20221116,27B Gordon Terrace,ROSSLYN PARK,SA,5072,-34.9233856,138.673233,3,2,2,House,House,False,549,m2,False
2018077395,listing,/9a-murray-avenue-magill-sa-5072-2018077395,748000,is-sold,Sold by private treaty 28 Nov 2022,20221128,9A Murray Avenue,MAGILL,SA,5072,-34.9034042,138.677,3,2,2,House,House,False,415,m2,False
2018123284,listing,/36a-gladstone-avenue-magill-sa-5072-2018123284,,is-sold,Sold by private treaty 14 Nov 2022,20221114,36a Gladstone Avenue,MAGILL,SA,5072,-34.9100838,138.667862,2,2,2,House,House,False,348,m2,False
2018140664,listing,/12-1-east-street-magill-sa-5072-2018140664,540000,is-sold,Sold by private treaty 09 Nov 2022,20221109,12/1 East Street,MAGILL,SA,5072,-34.9133072,138.681549,2,1,2,ApartmentUnitFlat,Apartment / Unit / Flat,False,0,m2,False
2018156143,listing,/7-1-perkins-court-magill-sa-5072-2018156143,580000,is-sold,Sold at auction 16 Nov 2022,20221116,7/1 Perkins Court,MAGILL,SA,5072,-34.91484,138.677032,2,1,1,ApartmentUnitFlat,Apartment / Unit / Flat,False,237,m2,False
2018157514,listing,/3-glengarry-drive-woodforde-sa-5072-2018157514,1700000,is-sold,Sold by private treaty 11 Nov 2022,20221111,3 Glengarry Drive,WOODFORDE,SA,5072,-34.9040337,138.689621,4,4,2,House,House,False,1120,m2,False
2018166018,listing,/6-20a-pepper-street-magill-sa-5072-2018166018,443000,is-sold,Sold at auction 18 Nov 2022,20221118,6/20A Pepper Street,MAGILL,SA,5072,-34.9167137,138.675476,2,1,1,ApartmentUnitFlat,Apartment / Unit / Flat,False,0,m2,False
2018170506,listing,/8c-prefix-avenue-magill-sa-5072-2018170506,885000,is-sold,Sold by private treaty 16 Nov 2022,20221116,8C Prefix Avenue,MAGILL,SA,5072,-34.9099731,138.679413,3,2,4,House,House,False,0,m2,False
2018171460,listing,/20-alton-avenue-magill-sa-5072-2018171460,1405000,is-sold,Sold at auction 26 Nov 2022,20221126,20 Alton Avenue,MAGILL,SA,5072,-34.902565,138.6727,4,2,2,House,House,False,807,m2,False
2018171712,listing,/4-grandview-grove-magill-sa-5072-2018171712,935000,is-sold,Sold at auction 16 Nov 2022,20221116,4 Grandview Grove,MAGILL,SA,5072,-34.9045219,138.678436,3,1,2,House,House,False,749,m2,False
2018186608,listing,/405-kensington-road-corner-taylor-terrace-rosslyn-park-sa-5072-2018186608,1140000,is-sold,Sold at auction 26 Nov 2022,20221126,405 Kensington Road (corner Taylor Terrace),ROSSLYN PARK,SA,5072,-34.9244156,138.6706,4,2,2,House,House,False,577,m2,False
2018187541,listing,/3-7-carter-street-magill-sa-5072-2018187541,610100,is-sold,Sold by private treaty 18 Nov 2022,20221118,3/7 Carter Street,MAGILL,SA,5072,-34.89843,138.672867,2,2,2,Townhouse,Townhouse,False,0,m2,False
2018190688,listing,/463-kensington-road-rosslyn-park-sa-5072-2018190688,1460000,is-sold,Sold by private treaty 21 Nov 2022,20221121,463 Kensington Road,ROSSLYN PARK,SA,5072,-34.9240379,138.678574,4,2,4,House,House,False,1000,m2,False
2018195767,listing,/1-7-carter-street-magill-sa-5072-2018195767,560000,is-sold,Sold by private treaty 11 Nov 2022,20221111,1/7 Carter Street,MAGILL,SA,5072,-34.89843,138.672867,3,2,3,Townhouse,Townhouse,False,0,m2,False
2018195783,listing,/4-7-carter-street-magill-sa-5072-2018195783,504000,is-sold,Sold by private treaty 11 Nov 2022,20221111,4/7 Carter Street,MAGILL,SA,5072,-34.89843,138.672867,3,2,3,Townhouse,Townhouse,False,0,m2,False
2018209645,listing,/3a-23-gertrude-street-magill-sa-5072-2018209645,1180000,is-sold,Sold by private treaty 29 Nov 2022,20221129,3A/23 Gertrude Street,MAGILL,SA,5072,-34.9077263,138.678391,3,3,2,House,House,False,421,m2,False
2018218804,listing,/18a-penfold-road-magill-sa-5072-2018218804,1380000,is-sold,Sold at auction 29 Nov 2022,20221129,18A Penfold Road,MAGILL,SA,5072,-34.9167747,138.676773,4,2,2,House,House,False,420,m2,False
2017345315,listing,/99-coach-road-skye-sa-5072-2017345315,3700000,is-sold,Sold by private treaty 02 Nov 2022,20221102,99 Coach Road,SKYE,SA,5072,-34.9287224,138.693222,4,3,6,House,House,False,2890,m2,False
2017806508,listing,/7-carey-street-magill-sa-5072-2017806508,,is-sold,Sold by private treaty 25 Oct 2022,20221025,7 Carey Street,MAGILL,SA,5072,-34.9142075,138.673538,4,1,2,House,House,False,557,m2,False
2017861196,listing,/51-colton-avenue-magill-sa-5072-2017861196,1075000,is-sold,Sold by private treaty 04 Nov 2022,20221104,51 Colton Avenue,MAGILL,SA,5072,-34.907383,138.670364,4,2,2,House,House,False,0,m2,False
2017927229,listing,/28-primrose-terrace-rosslyn-park-sa-5072-2017927229,1930000,is-sold,Sold by private treaty 13 Oct 2022,20221013,28 Primrose Terrace,ROSSLYN PARK,SA,5072,-34.9234161,138.672668,4,3,2,House,House,False,531,m2,False
2017946460,listing,/13-buchanan-drive-adj-magill-woodforde-sa-5072-2017946460,1000000,is-sold,Sold by private treaty 20 Oct 2022,20221020,13 Buchanan Drive (adj Magill),WOODFORDE,SA,5072,-34.9074364,138.685333,3,2,1,House,House,False,450,m2,False
2017968226,listing,/23-2-saint-bernards-road-magill-sa-5072-2017968226,270000,is-sold,Sold by private treaty 10 Oct 2022,20221010,23/2 Saint Bernards Road,MAGILL,SA,5072,-34.9124374,138.675491,2,,,BlockOfUnits,Block of Units,False,0,m2,False
2017993245,listing,/6b-colton-avenue-magill-sa-5072-2017993245,620000,is-sold,Sold by private treaty 24 Oct 2022,20221024,6B Colton Avenue,MAGILL,SA,5072,-34.90754,138.674561,2,1,1,House,House,False,306,m2,False
2018005081,listing,/5-nightingale-avenue-magill-sa-5072-2018005081,726000,is-sold,Sold by private treaty 17 Oct 2022,20221017,5 Nightingale Avenue,MAGILL,SA,5072,-34.91172,138.679214,4,1,2,House,House,False,615,m2,False
2018019275,listing,/3-7-jackson-street-magill-sa-5072-2018019275,455000,is-sold,Sold by private treaty 12 Oct 2022,20221012,3/7 Jackson Street,MAGILL,SA,5072,-34.9157028,138.673172,2,1,1,ApartmentUnitFlat,Apartment / Unit / Flat,False,0,m2,False
2018040066,listing,/72-briant-road-magill-sa-5072-2018040066,630000,is-sold,Sold at auction 17 Oct 2022,20221017,72 Briant Road,MAGILL,SA,5072,-34.9190521,138.669662,2,1,1,House,House,False,0,m2,False
2018100905,listing,/64b-central-avenue-magill-sa-5072-2018100905,1170000,is-sold,Sold by private treaty 17 Oct 2022,20221017,64B Central Avenue,MAGILL,SA,5072,-34.9057465,138.66716,3,2,2,House,House,False,350,m2,False
2018102703,listing,/75-brookside-avenue-magill-sa-5072-2018102703,1035000,is-sold,Sold at auction 19 Oct 2022,20221019,75 Brookside Avenue,MAGILL,SA,5072,-34.9101,138.667221,4,2,4,House,House,False,381,m2,False
2018105173,listing,/1-winchester-avenue-magill-sa-5072-2018105173,970000,is-sold,Sold at auction 22 Oct 2022,20221022,1 Winchester Avenue,MAGILL,SA,5072,-34.899704,138.666321,3,1,1,House,House,False,758,m2,False
2018105905,listing,/546-norton-summit-road-teringie-sa-5072-2018105905,1396000,is-sold,Sold at auction 23 Oct 2022,20221023,546 Norton Summit Road,TERINGIE,SA,5072,-34.91194,138.712067,4,2,8,House,House,False,4060,m2,False
2018110754,listing,/33-ridgeland-drive-teringie-sa-5072-2018110754,1040000,is-sold,Sold by private treaty 20 Oct 2022,20221020,33 Ridgeland Drive,TERINGIE,SA,5072,-34.9116936,138.703339,4,3,4,House,House,False,2283,m2,False
2018119936,listing,/3-moir-court-magill-sa-5072-2018119936,755000,is-sold,Sold at auction 31 Oct 2022,20221031,3 Moir Court,MAGILL,SA,5072,-34.9064064,138.668167,3,1,2,House,House,False,389,m2,False
2018129723,listing,/423-kensington-road-rosslyn-park-sa-5072-2018129723,1300000,is-sold,Sold by private treaty 26 Oct 2022,20221026,423 Kensington Road,ROSSLYN PARK,SA,5072,-34.9242744,138.672379,3,2,2,House,House,False,0,m2,False
2018140406,listing,/1b-gladstone-avenue-magill-sa-5072-2018140406,687000,is-sold,Sold by private treaty 01 Nov 2022,20221101,1B Gladstone Avenue,MAGILL,SA,5072,-34.91275,138.667221,2,1,1,House,House,False,369,m2,False
2018195807,listing,/2-7-carter-street-magill-sa-5072-2018195807,575000,is-sold,Sold by private treaty 28 Oct 2022,20221028,2/7 Carter Street,MAGILL,SA,5072,-34.89843,138.672867,3,2,3,Townhouse,Townhouse,False,0,m2,False
2018225112,listing,/1d-colton-avenue-magill-sa-5072-2018225112,,is-sold,Sold by private treaty 18 Oct 2022,20221018,1D Colton Avenue,MAGILL,SA,5072,-34.9071121,138.674911,4,3,2,House,House,False,0,m2,False
2017782474,listing,/42-edward-street-magill-sa-5072-2017782474,850000,is-sold,Sold by private treaty 02 Sep 2022,20220902,42 Edward Street,MAGILL,SA,5072,-34.9091644,138.6821,3,1,4,House,House,False,698,m2,False
2017827263,listing,/4-1-briant-road-magill-sa-5072-2017827263,500000,is-sold,Sold by private treaty 21 Sep 2022,20220921,4/1 Briant Road,MAGILL,SA,5072,-34.9141731,138.668762,2,1,2,ApartmentUnitFlat,Apartment / Unit / Flat,False,192,m2,False
2017870201,listing,/2-18-windsor-avenue-magill-sa-5072-2017870201,322500,is-sold,Sold by private treaty 07 Sep 2022,20220907,2/18 Windsor Avenue,MAGILL,SA,5072,-34.9113731,138.669632,2,1,1,ApartmentUnitFlat,Apartment / Unit / Flat,False,0,m2,False
2017887296,listing,/3-northview-way-teringie-sa-5072-2017887296,380000,is-sold,Sold by private treaty 13 Sep 2022,20220913,3 Northview Way,TERINGIE,SA,5072,-34.9131966,138.7056,,,,VacantLand,Vacant land,False,2830,m2,False
2017914810,listing,/1-40-hyland-terrace-rosslyn-park-sa-5072-2017914810,850000,is-sold,Sold by private treaty 02 Oct 2022,20221002,1/40 Hyland Terrace,ROSSLYN PARK,SA,5072,-34.92386,138.66893,3,1,1,House,House,False,673,m2,False
2017927932,listing,/67-cuthero-terrace-magill-sa-5072-2017927932,950000,is-sold,Sold at auction 26 Aug 2022,20220826,67 Cuthero Terrace,MAGILL,SA,5072,-34.91696,138.66745,3,2,1,House,House,False,458,m2,False
2017928809,listing,/20-abercrombie-avenue-woodforde-sa-5072-2017928809,1220000,is-sold,Sold by private treaty 01 Sep 2022,20220901,20 Abercrombie Avenue,WOODFORDE,SA,5072,-34.9072723,138.686417,6,3,2,House,House,False,388,m2,False
2017949503,listing,/92-shakespeare-avenue-magill-sa-5072-2017949503,1096000,is-sold,Sold by private treaty 30 Sep 2022,20220930,92 Shakespeare Avenue,MAGILL,SA,5072,-34.907196,138.670517,4,2,2,House,House,False,0,m2,False
2017958505,listing,/12-adelaide-street-magill-sa-5072-2017958505,850000,is-sold,Sold by private treaty 22 Sep 2022,20220922,12 Adelaide Street,MAGILL,SA,5072,-34.9144173,138.678467,3,1,2,House,House,False,622,m2,False
2017983336,listing,/11a-norama-ave-magill-sa-5072-2017983336,1350000,is-sold,Sold by private treaty 15 Sep 2022,20220915,11a Norama Ave,MAGILL,SA,5072,-34.905983,138.669876,5,2,2,House,House,False,430,m2,False
2018023547,listing,/16c-first-street-magill-sa-5072-2018023547,817000,is-sold,Sold at auction 10 Sep 2022,20220910,16C First Street,MAGILL,SA,5072,-34.90551,138.673019,3,2,2,House,House,False,349,m2,False
2018024696,listing,/10-coach-rd-auldana-sa-5072-2018024696,1990000,is-sold,Sold by private treaty 12 Sep 2022,20220912,10 Coach Rd,AULDANA,SA,5072,-34.9204063,138.682953,5,4,2,House,House,False,911,m2,False
2018031226,listing,/5-50-54-vine-street-magill-sa-5072-2018031226,410000,is-sold,Sold by private treaty 09 Sep 2022,20220909,5/50-54 Vine Street,MAGILL,SA,5072,-34.9089127,138.679825,2,1,1,ApartmentUnitFlat,Apartment / Unit / Flat,False,0,m2,False
2018035025,listing,/2-2-st-bernards-road-magill-sa-5072-2018035025,185000,is-sold,Sold by private treaty 13 Sep 2022,20220913,2/2 St Bernards Road,MAGILL,SA,5072,-34.9127769,138.675827,1,1,1,ApartmentUnitFlat,Apartment / Unit / Flat,False,15,m2,False
2018037516,listing,/9-7-lorne-avenue-magill-sa-5072-2018037516,315000,is-sold,Sold by private treaty 22 Sep 2022,20220922,9/7 Lorne Avenue,MAGILL,SA,5072,-34.9109459,138.67215,2,1,1,Townhouse,Townhouse,False,0,m2,False
2018039706,listing,/32-douglas-street-magill-sa-5072-2018039706,990000,is-sold,Sold prior to auction 14 Sep 2022,20220914,32 Douglas Street,MAGILL,SA,5072,-34.90581,138.679565,3,2,1,House,House,False,627,m2,False
2018047066,listing,/60-briant-road-magill-sa-5072-2018047066,1100000,is-sold,Sold at auction 23 Sep 2022,20220923,60 Briant Road,MAGILL,SA,5072,-34.9183769,138.669708,3,1,2,House,House,False,1030,m2,False
2018051061,listing,/6-giles-street-magill-sa-5072-2018051061,1827000,is-sold,Sold at auction 24 Sep 2022,20220924,6 Giles Street,MAGILL,SA,5072,-34.915844,138.677628,4,3,2,House,House,False,834,m2,False
2018051206,listing,/34a-bricknell-street-magill-sa-5072-2018051206,980000,is-sold,Sold at auction 26 Sep 2022,20220926,34A Bricknell Street,MAGILL,SA,5072,-34.89823,138.670212,3,2,2,House,House,False,433,m2,False
2018088035,listing,/597-the-parade-magill-sa-5072-2018088035,,is-sold,Sold by private treaty 02 Oct 2022,20221002,597 The Parade,MAGILL,SA,5072,-34.9157753,138.684052,4,3,2,House,House,False,1323,m2,False
2015827409,listing,/6-alton-avenue-magill-sa-5072-2015827409,,is-sold,Sold by private treaty 12 Aug 2022,20220812,6 Alton Avenue,MAGILL,SA,5072,-34.9024925,138.674118,3,2,2,Terrace,Terrace,False,0,m2,False
2016831978,listing,/150-st-bernards-road-magill-sa-5072-2016831978,,is-sold,Sold by private treaty 18 Jul 2022,20220718,150 St Bernards Road,MAGILL,SA,5072,-34.8981171,138.674423,3,2,2,NewHouseLand,New House & Land,False,0,m2,False
2017556426,listing,/7-rebecca-avenue-auldana-sa-5072-2017556426,1550000,is-sold,Sold by private treaty 20 Jul 2022,20220720,7 Rebecca Avenue,AULDANA,SA,5072,-34.9138069,138.68663,4,1,8,House,House,False,1524,m2,False
2017695643,listing,/3a-second-street-magill-sa-5072-2017695643,1225000,is-sold,Sold by private treaty 28 Jul 2022,20220728,3A Second Street,MAGILL,SA,5072,-34.9068031,138.6712,4,2,2,House,House,False,0,m2,False
2017698309,listing,/3-25-norton-summit-road-woodforde-sa-5072-2017698309,415000,is-sold,Sold by private treaty 15 Jul 2022,20220715,3/25 Norton Summit Road,WOODFORDE,SA,5072,-34.9095268,138.685257,2,1,1,Townhouse,Townhouse,False,0,m2,False
2017773361,listing,/unit-5-3-mulberry-ct-magill-sa-5072-2017773361,462500,is-sold,Sold by private treaty 16 Aug 2022,20220816,Unit 5/3 Mulberry Ct,MAGILL,SA,5072,-34.9069557,138.681976,2,1,1,ApartmentUnitFlat,Apartment / Unit / Flat,False,0,m2,False
2017807298,listing,/480-the-parade-rosslyn-park-sa-5072-2017807298,1320000,is-sold,Sold by private treaty 15 Aug 2022,20220815,480 The Parade,ROSSLYN PARK,SA,5072,-34.9196548,138.670731,3,1,4,House,House,False,1114,m2,False
2017830196,listing,/46-hyland-terrace-rosslyn-park-sa-5072-2017830196,2150000,is-sold,Sold by private treaty 26 Aug 2022,20220826,46 Hyland Terrace,ROSSLYN PARK,SA,5072,-34.9241638,138.669159,4,2,2,House,House,False,925,m2,False
2017840080,listing,/630-magill-road-magill-sa-5072-2017840080,900000,is-sold,Sold by private treaty 01 Aug 2022,20220801,630 Magill Road,MAGILL,SA,5072,-34.91302,138.683121,3,1,2,House,House,False,0,m2,False
2017844353,listing,/21-woodland-way-teringie-sa-5072-2017844353,1380000,is-sold,Sold at auction 09 Aug 2022,20220809,21 Woodland Way,TERINGIE,SA,5072,-34.9091873,138.690491,4,2,2,House,House,False,1861,m2,False
2017886202,listing,/15-ormond-avenue-magill-sa-5072-2017886202,,is-sold,Sold by private treaty 27 Jul 2022,20220727,15 Ormond Avenue,MAGILL,SA,5072,-34.91792,138.6785,4,2,2,House,House,False,836,m2,False
2017886293,listing,/27-primrose-terrace-rosslyn-park-sa-5072-2017886293,2811000,is-sold,Sold by private treaty 25 Jul 2022,20220725,27 Primrose Terrace,ROSSLYN PARK,SA,5072,-34.922802,138.671814,4,2,2,House,House,False,0,m2,False
2017887685,listing,/41-balmoral-avenue-magill-sa-5072-2017887685,1100000,is-sold,Sold at auction 27 Jul 2022,20220727,41 Balmoral Avenue,MAGILL,SA,5072,-34.9097443,138.671219,3,1,4,House,House,False,743,m2,False
2017956529,listing,/30-park-avenue-rosslyn-park-sa-5072-2017956529,1480000,is-sold,Sold at auction 13 Aug 2022,20220813,30 Park Avenue,ROSSLYN PARK,SA,5072,-34.9223442,138.671524,5,3,4,House,House,False,910,m2,False
2017956828,listing,/5-warburton-street-magill-sa-5072-2017956828,1100000,is-sold,Sold at auction 20 Aug 2022,20220820,5 Warburton Street,MAGILL,SA,5072,-34.9171638,138.672638,3,2,1,House,House,False,439,m2,False
2017959723,listing,/7-maple-avenue-magill-sa-5072-2017959723,1375000,is-sold,Sold at auction 10 Aug 2022,20220810,7 Maple Avenue,MAGILL,SA,5072,-34.91651,138.680939,3,2,2,House,House,False,1086,m2,False
2017960194,listing,/10-alexandra-avenue-magill-sa-5072-2017960194,1026000,is-sold,Sold at auction 13 Aug 2022,20220813,10 Alexandra Avenue,MAGILL,SA,5072,-34.9037132,138.678909,3,2,2,House,House,False,527,m2,False
2017961281,listing,/10b-leonard-street-magill-sa-5072-2017961281,800000,is-sold,Sold at auction 13 Aug 2022,20220813,10B Leonard Street,MAGILL,SA,5072,-34.9005051,138.6733,3,2,1,House,House,False,390,m2,False
2017964885,listing,/24-barnes-avenue-magill-sa-5072-2017964885,,is-sold,Sold by private treaty 02 Aug 2022,20220802,24 Barnes Avenue,MAGILL,SA,5072,-34.9159546,138.668365,5,2,4,House,House,False,877,m2,False
2017976651,listing,/11-buchanan-drive-woodforde-sa-5072-2017976651,999500,is-sold,Sold at auction 17 Aug 2022,20220817,11 Buchanan Drive,WOODFORDE,SA,5072,-34.9075241,138.68544,3,2,2,House,House,False,375,m2,False
2017500703,listing,/8-44-jervois-avenue-magill-sa-5072-2017500703,235000,is-sold,Sold by private treaty 11 Jul 2022,20220711,8/44 Jervois Avenue,MAGILL,SA,5072,-34.9093323,138.669144,1,1,1,ApartmentUnitFlat,Apartment / Unit / Flat,False,0,m2,False
2017701375,listing,/97-shakespeare-avenue-magill-sa-5072-2017701375,1005000,is-sold,Sold at auction 16 Jun 2022,20220616,97 Shakespeare Avenue,MAGILL,SA,5072,-34.9068222,138.670578,3,2,3,House,House,False,561,m2,False
2017762917,listing,/2-hyland-terrace-rosslyn-park-sa-5072-2017762917,1575000,is-sold,Sold by private treaty 23 Jun 2022,20220623,2 Hyland Terrace,ROSSLYN PARK,SA,5072,-34.9201622,138.6688,4,2,2,House,House,False,0,m2,False
2017770894,listing,/13-church-street-magill-sa-5072-2017770894,860000,is-sold,Sold by private treaty 29 Jun 2022,20220629,13 Church Street,MAGILL,SA,5072,-34.90662,138.677322,4,2,4,House,House,False,373,m2,False
2017771137,listing,/13-church-street-magill-sa-5072-2017771137,860000,is-sold,Sold by private treaty 29 Jun 2022,20220629,13 Church Street,MAGILL,SA,5072,-34.90662,138.677322,4,2,2,House,House,False,373,m2,False
2017780420,listing,/32-colton-avenue-magill-sa-5072-2017780420,860000,is-sold,Sold at auction 30 Jun 2022,20220630,32 Colton Avenue,MAGILL,SA,5072,-34.90764,138.672287,4,1,,House,House,False,613,m2,False
2017790312,listing,/547-the-parade-magill-sa-5072-2017790312,805000,is-sold,Sold at auction 30 Jun 2022,20220630,547 The Parade,MAGILL,SA,5072,-34.91896,138.675766,2,1,2,House,House,False,533,m2,False
2017812256,listing,/317-old-norton-summit-road-teringie-sa-5072-2017812256,1150000,is-sold,Sold by private treaty 14 Jul 2022,20220714,317 Old Norton Summit Road,TERINGIE,SA,5072,-34.9212265,138.714478,4,2,6,House,House,False,1700,m2,False
2017822777,listing,/211-89-buchanan-drive-adj-magill-woodforde-sa-5072-2017822777,365000,is-sold,Sold by private treaty 29 Jun 2022,20220629,211/89 Buchanan Drive (adj Magill),WOODFORDE,SA,5072,-34.90556,138.687134,1,1,1,ApartmentUnitFlat,Apartment / Unit / Flat,False,0,m2,False
2017823851,listing,/11-29-edward-street-magill-sa-5072-2017823851,155000,is-sold,Sold by private treaty 22 Jun 2022,20220622,"11/29 Edward Street,",MAGILL,SA,5072,-34.9088135,138.680664,1,1,1,ApartmentUnitFlat,Apartment / Unit / Flat,False,0,m2,False
2017828435,listing,/22-park-avenue-rosslyn-park-sa-5072-2017828435,860000,is-sold,Sold by private treaty 12 Jul 2022,20220712,22 Park Avenue,ROSSLYN PARK,SA,5072,-34.9223442,138.670868,3,1,1,House,House,False,0,m2,False
2017837972,listing,/21-patrick-auld-drive-auldana-sa-5072-2017837972,1120000,is-sold,Sold at auction 09 Jul 2022,20220709,21 Patrick Auld Drive,AULDANA,SA,5072,-34.9168358,138.688278,,,,VacantLand,Vacant land,False,1091,m2,False
2017846530,listing,/136b-st-bernards-road-magill-sa-5072-2017846530,645000,is-sold,Sold at auction 18 Jun 2022,20220618,136B St Bernards Road,MAGILL,SA,5072,-34.8993874,138.674667,3,2,2,House,House,False,353,m2,False
2017851614,listing,/13-taylor-terrace-rosslyn-park-sa-5072-2017851614,1580000,is-sold,Sold prior to auction 04 Jul 2022,20220704,13 Taylor Terrace,ROSSLYN PARK,SA,5072,-34.92124,138.669708,4,1,3,House,House,False,1114,m2,False
2017861534,listing,/3b-fisher-street-magill-sa-5072-2017861534,806000,is-sold,Sold by private treaty 17 Jun 2022,20220617,3B Fisher Street,MAGILL,SA,5072,-34.90287,138.66922,3,2,2,House,House,False,338,m2,False
2017869761,listing,/36b-ridgeland-drive-teringie-sa-5072-2017869761,1650000,is-sold,Sold prior to auction 28 Jun 2022,20220628,36B Ridgeland Drive,TERINGIE,SA,5072,-34.9132729,138.703125,3,2,2,House,House,True,2.26,ha,False
2017873626,listing,/3b-carter-street-magill-sa-5072-2017873626,1300000,is-sold,Sold at auction 02 Jul 2022,20220702,3B Carter Street,MAGILL,SA,5072,-34.898674,138.672943,4,2,2,House,House,False,411,m2,False
2017874012,listing,/2-verdelho-court-auldana-sa-5072-2017874012,1110000,is-sold,Sold prior to auction 07 Jul 2022,20220707,2 Verdelho Court,AULDANA,SA,5072,-34.9211922,138.68428,,,,VacantLand,Vacant land,False,1116,m2,False
2017883703,listing,/1-2-ormond-avenue-magill-sa-5072-2017883703,690000,is-sold,Sold at auction 09 Jul 2022,20220709,1/2 Ormond Avenue,MAGILL,SA,5072,-34.9184952,138.677124,3,2,1,House,House,False,0,m2,False
2017927357,listing,/1c-colton-avenue-magill-sa-5072-2017927357,,is-sold,Sold by private treaty 17 Jun 2022,20220617,1C Colton Avenue,MAGILL,SA,5072,-34.9071121,138.674911,4,3,2,House,House,False,0,m2,False
2017566122,listing,/2-608-magill-road-magill-sa-5072-2017566122,372500,is-sold,Sold by private treaty 15 Jun 2022,20220615,2/608 Magill Road,MAGILL,SA,5072,-34.91299,138.680664,2,1,1,ApartmentUnitFlat,Apartment / Unit / Flat,False,0,m2,False
2017681090,listing,/11-glengarry-drive-woodforde-sa-5072-2017681090,1038000,is-sold,Sold at auction 10 Jun 2022,20220610,11 Glengarry Drive,WOODFORDE,SA,5072,-34.90427,138.6905,4,2,2,House,House,False,0,m2,False
2017734139,listing,/8-610-magill-road-magill-sa-5072-2017734139,390000,is-sold,Sold by private treaty 30 May 2022,20220530,8/610 Magill Road,MAGILL,SA,5072,-34.913147,138.680878,2,1,1,ApartmentUnitFlat,Apartment / Unit / Flat,False,136,m2,False
2017737390,listing,/9-wilson-court-rosslyn-park-sa-5072-2017737390,1610000,is-sold,Sold by private treaty 10 Jun 2022,20220610,9 Wilson Court,ROSSLYN PARK,SA,5072,-34.92329,138.681915,5,3,2,House,House,False,905,m2,False
2017740849,listing,/79-penfold-road-rosslyn-park-sa-5072-2017740849,1380000,is-sold,Sold by private treaty 10 Jun 2022,20220610,79 Penfold Road,ROSSLYN PARK,SA,5072,-34.9223671,138.676468,5,3,,House,House,False,1114,m2,False
2017750440,listing,/32-hyland-terrace-rosslyn-park-sa-5072-2017750440,3500000,is-sold,Sold by private treaty 26 May 2022,20220526,32 Hyland Terrace,ROSSLYN PARK,SA,5072,-34.923317,138.669067,4,3,2,House,House,False,0,m2,False
2017775239,listing,/84-penfold-road-rosslyn-park-sa-5072-2017775239,1372000,is-sold,Sold at auction 27 May 2022,20220527,84 Penfold Road,ROSSLYN PARK,SA,5072,-34.92232,138.677063,4,2,2,House,House,False,1000,m2,False
2017777426,listing,/81-woodland-way-teringie-sa-5072-2017777426,915000,is-sold,Sold by private treaty 28 May 2022,20220528,81 Woodland Way,TERINGIE,SA,5072,-34.9164047,138.702728,4,2,2,House,House,False,2458,m2,False
2017788493,listing,/21-2-st-bernards-road-magill-sa-5072-2017788493,225000,is-sold,Sold by private treaty 03 Jun 2022,20220603,21/2 St Bernards Road,MAGILL,SA,5072,-34.9124146,138.675491,2,1,1,ApartmentUnitFlat,Apartment / Unit / Flat,False,0,m2,False
2017791958,listing,/33-hyland-terrace-rosslyn-park-sa-5072-2017791958,1000000,is-sold,Sold at auction 27 May 2022,20220527,33 Hyland Terrace,ROSSLYN PARK,SA,5072,-34.922493,138.668289,3,1,1,House,House,False,621,m2,False
2017808877,listing,/5-6-chapel-street-magill-sa-5072-2017808877,255000,is-sold,Sold by private treaty 02 Jun 2022,20220602,5/6 Chapel Street,MAGILL,SA,5072,-34.9156837,138.670334,1,1,1,ApartmentUnitFlat,Apartment / Unit / Flat,False,0,m2,False
2017809897,listing,/13-romalo-avenue-magill-sa-5072-2017809897,1355000,is-sold,Sold by private treaty 26 May 2022,20220526,13 Romalo Avenue,MAGILL,SA,5072,-34.9170036,138.678879,4,1,2,House,House,False,835,m2,False
2017823268,listing,/52-koongarra-avenue-magill-sa-5072-2017823268,946000,is-sold,Sold at auction 10 Jun 2022,20220610,52 Koongarra Avenue,MAGILL,SA,5072,-34.9048042,138.681946,3,2,2,House,House,False,500,m2,False
2017829685,listing,/413a-kensington-road-rosslyn-park-sa-5072-2017829685,,is-sold,Sold by private treaty 30 May 2022,20220530,413A Kensington Road,ROSSLYN PARK,SA,5072,-34.9241333,138.671524,4,2,2,House,House,False,488,m2,False
2017841743,listing,/7b-central-avenue-magill-sa-5072-2017841743,905000,is-sold,Sold by private treaty 11 Jun 2022,20220611,7b Central Avenue,MAGILL,SA,5072,-34.9048157,138.6742,3,2,1,House,House,False,235,m2,False
2017849680,listing,/3-11-glen-stuart-road-woodforde-sa-5072-2017849680,,is-sold,Sold by private treaty 29 May 2022,20220529,3/11 Glen Stuart Road,WOODFORDE,SA,5072,-34.9087,138.6853,4,2,2,House,House,False,0,m2,False
2017849685,listing,/5-11-glen-stuart-road-woodforde-sa-5072-2017849685,,is-sold,Sold by private treaty 26 May 2022,20220526,5/11 Glen Stuart Road,WOODFORDE,SA,5072,-34.9087,138.6853,4,2,2,House,House,False,0,m2,False
2017849688,listing,/44-rawson-penfold-drive-rosslyn-park-sa-5072-2017849688,2180000,is-sold,Sold by private treaty 13 Jun 2022,20220613,44 Rawson Penfold Drive,ROSSLYN PARK,SA,5072,-34.92126,138.682465,7,5,3,House,House,False,843,m2,False
2017851909,listing,/4-11-glen-stuart-road-woodforde-sa-5072-2017851909,,is-sold,Sold by private treaty 01 Jun 2022,20220601,4/11 Glen Stuart Road,WOODFORDE,SA,5072,-34.9087,138.6853,4,2,2,House,House,False,0,m2,False
2017969805,listing,/b-14-gertrude-street-magill-sa-5072-2017969805,,is-sold,Sold by private treaty 08 Jun 2022,20220608,B/14 Gertrude Street,MAGILL,SA,5072,-34.90872,138.677948,4,3,2,House,House,False,306,m2,False
2016448811,listing,/11-glen-stuart-road-woodforde-sa-5072-2016448811,,is-sold,Sold by private treaty 25 May 2022,20220525,11 Glen Stuart Road,WOODFORDE,SA,5072,-34.9087334,138.685165,4,2,2,Townhouse,Townhouse,False,0,m2,False
2017597595,listing,/5-lorne-avenue-magill-sa-5072-2017597595,788000,is-sold,Sold by private treaty 20 May 2022,20220520,5 Lorne Avenue,MAGILL,SA,5072,-34.9113235,138.672134,3,1,3,House,House,False,706,m2,False
2017644790,listing,/28-teringie-drive-teringie-sa-5072-2017644790,2005000,is-sold,Sold at auction 16 May 2022,20220516,28 Teringie Drive,TERINGIE,SA,5072,-34.91262,138.709061,3,2,2,House,House,False,6687,m2,False
2017674475,listing,/19a-gladstone-avenue-magill-sa-5072-2017674475,1000000,is-sold,Sold by private treaty 09 May 2022,20220509,19A Gladstone Avenue,MAGILL,SA,5072,-34.9115372,138.667511,3,2,2,House,House,False,367,m2,False
2017682516,listing,/6-arran-court-woodforde-sa-5072-2017682516,1375000,is-sold,Sold by private treaty 10 May 2022,20220510,6 Arran Court,WOODFORDE,SA,5072,-34.9044228,138.694565,5,3,5,House,House,False,785,m2,False
2017690115,listing,/80-shakespeare-avenue-magill-sa-5072-2017690115,621000,is-sold,Sold by private treaty 13 May 2022,20220513,80 Shakespeare Avenue,MAGILL,SA,5072,-34.90728,138.6695,2,1,2,House,House,False,346,m2,False
2017696709,listing,/27a-edward-street-magill-sa-5072-2017696709,895000,is-sold,Sold by private treaty 09 May 2022,20220509,27A Edward Street,MAGILL,SA,5072,-34.90882,138.679565,3,2,2,House,House,False,392,m2,False
2017697366,listing,/10a-norton-summit-road-magill-sa-5072-2017697366,730000,is-sold,Sold by private treaty 07 May 2022,20220507,10A Norton Summit Road,MAGILL,SA,5072,-34.9117851,138.682724,3,2,3,House,House,False,330,m2,False
2017747598,listing,/1-palomino-road-auldana-sa-5072-2017747598,1510000,is-sold,Sold at auction 07 May 2022,20220507,1 Palomino Road,AULDANA,SA,5072,-34.91748,138.684372,2,2,2,House,House,False,2000,m2,False
2017758414,listing,/5-11-murray-avenue-magill-sa-5072-2017758414,445000,is-sold,Sold at auction 11 May 2022,20220511,5/11 Murray Avenue,MAGILL,SA,5072,-34.9032059,138.677277,2,1,2,ApartmentUnitFlat,Apartment / Unit / Flat,False,0,m2,False
2017762135,listing,/421-kensington-road-rosslyn-park-sa-5072-2017762135,725000,is-sold,Sold at auction 16 May 2022,20220516,421 Kensington Road,ROSSLYN PARK,SA,5072,-34.9243164,138.672012,3,1,2,House,House,False,579,m2,False
2017773725,listing,/50d-windsor-avenue-magill-sa-5072-2017773725,720000,is-sold,Sold by private treaty 05 May 2022,20220505,50D Windsor Avenue,MAGILL,SA,5072,-34.90889,138.6695,3,2,2,House,House,False,0,m2,False
2017775256,listing,/1-blyth-street-magill-sa-5072-2017775256,1000000,is-sold,Sold at auction 20 May 2022,20220520,1 Blyth Street,MAGILL,SA,5072,-34.9093323,138.667969,4,2,1,House,House,False,316,m2,False
2017777424,listing,/2-1-leonard-street-magill-sa-5072-2017777424,746000,is-sold,Sold at auction 20 May 2022,20220520,2/1 Leonard Street,MAGILL,SA,5072,-34.8998833,138.674316,3,2,1,House,House,False,178,m2,False
2017777425,listing,/11-powell-street-magill-sa-5072-2017777425,1170000,is-sold,Sold at auction 20 May 2022,20220520,11 Powell Street,MAGILL,SA,5072,-34.90591,138.674515,4,2,2,House,House,False,784,m2,False
2017779217,listing,/6-mcglasson-avenue-magill-sa-5072-2017779217,1502000,is-sold,Sold at auction 22 May 2022,20220522,6 McGlasson Avenue,MAGILL,SA,5072,-34.9163437,138.681915,4,3,2,House,House,False,403,m2,False
2017794816,listing,/50c-jervois-avenue-magill-sa-5072-2017794816,660000,is-sold,Sold by private treaty 23 May 2022,20220523,50C Jervois Avenue,MAGILL,SA,5072,-34.9088554,138.668854,3,2,2,House,House,False,0,m2,False
2017815763,listing,/18-2-st-bernards-road-magill-sa-5072-2017815763,,is-sold,Sold by private treaty 25 May 2022,20220525,18/2 St Bernards Road,MAGILL,SA,5072,-34.9124374,138.675491,2,1,1,ApartmentUnitFlat,Apartment / Unit / Flat,False,0,m2,False
2017849740,listing,/2-11-glen-stuart-road-woodforde-sa-5072-2017849740,,is-sold,Sold by private treaty 18 May 2022,20220518,2/11 Glen Stuart Road,WOODFORDE,SA,5072,-34.9087,138.6853,3,2,2,House,House,False,0,m2,False
2018012094,listing,/7-ferris-street-magill-sa-5072-2018012094,900000,is-sold,Sold by private treaty 23 May 2022,20220523,7 Ferris Street,MAGILL,SA,5072,-34.9011,138.673187,3,1,,House,House,False,654,m2,False
2014588589,listing,/1-11-newman-street-magill-sa-5072-2014588589,630000,is-sold,Sold prior to auction 27 Apr 2022,20220427,1 /11 Newman Street,MAGILL,SA,5072,-34.9010048,138.667221,3,2,2,House,House,False,0,m2,False
2017362370,listing,/3-4-jackson-street-magill-sa-5072-2017362370,427000,is-sold,Sold by private treaty 29 Apr 2022,20220429,3/4 Jackson Street,MAGILL,SA,5072,-34.91641,138.672318,2,1,1,ApartmentUnitFlat,Apartment / Unit / Flat,False,202,m2,False
2017399268,listing,/9-2-2a-st-bernards-road-magill-sa-5072-2017399268,186,is-sold,Sold by private treaty 10 Apr 2022,20220410,9/2 - 2A St Bernards Road,MAGILL,SA,5072,-34.9127769,138.675827,1,1,,ApartmentUnitFlat,Apartment / Unit / Flat,False,0,m2,False
2017503393,listing,/13-woodland-way-teringie-sa-5072-2017503393,2255000,is-sold,Sold by private treaty 11 Apr 2022,20220411,13 Woodland Way,TERINGIE,SA,5072,-34.9085121,138.689545,5,2,2,House,House,False,1860,m2,False
2017547186,listing,/530-magill-road-magill-sa-5072-2017547186,950000,is-sold,Sold by private treaty 07 Apr 2022,20220407,530 Magill Road,MAGILL,SA,5072,-34.9135056,138.672531,3,1,3,House,House,False,852,m2,False
2017565933,listing,/478-the-parade-rosslyn-park-sa-5072-2017565933,1460000,is-sold,Sold at auction 19 Apr 2022,20220419,478 The Parade,ROSSLYN PARK,SA,5072,-34.91986,138.670578,3,2,4,House,House,False,1114,m2,False
2017566230,listing,/3-harrison-court-magill-sa-5072-2017566230,1475000,is-sold,Sold at auction 26 Apr 2022,20220426,3 Harrison Court,MAGILL,SA,5072,-34.8991623,138.674118,4,2,2,House,House,False,750,m2,False
2017588588,listing,/24-hermitage-road-auldana-sa-5072-2017588588,1700000,is-sold,Sold by private treaty 29 Apr 2022,20220429,24 Hermitage Road,AULDANA,SA,5072,-34.9195366,138.6864,6,3,3,House,House,False,1401,m2,False
2017596173,listing,/10-31-penfold-road-magill-sa-5072-2017596173,491700,is-sold,Sold at auction 13 Apr 2022,20220413,10/31 Penfold Road,MAGILL,SA,5072,-34.9165764,138.675735,3,1,3,ApartmentUnitFlat,Apartment / Unit / Flat,False,0,m2,False
2017604845,listing,/105a-arthur-street-magill-sa-5072-2017604845,850000,is-sold,Sold at auction 11 Apr 2022,20220411,105A Arthur Street,MAGILL,SA,5072,-34.903347,138.670486,3,2,4,House,House,False,0,m2,False
2017625381,listing,/16-henry-martin-square-magill-sa-5072-2017625381,1540000,is-sold,Sold at auction 21 Apr 2022,20220421,16 Henry Martin Square,MAGILL,SA,5072,-34.9182625,138.673538,4,2,2,House,House,False,555,m2,False
2017626805,listing,/105-shakespeare-avenue-magill-sa-5072-2017626805,895000,is-sold,Sold by private treaty 21 Apr 2022,20220421,105 Shakespeare Avenue,MAGILL,SA,5072,-34.9068336,138.671722,3,2,4,House,House,False,0,m2,False
2017627615,listing,/101-shakespeare-avenue-magill-sa-5072-2017627615,990000,is-sold,Sold by private treaty 14 Apr 2022,20220414,101 Shakespeare Avenue,MAGILL,SA,5072,-34.90687,138.671387,3,2,2,House,House,False,0,m2,False
2017644308,listing,/94-shakespeare-avenue-magill-sa-5072-2017644308,1200000,is-sold,Sold by private treaty 10 Apr 2022,20220410,94 Shakespeare Avenue,MAGILL,SA,5072,-34.9071922,138.67067,4,2,1,House,House,False,0,m2,False
2017674888,listing,/2-526-magill-road-magill-sa-5072-2017674888,397000,is-sold,Sold by private treaty 20 Apr 2022,20220420,2/526 Magill Road,MAGILL,SA,5072,-34.91346,138.67215,2,1,3,ApartmentUnitFlat,Apartment / Unit / Flat,False,0,m2,False
2017683195,listing,/4-vale-street-skye-sa-5072-2017683195,1205000,is-sold,Sold by private treaty 12 Apr 2022,20220412,4 Vale Street,SKYE,SA,5072,-34.92217,138.693527,4,2,3,House,House,False,2035,m2,False
2017707868,listing,/8-mary-penfold-drive-rosslyn-park-sa-5072-2017707868,1800000,is-sold,Sold by private treaty 29 Apr 2022,20220429,8 Mary Penfold Drive,ROSSLYN PARK,SA,5072,-34.9236069,138.67836,4,2,3,House,House,False,0,m2,False
2017722097,listing,/45-lorne-avenue-magill-sa-5072-2017722097,870000,is-sold,Sold at auction 23 Apr 2022,20220423,45 Lorne Avenue,MAGILL,SA,5072,-34.9078522,138.671677,4,3,2,House,House,False,441,m2,False
2017722675,listing,/16-mary-penfold-drive-rosslyn-park-sa-5072-2017722675,2350000,is-sold,Sold by private treaty 16 Apr 2022,20220416,16 Mary Penfold Drive,ROSSLYN PARK,SA,5072,-34.92362,138.679123,4,3,4,House,House,False,1048,m2,False
2017735466,listing,/1-6-colonial-court-teringie-sa-5072-2017735466,660000,is-sold,Sold at auction 30 Apr 2022,20220430,1/6 Colonial Court,TERINGIE,SA,5072,-34.90979,138.687408,3,2,1,House,House,False,363,m2,False
2016278065,listing,/35b-barons-street-magill-sa-5072-2016278065,848000,is-sold,Sold by private treaty 07 Apr 2022,20220407,35B Barons Street,MAGILL,SA,5072,-34.8973961,138.6661,4,2,2,House,House,False,0,m2,False
2017334749,listing,/18c-rebecca-avenue-auldana-sa-5072-2017334749,865000,is-sold,Sold by private treaty 15 Mar 2022,20220315,18C Rebecca Avenue,AULDANA,SA,5072,-34.9150543,138.686447,,,,VacantLand,Vacant land,False,856,m2,False
2017524832,listing,/4-14-church-street-magill-sa-5072-2017524832,860000,is-sold,Sold by private treaty 01 Apr 2022,20220401,4/14 Church Street,MAGILL,SA,5072,-34.90724,138.678055,3,2,2,House,House,False,384,m2,False
2017539379,listing,/2a-burchett-avenue-magill-sa-5072-2017539379,1071000,is-sold,Sold at auction 25 Mar 2022,20220325,2a Burchett Avenue,MAGILL,SA,5072,-34.9146919,138.680649,3,2,2,House,House,False,461,m2,False
2017546732,listing,/20a-woodforde-road-magill-sa-5072-2017546732,875000,is-sold,Sold by private treaty 25 Mar 2022,20220325,20A Woodforde Road,MAGILL,SA,5072,-34.91064,138.679184,4,2,2,House,House,False,0,m2,False
2017565656,listing,/5-118-shakespeare-avenue-magill-sa-5072-2017565656,282000,is-sold,Sold by private treaty 05 Apr 2022,20220405,5/118 Shakespeare Avenue,MAGILL,SA,5072,-34.90735,138.672714,2,1,1,ApartmentUnitFlat,Apartment / Unit / Flat,False,0,m2,False
2017601148,listing,/3-608-magill-road-magill-sa-5072-2017601148,345000,is-sold,Sold by private treaty 28 Mar 2022,20220328,3/608 Magill Road,MAGILL,SA,5072,-34.91299,138.680664,2,1,1,ApartmentUnitFlat,Apartment / Unit / Flat,False,0,m2,False
2017602504,listing,/38b-fisher-street-magill-sa-5072-2017602504,1300000,is-sold,Sold by private treaty 22 Mar 2022,20220322,38B Fisher Street,MAGILL,SA,5072,-34.90037,138.66774,4,3,2,House,House,False,443,m2,False
2017624332,listing,/18-teringie-drive-teringie-sa-5072-2017624332,2045000,is-sold,Sold at auction 26 Mar 2022,20220326,18 Teringie Drive,TERINGIE,SA,5072,-34.91151,138.707718,5,2,2,House,House,False,3070,m2,False
2017626217,listing,/14-ormond-avenue-magill-sa-5072-2017626217,1250000,is-sold,Sold by private treaty 01 Apr 2022,20220401,14 Ormond Avenue,MAGILL,SA,5072,-34.91842,138.6785,3,2,2,House,House,False,0,m2,False
2017633569,listing,/34-mary-penfold-drive-rosslyn-park-sa-5072-2017633569,999500,is-sold,Sold at auction 19 Mar 2022,20220319,34 Mary Penfold Drive,ROSSLYN PARK,SA,5072,-34.9216423,138.681885,3,1,2,House,House,False,459,m2,False
2017634147,listing,/46b-jervois-avenue-magill-sa-5072-2017634147,585000,is-sold,Sold at auction 18 Mar 2022,20220318,46b Jervois Avenue,MAGILL,SA,5072,-34.9090729,138.668945,2,1,1,House,House,False,0,m2,False
2017636460,listing,/10-powell-street-magill-sa-5072-2017636460,971000,is-sold,Sold at auction 26 Mar 2022,20220326,10 Powell Street,MAGILL,SA,5072,-34.90611,138.674118,3,1,2,House,House,False,663,m2,False
2017643940,listing,/5-powell-street-magill-sa-5072-2017643940,852000,is-sold,Sold at auction 28 Mar 2022,20220328,5 Powell Street,MAGILL,SA,5072,-34.90638,138.674652,3,2,2,House,House,False,405,m2,False
2017645157,listing,/44-ridgeland-drive-teringie-sa-5072-2017645157,980000,is-sold,Sold prior to auction 17 Mar 2022,20220317,44 Ridgeland Drive,TERINGIE,SA,5072,-34.91354,138.7043,4,3,2,House,House,False,2070,m2,False
2017647004,listing,/22c-patola-place-magill-sa-5072-2017647004,725000,is-sold,Sold by private treaty 22 Mar 2022,20220322,22C Patola Place,MAGILL,SA,5072,-34.89944,138.671387,3,2,2,House,House,False,0,m2,False
2017648560,listing,/5-heather-avenue-woodforde-sa-5072-2017648560,740000,is-sold,Sold at auction 23 Mar 2022,20220323,5 Heather Avenue,WOODFORDE,SA,5072,-34.90126,138.689148,3,1,1,House,House,False,738,m2,False
2017665586,listing,/1-4-carey-street-magill-sa-5072-2017665586,495000,is-sold,Sold by private treaty 28 Mar 2022,20220328,1/4 Carey Street,MAGILL,SA,5072,-34.91394,138.673859,2,1,1,ApartmentUnitFlat,Apartment / Unit / Flat,False,0,m2,False
2017665784,listing,/6-7-lorne-avenue-magill-sa-5072-2017665784,287000,is-sold,Sold by private treaty 25 Mar 2022,20220325,6/7 Lorne Avenue,MAGILL,SA,5072,-34.91092,138.6719,2,1,1,ApartmentUnitFlat,Apartment / Unit / Flat,False,0,m2,False
2017666322,listing,/50-church-street-magill-sa-5072-2017666322,725000,is-sold,Sold at auction 02 Apr 2022,20220402,50 Church Street,MAGILL,SA,5072,-34.90667,138.682312,3,1,1,House,House,False,308,m2,False
2017441218,listing,/15-coach-house-drive-teringie-sa-5072-2017441218,,is-sold,Sold by private treaty 24 Feb 2022,20220224,15 Coach House Drive,TERINGIE,SA,5072,-34.91029,138.689362,,,,VacantLand,Vacant land,False,1024,m2,False
2017461365,listing,/4-44-jervois-avenue-magill-sa-5072-2017461365,420000,is-sold,Sold by private treaty 28 Feb 2022,20220228,4/44 Jervois Avenue,MAGILL,SA,5072,-34.90916,138.669083,2,1,1,ApartmentUnitFlat,Apartment / Unit / Flat,False,0,m2,False
2017461404,listing,/4-44-jervois-ave-magill-sa-5072-2017461404,420000,is-sold,Sold by private treaty 28 Feb 2022,20220228,4//44 Jervois Ave,MAGILL,SA,5072,-34.90916,138.669083,2,1,1,ApartmentUnitFlat,Apartment / Unit / Flat,False,0,m2,False
2017544580,listing,/25-2a-st-bernards-road-magill-sa-5072-2017544580,232000,is-sold,Sold by private treaty 25 Feb 2022,20220225,25/2a St Bernards Road,MAGILL,SA,5072,-34.91236,138.675766,2,1,,ApartmentUnitFlat,Apartment / Unit / Flat,False,0,m2,False
2017546210,listing,/3-jackson-street-magill-sa-5072-2017546210,1720000,is-sold,Sold by private treaty 11 Mar 2022,20220311,3 Jackson Street,MAGILL,SA,5072,-34.91588,138.672455,5,3,2,House,House,False,515,m2,False
2017562046,listing,/5-12-primrose-terrace-rosslyn-park-sa-5072-2017562046,414555,is-sold,Sold by private treaty 23 Feb 2022,20220223,5/12 Primrose Terrace,ROSSLYN PARK,SA,5072,-34.9207878,138.672638,2,1,1,House,House,False,0,m2,False
2017571993,listing,/158-st-bernards-road-magill-sa-5072-2017571993,655000,is-sold,Sold at auction 26 Feb 2022,20220226,158 St Bernards Road,MAGILL,SA,5072,-34.8975449,138.674637,3,1,5,House,House,False,699,m2,False
2017580600,listing,/5-flavel-avenue-woodforde-sa-5072-2017580600,1070000,is-sold,Sold at auction 23 Feb 2022,20220223,5 Flavel Avenue,WOODFORDE,SA,5072,-34.9008675,138.689941,4,3,2,House,House,False,1350,m2,False
2017584498,listing,/73-woodland-way-teringie-sa-5072-2017584498,855000,is-sold,Sold by private treaty 03 Mar 2022,20220303,73 Woodland Way,TERINGIE,SA,5072,-34.9156151,138.701172,3,1,4,House,House,False,2100,m2,False
2017591242,listing,/20-gladstone-avenue-magill-sa-5072-2017591242,1100000,is-sold,Sold prior to auction 04 Mar 2022,20220304,20 Gladstone Avenue,MAGILL,SA,5072,-34.91147,138.667847,4,1,3,House,House,False,444,m2,False
2017592817,listing,/18b-koongarra-avenue-magill-sa-5072-2017592817,905000,is-sold,Sold at auction 07 Mar 2022,20220307,18B Koongarra Avenue,MAGILL,SA,5072,-34.90563,138.677872,4,2,1,House,House,False,409,m2,False
2017593048,listing,/2-mclennon-avenue-magill-sa-5072-2017593048,729000,is-sold,Sold by private treaty 22 Feb 2022,20220222,2 Mclennon Avenue,MAGILL,SA,5072,-34.90787,138.683258,3,1,4,House,House,False,440,m2,False
2017593194,listing,/10-la-perouse-avenue-magill-sa-5072-2017593194,1550000,is-sold,Sold at auction 12 Mar 2022,20220312,10 La Perouse Avenue,MAGILL,SA,5072,-34.9182549,138.679337,4,2,2,House,House,False,565,m2,False
2017595085,listing,/res-1-73-vine-street-magill-sa-5072-2017595085,,is-sold,Sold by private treaty 25 Feb 2022,20220225,Res. 1 / 73 Vine Street,MAGILL,SA,5072,-34.9071274,138.680374,2,1,1,House,House,False,0,m2,False
2017606567,listing,/4-penfold-road-magill-sa-5072-2017606567,1805000,is-sold,Sold at auction 12 Mar 2022,20220312,4 Penfold Road,MAGILL,SA,5072,-34.9145279,138.676254,8,3,6,House,House,False,1240,m2,False
2017609338,listing,/9a-koongarra-avenue-magill-sa-5072-2017609338,780000,is-sold,Sold at auction 12 Mar 2022,20220312,9A Koongarra Avenue,MAGILL,SA,5072,-34.905056,138.676865,4,2,1,House,House,False,393,m2,False
2017610576,listing,/68-st-bernards-road-magill-sa-5072-2017610576,739250,is-sold,Sold at auction 11 Mar 2022,20220311,68 St Bernards Road,MAGILL,SA,5072,-34.905777,138.675156,3,1,5,House,House,False,700,m2,False
2017612176,listing,/3-6-chapel-street-magill-sa-5072-2017612176,240000,is-sold,Sold by private treaty 02 Mar 2022,20220302,3/6 Chapel Street,MAGILL,SA,5072,-34.9156837,138.670334,1,1,1,ApartmentUnitFlat,Apartment / Unit / Flat,False,0,m2,False
2017614431,listing,/2-9a-jackson-street-magill-sa-5072-2017614431,440000,is-sold,Sold by private treaty 06 Mar 2022,20220306,2/9A Jackson Street,MAGILL,SA,5072,-34.91572,138.673584,2,1,1,ApartmentUnitFlat,Apartment / Unit / Flat,False,0,m2,False
2017616995,listing,/11-gladstone-avenue-magill-sa-5072-2017616995,,is-sold,Sold at auction 12 Mar 2022,20220312,11 Gladstone Avenue,MAGILL,SA,5072,-34.9120636,138.667389,4,1,2,House,House,False,728,m2,False
2017010494,listing,/unit-1-21-carter-street-magill-sa-5072-2017010494,625000,is-sold,Sold by private treaty 10 Feb 2022,20220210,Unit 1/21 Carter Street,MAGILL,SA,5072,-34.8973,138.672836,3,2,2,Townhouse,Townhouse,False,0,m2,False
2017285744,listing,/6-vine-street-magill-sa-5072-2017285744,457000,is-sold,Sold by private treaty 05 Jan 2022,20220105,6 Vine Street,MAGILL,SA,5072,-34.9114037,138.680237,2,1,1,House,House,False,377,m2,False
2017313453,listing,/32-patrick-auld-drive-auldana-sa-5072-2017313453,1650000,is-sold,Sold by private treaty 05 Jan 2022,20220105,32 Patrick Auld Drive,AULDANA,SA,5072,-34.91674,138.68956,6,3,4,House,House,False,1125,m2,False
2017314011,listing,/53-central-avenue-magill-sa-5072-2017314011,1290000,is-sold,Sold at auction 10 Jan 2022,20220110,53 Central Avenue,MAGILL,SA,5072,-34.9050827,138.668945,3,1,6,House,House,False,818,m2,False
2017359975,listing,/21-penfold-road-magill-sa-5072-2017359975,1620000,is-sold,Sold at auction 21 Jan 2022,20220121,21 Penfold Road,MAGILL,SA,5072,-34.91537,138.675827,4,1,3,House,House,False,1391,m2,False
2017387892,listing,/24a-patola-place-magill-sa-5072-2017387892,775000,is-sold,Sold by private treaty 11 Feb 2022,20220211,24A Patola Place,MAGILL,SA,5072,-34.8993721,138.671265,3,2,2,House,House,False,200,m2,False
2017504735,listing,/2-131-arthur-street-magill-sa-5072-2017504735,618888,is-sold,Sold by private treaty 27 Jan 2022,20220127,2/131 Arthur Street,MAGILL,SA,5072,-34.90315,138.673462,3,2,2,House,House,False,113,m2,False
2017509179,listing,/4-brougham-street-magill-sa-5072-2017509179,926000,is-sold,Sold by private treaty 21 Feb 2022,20220221,4 Brougham Street,MAGILL,SA,5072,-34.912426,138.6725,3,1,4,House,House,False,672,m2,False
2017518558,listing,/66-buchanan-drive-woodforde-sa-5072-2017518558,526000,is-sold,Sold by private treaty 16 Feb 2022,20220216,66 Buchanan Drive,WOODFORDE,SA,5072,-34.90637,138.685532,2,2,1,Townhouse,Townhouse,False,0,m2,False
2017518874,listing,/27c-chapel-street-magill-sa-5072-2017518874,790000,is-sold,Sold by private treaty 28 Jan 2022,20220128,27C Chapel Street,MAGILL,SA,5072,-34.9148674,138.674438,2,2,1,House,House,False,320,m2,False
2017520442,listing,/74c-glen-stuart-road-magill-sa-5072-2017520442,1035000,is-sold,Sold at auction 29 Jan 2022,20220129,74c Glen Stuart Road,MAGILL,SA,5072,-34.9029655,138.684036,4,3,2,House,House,False,390,m2,False
2017520457,listing,/70-shakespeare-avenue-magill-sa-5072-2017520457,855000,is-sold,Sold at auction 29 Jan 2022,20220129,70 Shakespeare Avenue,MAGILL,SA,5072,-34.90736,138.668488,3,1,2,House,House,False,346,m2,False
2017521633,listing,/4b-daly-street-magill-sa-5072-2017521633,910000,is-sold,Sold at auction 15 Feb 2022,20220215,4B Daly Street,MAGILL,SA,5072,-34.90288,138.6696,4,2,2,House,House,False,338,m2,False
2017534352,listing,/38-jervois-avenue-magill-sa-5072-2017534352,1500000,is-sold,Sold at auction 05 Feb 2022,20220205,38 Jervois Avenue,MAGILL,SA,5072,-34.909893,138.669,4,2,3,House,House,False,685,m2,False
2017534652,listing,/14a-balmoral-avenue-magill-sa-5072-2017534652,781000,is-sold,Sold at auction 05 Feb 2022,20220205,14a Balmoral Avenue,MAGILL,SA,5072,-34.9116669,138.6707,3,2,1,House,House,False,348,m2,False
2017544142,listing,/30-hyland-terrace-rosslyn-park-sa-5072-2017544142,1350000,is-sold,Sold at auction 21 Feb 2022,20220221,30 Hyland Terrace,ROSSLYN PARK,SA,5072,-34.9231567,138.669022,4,3,2,House,House,False,0,m2,False
2017549121,listing,/31b-koongarra-avenue-magill-sa-5072-2017549121,616000,is-sold,Sold at auction 12 Feb 2022,20220212,31B Koongarra Avenue,MAGILL,SA,5072,-34.9049225,138.6793,2,1,1,House,House,False,383,m2,False
2017557829,listing,/1a-hawker-street-magill-sa-5072-2017557829,830000,is-sold,Sold at auction 19 Feb 2022,20220219,1A Hawker Street,MAGILL,SA,5072,-34.9111176,138.669464,3,2,2,House,House,False,376,m2,False
2017565836,listing,/644-magill-road-magill-sa-5072-2017565836,,is-sold,Sold at auction 19 Feb 2022,20220219,644 Magill Road,MAGILL,SA,5072,-34.91317,138.684723,3,1,2,House,House,False,679,m2,False
2017616533,listing,/5a-mcglasson-avenue-magill-sa-5072-2017616533,1240000,is-sold,Sold by private treaty 22 Feb 2022,20220222,5A Mcglasson Avenue,MAGILL,SA,5072,-34.9159355,138.682022,4,2,2,House,House,False,405,m2,False
2016880536,listing,/3-11-13-st-bernards-road-magill-sa-5072-2016880536,420000,is-sold,Sold by private treaty 21 Dec 2021,20211221,3/11-13 St Bernards Road,MAGILL,SA,5072,-34.9116821,138.676376,2,1,1,ApartmentUnitFlat,Apartment / Unit / Flat,False,150,m2,False
2017256998,listing,/56-st-bernards-road-magill-sa-5072-2017256998,805100,is-sold,Sold by private treaty 23 Nov 2021,20211123,56 St Bernards Road,MAGILL,SA,5072,-34.90663,138.675217,3,1,2,House,House,False,812,m2,False
2017281057,listing,/33a-woodforde-road-magill-sa-5072-2017281057,850000,is-sold,Sold at auction 30 Nov 2021,20211130,33A Woodforde Road,MAGILL,SA,5072,-34.91014,138.679428,3,2,4,House,House,False,200,m2,False
2017300769,listing,/41-kintyre-road-woodforde-sa-5072-2017300769,1650000,is-sold,Sold at auction 24 Dec 2021,20211224,41 Kintyre Road,WOODFORDE,SA,5072,-34.90515,138.694244,5,3,3,House,House,False,1264,m2,False
2017396363,listing,/3-coach-house-drive-teringie-sa-5072-2017396363,1305000,is-sold,Sold at auction 05 Dec 2021,20211205,3 Coach-House Drive,TERINGIE,SA,5072,-34.9114571,138.689392,3,2,2,House,House,False,1055,m2,False
2017400205,listing,/4-21-rowland-road-magill-sa-5072-2017400205,550000,is-sold,Sold by private treaty 05 Jan 2022,20220105,4/21 Rowland Road,MAGILL,SA,5072,-34.9159431,138.670837,2,1,2,ApartmentUnitFlat,Apartment / Unit / Flat,False,235,m2,False
2017408302,listing,/34-bundey-street-magill-sa-5072-2017408302,1275000,is-sold,Sold prior to auction 26 Nov 2021,20211126,34 Bundey Street,MAGILL,SA,5072,-34.9084854,138.672165,4,2,2,House,House,False,756,m2,False
2017409744,listing,/29-lorne-avenue-magill-sa-5072-2017409744,958800,is-sold,Sold at auction 20 Dec 2021,20211220,29 LORNE AVENUE,MAGILL,SA,5072,-34.90968,138.671921,2,1,2,House,House,False,7924,m2,False
2017410879,listing,/2-17-penfold-road-magill-sa-5072-2017410879,555000,is-sold,Sold by private treaty 17 Dec 2021,20211217,2/17 Penfold Road,MAGILL,SA,5072,-34.9150963,138.675583,2,1,1,ApartmentUnitFlat,Apartment / Unit / Flat,False,0,m2,False
2017413646,listing,/4-warburton-street-magill-sa-5072-2017413646,910000,is-sold,Sold by private treaty 17 Dec 2021,20211217,4 Warburton Street,MAGILL,SA,5072,-34.9176178,138.672409,3,1,4,House,House,False,398,m2,False
2017414188,listing,/36-central-avenue-magill-sa-5072-2017414188,1060000,is-sold,Sold at auction 04 Dec 2021,20211204,36 Central Avenue,MAGILL,SA,5072,-34.90555,138.6706,3,1,3,House,House,False,691,m2,False
2017419135,listing,/3-mclennon-avenue-magill-sa-5072-2017419135,902000,is-sold,Sold at auction 28 Nov 2021,20211128,3 Mclennon Avenue,MAGILL,SA,5072,-34.90813,138.6838,4,1,1,House,House,False,758,m2,False
2017437986,listing,/30-colton-avenue-magill-sa-5072-2017437986,857000,is-sold,Sold prior to auction 03 Dec 2021,20211203,30 Colton Avenue,MAGILL,SA,5072,-34.90763,138.67244,3,1,3,House,House,False,613,m2,False
2017440141,listing,/25-harrow-avenue-magill-sa-5072-2017440141,840000,is-sold,Sold at auction 12 Dec 2021,20211212,25 Harrow Avenue,MAGILL,SA,5072,-34.8985863,138.669586,4,1,2,House,House,False,715,m2,False
2017441212,listing,/10-driftwood-court-teringie-sa-5072-2017441212,,is-sold,Sold at auction 08 Dec 2021,20211208,10 Driftwood Court,TERINGIE,SA,5072,-34.91039,138.689224,5,2,2,House,House,False,1040,m2,False
2017444632,listing,/16-langman-drive-teringie-sa-5072-2017444632,1400000,is-sold,Sold by private treaty 18 Dec 2021,20211218,16 Langman Drive,TERINGIE,SA,5072,-34.9099236,138.688446,4,3,4,House,House,False,1123,m2,False
2017447289,listing,/530-the-parade-rosslyn-park-sa-5072-2017447289,1200000,is-sold,Sold prior to auction 16 Dec 2021,20211216,530 The Parade,ROSSLYN PARK,SA,5072,-34.9194946,138.6752,3,2,2,House,House,False,810,m2,False
2017455808,listing,/9c-briant-road-magill-sa-5072-2017455808,895000,is-sold,Sold prior to auction 13 Dec 2021,20211213,9C Briant Road,MAGILL,SA,5072,-34.91461,138.669159,3,2,4,House,House,False,321,m2,False
2017461562,listing,/596-the-parade-auldana-sa-5072-2017461562,,is-sold,Sold by private treaty 13 Dec 2021,20211213,596 The Parade,AULDANA,SA,5072,-34.91567,138.684845,5,4,2,House,House,False,1700,m2,False
2017475024,listing,/16b-ellis-street-magill-sa-5072-2017475024,735500,is-sold,Sold at auction 18 Dec 2021,20211218,16B Ellis Street,MAGILL,SA,5072,-34.91418,138.675232,3,2,1,House,House,False,289,m2,False
2016569517,listing,/6-norton-summit-road-magill-sa-5072-2016569517,995000,is-sold,Sold by private treaty 23 Nov 2021,20211123,6 Norton Summit Road,MAGILL,SA,5072,-34.9117126,138.682373,2,1,,House,House,False,1930,m2,False
2016874301,listing,/14-43-fisher-street-magill-sa-5072-2016874301,450000,is-sold,Sold by private treaty 15 Nov 2021,20211115,14/43 Fisher Street,MAGILL,SA,5072,-34.8991852,138.669312,3,1,1,House,House,False,0,m2,True
2017199457,listing,/49-barnes-avenue-magill-sa-5072-2017199457,,is-sold,Sold prior to auction 01 Nov 2021,20211101,49 Barnes Avenue,MAGILL,SA,5072,-34.9182129,138.66806,4,3,2,House,House,False,994,m2,False
2017238690,listing,/26-buchanan-drive-woodforde-sa-5072-2017238690,635000,is-sold,Sold by private treaty 22 Nov 2021,20211122,26 Buchanan Drive,WOODFORDE,SA,5072,-34.90737,138.685654,3,2,2,House,House,False,0,m2,False
2017271052,listing,/110-buchanan-drive-woodforde-sa-5072-2017271052,550000,is-sold,Sold by private treaty 02 Nov 2021,20211102,110 Buchanan Drive,WOODFORDE,SA,5072,-34.90621,138.6871,2,2,1,House,House,False,0,m2,False
2017272094,listing,/86b-st-bernards-road-magill-sa-5072-2017272094,575000,is-sold,Sold by private treaty 22 Nov 2021,20211122,86B St Bernards Road,MAGILL,SA,5072,-34.90404,138.675064,3,2,1,House,House,False,331,m2,False
2017323471,listing,/33h-edward-street-magill-sa-5072-2017323471,621000,is-sold,Sold at auction 29 Oct 2021,20211029,33H Edward Street,MAGILL,SA,5072,-34.90848,138.681473,3,2,1,House,House,False,195,m2,False
2017334190,listing,/137a-arthur-street-magill-sa-5072-2017334190,804500,is-sold,Sold by private treaty 02 Nov 2021,20211102,137A Arthur Street,MAGILL,SA,5072,-34.902935,138.674026,3,2,2,House,House,False,468,m2,False
2017336925,listing,/614-norton-summit-road-teringie-sa-5072-2017336925,830000,is-sold,Sold at auction 06 Nov 2021,20211106,614 Norton Summit Road,TERINGIE,SA,5072,-34.91628,138.716934,4,2,3,House,House,False,820,m2,False
2017339472,listing,/30-douglas-street-magill-sa-5072-2017339472,1100000,is-sold,Sold at auction 06 Nov 2021,20211106,30 Douglas Street,MAGILL,SA,5072,-34.90586,138.679123,4,2,2,House,House,False,680,m2,False
2017340835,listing,/18a-patola-place-magill-sa-5072-2017340835,835000,is-sold,Sold at auction 08 Nov 2021,20211108,18A Patola Place,MAGILL,SA,5072,-34.8994865,138.671753,3,3,2,House,House,False,0,m2,False
2017342566,listing,/9b-murray-avenue-magill-sa-5072-2017342566,862000,is-sold,Sold at auction 15 Nov 2021,20211115,9B Murray Avenue,MAGILL,SA,5072,-34.9035072,138.676849,3,2,1,House,House,False,415,m2,False
2017357700,listing,/25a-windsor-avenue-magill-sa-5072-2017357700,772000,is-sold,Sold at auction 13 Nov 2021,20211113,25a Windsor Avenue,MAGILL,SA,5072,-34.9086723,138.67009,3,2,1,House,House,False,349,m2,False
2017365895,listing,/4c-penfold-road-magill-sa-5072-2017365895,1231000,is-sold,Sold by private treaty 02 Nov 2021,20211102,4C Penfold Road,MAGILL,SA,5072,-34.91506,138.676544,4,2,2,House,House,False,575,m2,False
2017373412,listing,/98-shakespeare-avenue-magill-sa-5072-2017373412,910500,is-sold,Sold at auction 19 Nov 2021,20211119,98 Shakespeare Avenue,MAGILL,SA,5072,-34.907177,138.67099,3,2,2,House,House,False,321,m2,False
2017381710,listing,/3-berry-street-magill-sa-5072-2017381710,870000,is-sold,Sold at auction 19 Nov 2021,20211119,3 Berry Street,MAGILL,SA,5072,-34.90574,138.677628,4,2,2,House,House,False,388,m2,False
2017387593,listing,/15-first-street-magill-sa-5072-2017387593,840000,is-sold,Sold by private treaty 02 Nov 2021,20211102,15 First Street,MAGILL,SA,5072,-34.90581,138.673569,3,1,1,House,House,False,715,m2,False
2017390790,listing,/23-penfold-road-magill-sa-5072-2017390790,880888,is-sold,Sold by private treaty 19 Nov 2021,20211119,23 Penfold Road,MAGILL,SA,5072,-34.9156761,138.675964,3,1,,House,House,False,603,m2,False
2017395189,listing,/15-ormond-avenue-magill-sa-5072-2017395189,1000001,is-sold,Sold by private treaty 19 Nov 2021,20211119,15 Ormond Avenue,MAGILL,SA,5072,-34.9179077,138.678513,4,2,2,House,House,False,842,m2,False
2017425348,listing,/14-warburton-street-magill-sa-5072-2017425348,1129998,is-sold,Sold by private treaty 09 Nov 2021,20211109,14 Warburton Street,MAGILL,SA,5072,-34.9175529,138.673141,3,2,2,House,House,False,439,m2,False
2016725550,listing,/auldana-sa-5072-2016725550,2000000,is-sold,Sold by private treaty 30 Sep 2021,20210930,,AULDANA,SA,5072,-34.9174,138.685425,1,1,4,House,House,False,0,m2,False
2016812030,listing,/3-12-ferris-street-magill-sa-5072-2016812030,,is-sold,Sold by private treaty 05 Oct 2021,20211005,3/12 Ferris Street,MAGILL,SA,5072,-34.89954,138.672348,3,2,2,Townhouse,Townhouse,False,0,m2,False
2017064457,listing,/1-2-624-magill-road-magill-sa-5072-2017064457,895000,is-sold,Sold by private treaty 01 Oct 2021,20211001,1 & 2/624 Magill Road,MAGILL,SA,5072,-34.91293,138.675934,6,2,4,ApartmentUnitFlat,Apartment / Unit / Flat,False,640,m2,False
2017131084,listing,/6-427-kensington-road-rosslyn-park-sa-5072-2017131084,360000,is-sold,Sold by private treaty 29 Sep 2021,20210929,6/427 Kensington Road,ROSSLYN PARK,SA,5072,-34.9242363,138.672684,2,1,1,ApartmentUnitFlat,Apartment / Unit / Flat,False,138,m2,False
2017139144,listing,/2b-burchett-avenue-magill-sa-5072-2017139144,905000,is-sold,Sold by private treaty 15 Oct 2021,20211015,2B Burchett Avenue,MAGILL,SA,5072,-34.9146652,138.680984,3,2,2,House,House,False,0,m2,False
2017162196,listing,/2a-lorne-avenue-magill-sa-5072-2017162196,750000,is-sold,Sold at auction 27 Sep 2021,20210927,2A Lorne Avenue,MAGILL,SA,5072,-34.9126854,138.6718,3,1,3,House,House,False,536,m2,False
2017164604,listing,/22-2a-st-bernards-road-magill-sa-5072-2017164604,207600,is-sold,Sold by private treaty 01 Oct 2021,20211001,22/2A St Bernards Road,MAGILL,SA,5072,-34.912365,138.675491,2,1,1,ApartmentUnitFlat,Apartment / Unit / Flat,False,0,m2,False
2017188736,listing,/12-edgcumbe-terrace-rosslyn-park-sa-5072-2017188736,1345000,is-sold,Sold at auction 28 Sep 2021,20210928,12 Edgcumbe Terrace,ROSSLYN PARK,SA,5072,-34.9204559,138.675339,5,3,2,House,House,False,800,m2,False
2017188801,listing,/60-jervois-avenue-magill-sa-5072-2017188801,872000,is-sold,Sold by private treaty 27 Sep 2021,20210927,60 Jervois Avenue,MAGILL,SA,5072,-34.90807,138.668854,3,1,3,House,House,False,696,m2,False
2017193007,listing,/9-greenham-avenue-magill-sa-5072-2017193007,1250000,is-sold,Sold by private treaty 27 Sep 2021,20210927,9 Greenham Avenue,MAGILL,SA,5072,-34.9138336,138.683136,4,3,3,House,House,False,733,m2,False
2017228127,listing,/d3-11-carter-street-magill-sa-5072-2017228127,591500,is-sold,Sold by private treaty 14 Oct 2021,20211014,D3/11 Carter Street,MAGILL,SA,5072,-34.8980751,138.672791,3,2,2,House,House,False,0,m2,False
2017250647,listing,/14-coach-house-drive-teringie-sa-5072-2017250647,,is-sold,Sold at auction 06 Oct 2021,20211006,14 Coach House Drive,TERINGIE,SA,5072,-34.91021,138.690018,5,4,2,House,House,False,2372,m2,False
2017256753,listing,/30-gladstone-avenue-magill-sa-5072-2017256753,1166000,is-sold,Sold at auction 02 Oct 2021,20211002,30 Gladstone Avenue,MAGILL,SA,5072,-34.91065,138.66777,4,1,2,House,House,False,692,m2,False
2017267387,listing,/5-mclennon-avenue-magill-sa-5072-2017267387,841000,is-sold,Sold at auction 09 Oct 2021,20211009,5 Mclennon Avenue,MAGILL,SA,5072,-34.9079933,138.683716,3,2,2,House,House,False,370,m2,False
2017272841,listing,/304-89-buchanan-drive-woodforde-sa-5072-2017272841,360000,is-sold,Sold by private treaty 01 Oct 2021,20211001,304/89 Buchanan Drive,WOODFORDE,SA,5072,-34.90556,138.687134,1,1,1,ApartmentUnitFlat,Apartment / Unit / Flat,False,0,m2,False
2017277245,listing,/24a-east-street-magill-sa-5072-2017277245,2330000,is-sold,Sold by private treaty 27 Sep 2021,20210927,24a East Street,MAGILL,SA,5072,-34.9154243,138.683044,7,5,3,House,House,False,766,m2,False
2017286037,listing,/50-lorne-avenue-magill-sa-5072-2017286037,1150000,is-sold,Sold at auction 16 Oct 2021,20211016,50 Lorne Avenue,MAGILL,SA,5072,-34.90888,138.671387,4,2,2,House,House,False,394,m2,False
2017298670,listing,/4a-colonial-court-teringie-sa-5072-2017298670,715000,is-sold,Sold at auction 20 Oct 2021,20211020,4A Colonial Court,TERINGIE,SA,5072,-34.90983,138.6876,3,1,1,House,House,False,385,m2,False
2017298743,listing,/21-eton-avenue-magill-sa-5072-2017298743,1333000,is-sold,Sold at auction 26 Oct 2021,20211026,21 Eton Avenue,MAGILL,SA,5072,-34.8977051,138.669022,3,1,3,House,House,False,1132,m2,False
2017300554,listing,/5-2-park-street-magill-sa-5072-2017300554,467000,is-sold,Sold by private treaty 21 Oct 2021,20211021,5/2 Park Street,MAGILL,SA,5072,-34.9136047,138.680313,2,1,1,ApartmentUnitFlat,Apartment / Unit / Flat,False,0,m2,False
2016887467,listing,/63a-gladstone-avenue-magill-sa-5072-2016887467,,is-sold,Sold by private treaty 06 Sep 2021,20210906,63A Gladstone Avenue,MAGILL,SA,5072,-34.9082146,138.66713,3,2,1,House,House,False,0,m2,False
2016970893,listing,/6-gilburn-court-teringie-sa-5072-2016970893,1650000,is-sold,Sold by private treaty 21 Sep 2021,20210921,6 Gilburn Court,TERINGIE,SA,5072,-34.90832,138.688217,5,4,5,House,House,False,2056,m2,False
2017019532,listing,/14-griffiths-street-magill-sa-5072-2017019532,666000,is-sold,Sold by private treaty 03 Sep 2021,20210903,14 Griffiths street,MAGILL,SA,5072,-34.9016876,138.671646,3,1,1,House,House,False,702,m2,False
2017094549,listing,/14-driftwood-court-teringie-sa-5072-2017094549,1650000,is-sold,Sold by private treaty 02 Sep 2021,20210902,14 Driftwood Court,TERINGIE,SA,5072,-34.9098625,138.689,5,4,10,House,House,False,2063,m2,False
2017099319,listing,/10-2-st-bernards-road-magill-sa-5072-2017099319,165000,is-sold,Sold by private treaty 24 Sep 2021,20210924,10/2 St Bernards Road,MAGILL,SA,5072,-34.9127426,138.675827,1,1,1,ApartmentUnitFlat,Apartment / Unit / Flat,False,0,m2,False
2017102165,listing,/28-douglas-street-magill-sa-5072-2017102165,882000,is-sold,Sold at auction 03 Sep 2021,20210903,28 Douglas Street,MAGILL,SA,5072,-34.9059334,138.678909,4,2,3,House,House,False,690,m2,False
2017122823,listing,/15-church-street-magill-sa-5072-2017122823,1100000,is-sold,Sold by private treaty 13 Sep 2021,20210913,15 Church Street,MAGILL,SA,5072,-34.9065666,138.6777,4,3,4,House,House,False,413,m2,False
2017135200,listing,/32-mary-penfold-drive-rosslyn-park-sa-5072-2017135200,1210000,is-sold,Sold by private treaty 20 Sep 2021,20210920,32 Mary Penfold Drive,ROSSLYN PARK,SA,5072,-34.92175,138.6817,3,2,6,House,House,False,570,m2,False
2017150584,listing,/unit-4-2-park-street-magill-sa-5072-2017150584,348000,is-sold,Sold by private treaty 09 Sep 2021,20210909,Unit 4/2 Park Street,MAGILL,SA,5072,-34.9135628,138.680176,2,1,1,ApartmentUnitFlat,Apartment / Unit / Flat,False,0,m2,False
2017163258,listing,/12a-olive-court-magill-sa-5072-2017163258,560000,is-sold,Sold at auction 17 Sep 2021,20210917,12A Olive Court,MAGILL,SA,5072,-34.90801,138.681564,2,1,1,House,House,False,335,m2,False
2017166423,listing,/6-brougham-street-magill-sa-5072-2017166423,920750,is-sold,Sold by private treaty 24 Sep 2021,20210924,6 Brougham Street,MAGILL,SA,5072,-34.91234,138.672638,3,1,2,House,House,False,672,m2,False
2017183456,listing,/36c-adelaide-street-magill-sa-5072-2017183456,752500,is-sold,Sold by private treaty 03 Sep 2021,20210903,36c Adelaide Street,MAGILL,SA,5072,-34.91454,138.681229,3,2,2,House,House,False,310,m2,False
2017189772,listing,/8-gamay-court-auldana-sa-5072-2017189772,1500000,is-sold,Sold by private treaty 24 Sep 2021,20210924,8 Gamay Court,AULDANA,SA,5072,-34.920517,138.686874,5,2,2,House,House,False,1564,m2,False
2017212861,listing,/17-pepper-street-magill-sa-5072-2017212861,1200000,is-sold,Sold by private treaty 19 Sep 2021,20210919,17 Pepper Street,MAGILL,SA,5072,-34.9160728,138.674881,4,2,2,House,House,False,731,m2,False
2017226437,listing,/1-15-briant-road-magill-sa-5072-2017226437,386500,is-sold,Sold by private treaty 07 Sep 2021,20210907,1/15 Briant Road,MAGILL,SA,5072,-34.91503,138.6692,2,1,1,ApartmentUnitFlat,Apartment / Unit / Flat,False,0,m2,False
2017240414,listing,/2-russell-street-magill-sa-5072-2017240414,1035000,is-sold,Sold at auction 22 Sep 2021,20210922,2 Russell Street,MAGILL,SA,5072,-34.90859,138.678955,3,1,2,House,House,False,791,m2,False
2017245373,listing,/5a-5b-harrison-street-magill-sa-5072-2017245373,905000,is-sold,Sold by private treaty 16 Sep 2021,20210916,5A & 5B Harrison Street,MAGILL,SA,5072,-34.89845,138.674042,4,3,2,House,House,False,362,m2,False
2017253720,listing,/62-jervois-avenue-magill-sa-5072-2017253720,1601000,is-sold,Sold prior to auction 24 Sep 2021,20210924,62 Jervois Avenue,MAGILL,SA,5072,-34.90794,138.668869,5,2,2,House,House,False,714,m2,False
2017552826,listing,/unit-3-21-carter-street-magill-sa-5072-2017552826,,is-sold,Sold by private treaty 09 Sep 2021,20210909,Unit 3/21 Carter Street,MAGILL,SA,5072,-34.8973,138.672836,3,2,2,House,House,False,0,m2,False
2017831628,listing,/2-40-hyland-terrace-rosslyn-park-sa-5072-2017831628,1080000,is-sold,Sold by private treaty 24 Sep 2021,20210924,2/40 Hyland Terrace,ROSSLYN PARK,SA,5072,-34.9238129,138.6692,3,1,1,House,House,False,0,m2,False
2016477348,listing,/39-glen-stuart-road-woodforde-sa-5072-2016477348,865000,is-sold,Sold by private treaty 25 Aug 2021,20210825,39 Glen Stuart Road,WOODFORDE,SA,5072,-34.9062729,138.684875,3,2,1,House,House,False,310,m2,False
2016934307,listing,/41b-church-street-magill-sa-5072-2016934307,700000,is-sold,Sold by private treaty 24 Aug 2021,20210824,41B Church Street,MAGILL,SA,5072,-34.9063759,138.680954,3,2,1,House,House,False,322,m2,False
2016984030,listing,/11-29-norton-summit-road-woodforde-sa-5072-2016984030,308000,is-sold,Sold by private treaty 26 Aug 2021,20210826,11/29 Norton Summit Road,WOODFORDE,SA,5072,-34.9090157,138.685684,2,1,1,ApartmentUnitFlat,Apartment / Unit / Flat,False,0,m2,False
2017029666,listing,/2-4-carey-street-magill-sa-5072-2017029666,390000,is-sold,Sold by private treaty 23 Aug 2021,20210823,2/4 Carey Street,MAGILL,SA,5072,-34.9139366,138.673935,2,1,1,ApartmentUnitFlat,Apartment / Unit / Flat,False,0,m2,False
2017036641,listing,/4-135-arthur-street-magill-sa-5072-2017036641,574000,is-sold,Sold by private treaty 21 Aug 2021,20210821,4/135 Arthur Street,MAGILL,SA,5072,-34.9029236,138.673813,4,2,3,Townhouse,Townhouse,False,0,m2,False
2017117280,listing,/132b-st-bernards-road-magill-sa-5072-2017117280,830000,is-sold,Sold at auction 31 Jul 2021,20210731,132B St Bernards Road,MAGILL,SA,5072,-34.8997,138.674728,4,3,2,House,House,False,0,m2,False
2017130175,listing,/2-449-kensington-road-rosslyn-park-sa-5072-2017130175,525000,is-sold,Sold at auction 07 Aug 2021,20210807,2/449 Kensington Road,ROSSLYN PARK,SA,5072,-34.9242,138.676468,2,1,2,ApartmentUnitFlat,Apartment / Unit / Flat,False,300,m2,False
2017131957,listing,/3b-jackson-street-magill-sa-5072-2017131957,720000,is-sold,Sold at auction 31 Jul 2021,20210731,3B Jackson Street,MAGILL,SA,5072,-34.9158325,138.672424,3,2,1,House,House,False,405,m2,False
2017142531,listing,/24-gladstone-avenue-magill-sa-5072-2017142531,1375000,is-sold,Sold at auction 16 Aug 2021,20210816,24 Gladstone Avenue,MAGILL,SA,5072,-34.91105,138.667923,6,3,2,House,House,False,700,m2,False
2017159228,listing,/28b-church-street-magill-sa-5072-2017159228,,is-sold,Sold by private treaty 26 Jul 2021,20210726,28B Church Street,MAGILL,SA,5072,-34.90691,138.679459,4,2,2,House,House,False,384,m2,False
2017172804,listing,/136c-st-bernards-road-magill-sa-5072-2017172804,571000,is-sold,Sold at auction 21 Aug 2021,20210821,136C St Bernards Road,MAGILL,SA,5072,-34.8994179,138.674744,3,2,2,House,House,False,353,m2,False
2017184555,listing,/2-9-jackson-street-magill-sa-5072-2017184555,592000,is-sold,Sold at auction 28 Aug 2021,20210828,2/9 Jackson Street,MAGILL,SA,5072,-34.91572,138.673584,2,2,1,ApartmentUnitFlat,Apartment / Unit / Flat,False,0,m2,False
2017190560,listing,/33-eton-avenue-magill-sa-5072-2017190560,1205000,is-sold,Sold at auction 01 Sep 2021,20210901,33 Eton Avenue,MAGILL,SA,5072,-34.89766,138.671616,2,1,,House,House,False,1239,m2,False
2017201434,listing,/14b-fisher-street-magill-sa-5072-2017201434,963000,is-sold,Sold by private treaty 27 Aug 2021,20210827,14B Fisher Street,MAGILL,SA,5072,-34.9020424,138.6686,4,3,2,House,House,False,307,m2,False
2017202217,listing,/3-1-carsten-court-teringie-sa-5072-2017202217,505000,is-sold,Sold prior to auction 26 Aug 2021,20210826,3/1 Carsten Court,TERINGIE,SA,5072,-34.9119835,138.686951,3,1,1,ApartmentUnitFlat,Apartment / Unit / Flat,False,151,m2,False
2017310023,listing,/17-coach-road-rosslyn-park-sa-5072-2017310023,,is-sold,Sold by private treaty 23 Aug 2021,20210823,17 Coach Road,ROSSLYN PARK,SA,5072,-34.9229927,138.684036,5,3,2,House,House,False,1023,m2,False
2017336850,listing,/lot-6-la-perouse-avenue-magill-sa-5072-2017336850,,is-sold,Sold by private treaty 02 Aug 2021,20210802,Lot 6 La Perouse Avenue,MAGILL,SA,5072,-34.9175949,138.679291,4,3,2,House,House,False,0,m2,False
2017336894,listing,/lot-7-la-perouse-avenue-magill-sa-5072-2017336894,,is-sold,Sold by private treaty 28 Aug 2021,20210828,Lot 7 La Perouse Avenue,MAGILL,SA,5072,-34.9175949,138.679291,4,2,2,House,House,False,0,m2,False
2017336912,listing,/lot-9-la-perouse-avenue-magill-sa-5072-2017336912,,is-sold,Sold by private treaty 02 Aug 2021,20210802,Lot 9 La Perouse Avenue,MAGILL,SA,5072,-34.9175949,138.679291,4,2,2,House,House,False,0,m2,False
2017336947,listing,/lot-5-la-perouse-avenue-magill-sa-5072-2017336947,,is-sold,Sold by private treaty 12 Aug 2021,20210812,Lot 5 La Perouse Avenue,MAGILL,SA,5072,-34.9175949,138.679291,4,3,2,House,House,False,0,m2,False
2016545102,listing,/4-2a-rosedale-place-magill-sa-5072-2016545102,615000,is-sold,Sold prior to auction 23 Jul 2021,20210723,4/2a Rosedale Place,MAGILL,SA,5072,-34.914505,138.670135,4,2,3,Townhouse,Townhouse,False,253,m2,False
2016879649,listing,/30-mary-penfold-drive-rosslyn-park-sa-5072-2016879649,1195000,is-sold,Sold by private treaty 14 Jul 2021,20210714,30 Mary Penfold Drive,ROSSLYN PARK,SA,5072,-34.9218674,138.681473,4,3,2,House,House,False,556,m2,False
2016902136,listing,/magill-sa-5072-2016902136,680000,is-sold,Sold by private treaty 12 Jul 2021,20210712,,MAGILL,SA,5072,-34.909,138.6758,,,,VacantLand,Vacant land,False,710,m2,False
2016912603,listing,/38-douglas-street-magill-sa-5072-2016912603,680000,is-sold,Sold by private treaty 12 Jul 2021,20210712,38 Douglas Street,MAGILL,SA,5072,-34.9060059,138.680145,2,1,5,House,House,False,710,m2,False
2016968664,listing,/1-427-kensington-road-rosslyn-park-sa-5072-2016968664,495000,is-sold,Sold by private treaty 16 Jul 2021,20210716,1/427 Kensington Road,ROSSLYN PARK,SA,5072,-34.9243927,138.672913,2,1,1,ApartmentUnitFlat,Apartment / Unit / Flat,False,0,m2,False
2016986494,listing,/305-89-buchanan-drive-woodforde-sa-5072-2016986494,347000,is-sold,Sold by private treaty 20 Jul 2021,20210720,305/89 Buchanan Drive,WOODFORDE,SA,5072,-34.90556,138.687134,1,1,1,ApartmentUnitFlat,Apartment / Unit / Flat,False,0,m2,False
2016999960,listing,/11-tay-road-woodforde-sa-5072-2016999960,820000,is-sold,Sold by private treaty 22 Jul 2021,20210722,11 Tay Road,WOODFORDE,SA,5072,-34.90209,138.69043,4,3,2,House,House,False,1440,m2,False
2017003297,listing,/6-frederick-street-magill-sa-5072-2017003297,580000,is-sold,Sold at auction 05 Jul 2021,20210705,6 Frederick Street,MAGILL,SA,5072,-34.9022255,138.667084,2,1,2,House,House,False,444,m2,False
2017009694,listing,/15-29-norton-summit-road-woodforde-sa-5072-2017009694,253000,is-sold,Sold by private treaty 09 Jul 2021,20210709,15/29 Norton Summit Road,WOODFORDE,SA,5072,-34.90904,138.685135,2,1,1,Townhouse,Townhouse,False,0,m2,False
2017013604,listing,/8-giles-street-magill-sa-5072-2017013604,895000,is-sold,Sold by private treaty 06 Jul 2021,20210706,8 Giles Street,MAGILL,SA,5072,-34.91588,138.677841,4,2,2,House,House,False,835,m2,False
2017018547,listing,/7-bushy-park-drive-auldana-sa-5072-2017018547,1620000,is-sold,Sold by private treaty 06 Jul 2021,20210706,7 Bushy Park Drive,AULDANA,SA,5072,-34.9161949,138.686646,6,3,2,House,House,False,1419,m2,False
2017044867,listing,/28a-28b-church-street-magill-sa-5072-2017044867,875600,is-sold,Sold by private treaty 23 Jul 2021,20210723,28A - 28B Church Street,MAGILL,SA,5072,-34.90691,138.679459,4,2,2,House,House,False,384,m2,False
2017095289,listing,/5-geoffrey-street-magill-sa-5072-2017095289,380000,is-sold,Sold by private treaty 15 Jul 2021,20210715,5 Geoffrey Street,MAGILL,SA,5072,-34.90116,138.673843,,,,VacantLand,Vacant land,False,333,m2,False
2017102731,listing,/29-woodforde-road-magill-sa-5072-2017102731,940000,is-sold,Sold at auction 17 Jul 2021,20210717,29 Woodforde Road,MAGILL,SA,5072,-34.91019,138.678986,4,2,1,House,House,False,604,m2,False
2017113479,listing,/1-12-ferris-street-magill-sa-5072-2017113479,,is-sold,Sold by private treaty 02 Jul 2021,20210702,1/12 Ferris Street,MAGILL,SA,5072,-34.89954,138.672348,,,,Townhouse,Townhouse,False,0,m2,False
2017118085,listing,/21-second-street-magill-sa-5072-2017118085,1105500,is-sold,Sold at auction 24 Jul 2021,20210724,21 Second Street,MAGILL,SA,5072,-34.90441,138.671219,4,1,,House,House,False,666,m2,False
2017118912,listing,/4-gamay-court-auldana-sa-5072-2017118912,768000,is-sold,Sold prior to auction 15 Jul 2021,20210715,4 Gamay Court,AULDANA,SA,5072,-34.920002,138.6866,,,,VacantLand,Vacant land,False,0,m2,False
2017131993,listing,/36a-gladstone-avenue-magill-sa-5072-2017131993,850000,is-sold,Sold by private treaty 21 Jul 2021,20210721,36a Gladstone Avenue,MAGILL,SA,5072,-34.9101219,138.667847,2,2,2,House,House,False,348,m2,False
2017359110,listing,/lot-8-la-perouse-avenue-magill-sa-5072-2017359110,,is-sold,Sold by private treaty 15 Jul 2021,20210715,Lot 8 La Perouse Avenue,MAGILL,SA,5072,-34.91018,138.675354,4,2,2,House,House,False,0,m2,False
2017553142,listing,/unit-2-21-carter-street-magill-sa-5072-2017553142,,is-sold,Sold by private treaty 23 Jul 2021,20210723,Unit 2/21 Carter Street,MAGILL,SA,5072,-34.8973,138.672836,3,2,2,Townhouse,Townhouse,False,0,m2,False
2016255705,listing,/4-way-magill-sa-5072-2016255705,725500,is-sold,Sold by private treaty 28 Jun 2021,20210628,4 Way,MAGILL,SA,5072,-34.9054947,138.666611,4,3,2,Townhouse,Townhouse,False,232,m2,False
2016778078,listing,/18-7-lorne-avenue-magill-sa-5072-2016778078,261000,is-sold,Sold by private treaty 24 Jun 2021,20210624,18/7 Lorne Avenue,MAGILL,SA,5072,-34.9111748,138.672165,2,1,1,ApartmentUnitFlat,Apartment / Unit / Flat,False,0,m2,False
2016809076,listing,/22b-norton-summit-road-magill-sa-5072-2016809076,495000,is-sold,Sold by private treaty 30 Jun 2021,20210630,22B Norton Summit Road,MAGILL,SA,5072,-34.91131,138.683975,3,2,2,House,House,False,252,m2,False
2016855689,listing,/1-66-glen-stuart-road-magill-sa-5072-2016855689,465000,is-sold,Sold by private treaty 18 Jun 2021,20210618,1/66 Glen Stuart Road,MAGILL,SA,5072,-34.9037666,138.684113,4,1,2,ApartmentUnitFlat,Apartment / Unit / Flat,False,0,m2,False
2016859743,listing,/82b-reid-ave-magill-sa-5072-2016859743,595000,is-sold,Sold by private treaty 25 Jun 2021,20210625,82B Reid Ave,MAGILL,SA,5072,-34.89733,138.666321,3,2,1,House,House,False,328,m2,False
2016930903,listing,/5-609-magill-road-magill-sa-5072-2016930903,620000,is-sold,Sold by private treaty 28 Jun 2021,20210628,5/609 Magill Road,MAGILL,SA,5072,-34.9126663,138.675247,3,2,2,Terrace,Terrace,False,0,m2,False
2016933099,listing,/50a-windsor-avenue-magill-sa-5072-2016933099,530000,is-sold,Sold by private treaty 01 Jul 2021,20210701,50A Windsor Avenue,MAGILL,SA,5072,-34.90888,138.669434,3,2,2,Townhouse,Townhouse,False,0,m2,False
2016964955,listing,/2-12-barnes-avenue-magill-sa-5072-2016964955,490000,is-sold,Sold by private treaty 21 Jun 2021,20210621,2/12 Barnes Avenue,MAGILL,SA,5072,-34.9152,138.668167,2,1,1,ApartmentUnitFlat,Apartment / Unit / Flat,False,264,m2,False
2016970706,listing,/10-palomino-road-auldana-sa-5072-2016970706,1193000,is-sold,Sold by private treaty 18 Jun 2021,20210618,10 Palomino Road,AULDANA,SA,5072,-34.91836,138.685257,4,3,3,House,House,False,1963,m2,False
2016979678,listing,/1a-taylor-terrace-rosslyn-park-sa-5072-2016979678,1280000,is-sold,Sold at auction 24 Jun 2021,20210624,1A Taylor Terrace,ROSSLYN PARK,SA,5072,-34.9199829,138.669662,4,2,2,House,House,False,457,m2,False
2016983738,listing,/62-park-avenue-rosslyn-park-sa-5072-2016983738,1231000,is-sold,Sold at auction 23 Jun 2021,20210623,62 Park Avenue,ROSSLYN PARK,SA,5072,-34.92215,138.675812,3,3,3,House,House,False,871,m2,False
2016999782,listing,/1a-greer-place-magill-sa-5072-2016999782,545500,is-sold,Sold by private treaty 01 Jul 2021,20210701,1A Greer Place,MAGILL,SA,5072,-34.9113655,138.683029,3,2,1,House,House,False,306,m2,False
2017014172,listing,/37-ridgeland-drive-teringie-sa-5072-2017014172,830000,is-sold,Sold by private treaty 28 Jun 2021,20210628,37 Ridgeland Drive,TERINGIE,SA,5072,-34.9119949,138.703888,4,2,2,House,House,False,5300,m2,False
2017034178,listing,/40-kintyre-road-woodforde-sa-5072-2017034178,1020000,is-sold,Sold by private treaty 02 Jul 2021,20210702,40 Kintyre Road,WOODFORDE,SA,5072,-34.9047279,138.693954,4,3,2,House,House,False,771,m2,False
2017043159,listing,/16-frederick-street-magill-sa-5072-2017043159,,is-sold,Sold at auction 19 Jun 2021,20210619,16 Frederick Street,MAGILL,SA,5072,-34.90312,138.667664,4,2,4,House,House,False,698,m2,False
2017046737,listing,/16a-grandview-grove-magill-sa-5072-2017046737,728000,is-sold,Sold by private treaty 24 Jun 2021,20210624,16A Grandview Grove,MAGILL,SA,5072,-34.9045219,138.679626,4,2,2,House,House,False,0,m2,False
2017047606,listing,/17a-gordon-terrace-rosslyn-park-sa-5072-2017047606,1555000,is-sold,Sold at auction 19 Jun 2021,20210619,17A Gordon Terrace,ROSSLYN PARK,SA,5072,-34.922226,138.673325,4,3,2,House,House,False,435,m2,False
2017059317,listing,/1-2-barnes-avenue-magill-sa-5072-2017059317,420000,is-sold,Sold at auction 26 Jun 2021,20210626,1/2 Barnes Avenue,MAGILL,SA,5072,-34.91423,138.668121,4,1,2,ApartmentUnitFlat,Apartment / Unit / Flat,False,304,m2,False
2017060840,listing,/2a-angas-road-magill-sa-5072-2017060840,1200000,is-sold,Sold prior to auction 23 Jun 2021,20210623,2a Angas Road,MAGILL,SA,5072,-34.9030533,138.679962,4,2,2,House,House,False,458,m2,False
2017091936,listing,/2-2a-rosedale-place-magill-sa-5072-2017091936,640000,is-sold,Sold by private treaty 29 Jun 2021,20210629,2/2a Rosedale Place,MAGILL,SA,5072,-34.91449,138.670334,4,2,1,ApartmentUnitFlat,Apartment / Unit / Flat,False,266,m2,False
2016333315,listing,/1a-tyler-street-magill-sa-5072-2016333315,897000,is-sold,Sold by private treaty 12 Jun 2021,20210612,1a Tyler Street,MAGILL,SA,5072,-34.9167,138.672379,3,2,2,House,House,False,0,m2,False
2016805518,listing,/1-4-leonard-street-magill-sa-5072-2016805518,,is-sold,Sold by private treaty 09 Jun 2021,20210609,1/4 Leonard Street,MAGILL,SA,5072,-34.9003525,138.6741,3,2,2,Townhouse,Townhouse,False,0,m2,False
2016814175,listing,/1-1-flora-terrace-magill-sa-5072-2016814175,490000,is-sold,Sold by private treaty 04 Jun 2021,20210604,1/1 Flora Terrace,MAGILL,SA,5072,-34.90949,138.669983,2,1,2,House,House,False,0,m2,False
2016917097,listing,/1-521-the-parade-magill-sa-5072-2016917097,420000,is-sold,Sold at auction 31 May 2021,20210531,1/521 The Parade,MAGILL,SA,5072,-34.9190559,138.673416,2,1,1,ApartmentUnitFlat,Apartment / Unit / Flat,False,0,m2,False
2016931677,listing,/36-old-norton-summit-road-skye-sa-5072-2016931677,701000,is-sold,Sold by private treaty 15 Jun 2021,20210615,36 Old Norton Summit Road,SKYE,SA,5072,-34.91974,138.6959,3,1,6,House,House,False,0,m2,False
2016932972,listing,/37-colton-avenue-magill-sa-5072-2016932972,440000,is-sold,Sold by private treaty 04 Jun 2021,20210604,37 Colton Avenue,MAGILL,SA,5072,-34.90725,138.6719,2,1,2,House,House,False,330,m2,False
2016939966,listing,/1-12-primrose-terrace-rosslyn-park-sa-5072-2016939966,360000,is-sold,Sold by private treaty 16 Jun 2021,20210616,1/12 Primrose Terrace,ROSSLYN PARK,SA,5072,-34.9208,138.672241,2,1,1,ApartmentUnitFlat,Apartment / Unit / Flat,False,0,m2,False
2016945088,listing,/5-norama-avenue-magill-sa-5072-2016945088,695000,is-sold,Sold at auction 18 Jun 2021,20210618,5 Norama Avenue,MAGILL,SA,5072,-34.906002,138.6704,4,2,6,House,House,False,609,m2,False
2016947423,listing,/34-briant-road-magill-sa-5072-2016947423,905000,is-sold,Sold by private treaty 08 Jun 2021,20210608,34 Briant Road,MAGILL,SA,5072,-34.91627,138.669769,4,2,3,House,House,False,745,m2,False
2016953890,listing,/16b-harrison-street-magill-sa-5072-2016953890,725000,is-sold,Sold by private treaty 01 Jun 2021,20210601,16b Harrison Street,MAGILL,SA,5072,-34.8977623,138.6734,3,2,1,House,House,False,364,m2,False
2016964248,listing,/8-angas-road-magill-sa-5072-2016964248,765000,is-sold,Sold by private treaty 16 Jun 2021,20210616,8 Angas Road,MAGILL,SA,5072,-34.90352,138.68,4,2,1,House,House,False,0,m2,False
2016970343,listing,/32-pepper-street-magill-sa-5072-2016970343,891500,is-sold,Sold prior to auction 11 Jun 2021,20210611,32 Pepper Street,MAGILL,SA,5072,-34.9176445,138.675537,3,1,1,House,House,False,838,m2,False
2017002567,listing,/453-kensington-road-rosslyn-park-sa-5072-2017002567,,is-sold,Sold at auction 05 Jun 2021,20210605,453 Kensington Road,ROSSLYN PARK,SA,5072,-34.9239655,138.677536,4,2,4,House,House,False,1417,m2,False
2017013670,listing,/34-adelaide-street-magill-sa-5072-2017013670,893500,is-sold,Sold at auction 05 Jun 2021,20210605,34 Adelaide Street,MAGILL,SA,5072,-34.9145164,138.681046,4,2,1,House,House,False,759,m2,False
2017017442,listing,/1a-ash-grove-magill-sa-5072-2017017442,1220000,is-sold,Sold at auction 05 Jun 2021,20210605,1A Ash Grove,MAGILL,SA,5072,-34.9162636,138.677216,4,3,2,House,House,False,465,m2,False
2017021343,listing,/31-east-street-magill-sa-5072-2017021343,1117000,is-sold,Sold by private treaty 03 Jun 2021,20210603,31 East Street,MAGILL,SA,5072,-34.9162674,138.682571,4,2,2,House,House,False,399,m2,False
2017027900,listing,/42-old-norton-summit-road-skye-sa-5072-2017027900,,is-sold,Sold by private treaty 17 Jun 2021,20210617,42 Old Norton Summit Road,SKYE,SA,5072,-34.9214478,138.697464,3,1,7,House,House,False,4369,m2,False
2017040222,listing,/2-3-2-3-mulberry-ct-magill-sa-5072-2017040222,,is-sold,Sold by private treaty 18 Jun 2021,20210618,"2, 3/2, 3 Mulberry Ct",MAGILL,SA,5072,-34.90682,138.682449,2,1,1,ApartmentUnitFlat,Apartment / Unit / Flat,False,0,m2,False
2017045907,listing,/2-81-colton-avenue-magill-sa-5072-2017045907,320000,is-sold,Sold at auction 18 Jun 2021,20210618,2/81 Colton Avenue,MAGILL,SA,5072,-34.907486,138.6678,2,1,1,ApartmentUnitFlat,Apartment / Unit / Flat,False,0,m2,False
2017092013,listing,/1b-tyler-street-magill-sa-5072-2017092013,907000,is-sold,Sold by private treaty 14 Jun 2021,20210614,1b Tyler Street,MAGILL,SA,5072,-34.9167,138.672379,3,2,2,House,House,False,300,m2,False
2015507696,listing,/16a-gertrude-street-magill-sa-5072-2015507696,900000,is-sold,Sold by private treaty 27 May 2021,20210527,16A Gertrude Street,MAGILL,SA,5072,-34.90872,138.678085,4,3,2,House,House,False,0,m2,False
2016592576,listing,/11-edward-street-magill-sa-5072-2016592576,905000,is-sold,Sold by private treaty 14 May 2021,20210514,11 Edward Street,MAGILL,SA,5072,-34.9089279,138.677917,,,5,VacantLand,Vacant land,False,913,m2,False
2016731573,listing,/2-135-arthur-street-magill-sa-5072-2016731573,553000,is-sold,Sold by private treaty 18 May 2021,20210518,2/135 Arthur Street,MAGILL,SA,5072,-34.90306,138.673843,3,2,2,Townhouse,Townhouse,False,0,m2,False
2016806915,listing,/1-langman-drive-teringie-sa-5072-2016806915,735000,is-sold,Sold by private treaty 18 May 2021,20210518,1 Langman Drive,TERINGIE,SA,5072,-34.9111557,138.687668,4,2,4,House,House,False,627,m2,False
2016823573,listing,/38-knox-terrace-skye-sa-5072-2016823573,1165000,is-sold,Sold by private treaty 28 May 2021,20210528,38 Knox Terrace,SKYE,SA,5072,-34.9268227,138.688446,3,2,7,House,House,True,1.81,ha,False
2016870565,listing,/43-lorne-avenue-magill-sa-5072-2016870565,502500,is-sold,Sold at auction 28 May 2021,20210528,43 Lorne Avenue,MAGILL,SA,5072,-34.9079857,138.671738,3,1,1,House,House,False,0,m2,False
2016872442,listing,/3-66-glen-stuart-road-magill-sa-5072-2016872442,512500,is-sold,Sold by private treaty 14 May 2021,20210514,3/66 Glen Stuart Road,MAGILL,SA,5072,-34.90375,138.683685,3,1,1,ApartmentUnitFlat,Apartment / Unit / Flat,False,274,m2,False
2016876528,listing,/49-barnes-avenue-magill-sa-5072-2016876528,915000,is-sold,Sold by private treaty 14 May 2021,20210514,49 Barnes Avenue,MAGILL,SA,5072,-34.91822,138.667831,3,1,,House,House,False,994,m2,False
2016876939,listing,/3-57-barnes-avenue-magill-sa-5072-2016876939,385000,is-sold,Sold by private treaty 31 May 2021,20210531,3/57 Barnes Avenue,MAGILL,SA,5072,-34.918808,138.667709,2,1,2,ApartmentUnitFlat,Apartment / Unit / Flat,False,0,m2,False
2016887238,listing,/49-ridgeland-drive-teringie-sa-5072-2016887238,970000,is-sold,Sold at auction 31 May 2021,20210531,49 Ridgeland Drive,TERINGIE,SA,5072,-34.914444,138.706146,4,2,6,House,House,False,2049,m2,False
2016890040,listing,/1a-alton-avenue-magill-sa-5072-2016890040,622500,is-sold,Sold by private treaty 11 May 2021,20210511,1A Alton Avenue,MAGILL,SA,5072,-34.90206,138.674561,4,2,2,House,House,False,239,m2,False
2016893025,listing,/52a-moules-road-magill-sa-5072-2016893025,630000,is-sold,Sold by private treaty 18 May 2021,20210518,52a Moules Road,MAGILL,SA,5072,-34.9026451,138.682068,3,2,2,House,House,False,350,m2,False
2016893985,listing,/23-chapel-street-magill-sa-5072-2016893985,720000,is-sold,Sold by private treaty 27 May 2021,20210527,23 Chapel Street,MAGILL,SA,5072,-34.914856,138.673279,,,,VacantLand,Vacant land,False,560,m2,False
2016914589,listing,/3-52-vine-street-magill-sa-5072-2016914589,318000,is-sold,Sold by private treaty 14 May 2021,20210514,3/52 Vine Street,MAGILL,SA,5072,-34.90869,138.680038,2,1,2,House,House,False,0,m2,False
