id,listingType,url,price,tagClassName,tagText,date,street,suburb,state,postcode,lat,lng,beds,baths,parking,propertyType,propertyTypeFormatted,isRural,landSize,landUnit,isRetirement
2018180233,listing,/4-piccadilly-way-lightsview-sa-5085-2018180233,,is-sold,Sold by private treaty 14 Feb 2023,20230214,4 Piccadilly Way,LIGHTSVIEW,SA,5085,-34.86398,138.634186,3,3,3,Townhouse,Townhouse,False,0,m2,False
2018206423,listing,/60-briens-road-northfield-sa-5085-2018206423,560000,is-sold,Sold by private treaty 09 Feb 2023,20230209,60 Briens Road,NORTHFIELD,SA,5085,-34.8419724,138.62149,3,3,3,House,House,False,755,m2,False
2018216145,listing,/26-bowman-cres-enfield-sa-5085-2018216145,500000,is-sold,Sold by private treaty 06 Feb 2023,20230206,26 Bowman Cres,ENFIELD,SA,5085,-34.86219,138.604889,3,3,3,House,House,False,642,m2,False
2018246482,listing,/33-blyth-street-clearview-sa-5085-2018246482,,is-sold,Sold at auction 01 Feb 2023,20230201,33 Blyth Street,CLEARVIEW,SA,5085,-34.8640862,138.611389,2,2,2,House,House,False,760,m2,False
2018279076,listing,/7-david-campbell-way-lightsview-sa-5085-2018279076,955000,is-sold,Sold by private treaty 08 Feb 2023,20230208,7 David Campbell Way,LIGHTSVIEW,SA,5085,-34.86341,138.619446,3,3,3,House,House,False,0,m2,False
2018279096,listing,/23-hastings-lane-lightsview-sa-5085-2018279096,675000,is-sold,Sold at auction 30 Jan 2023,20230130,23 Hastings Lane,LIGHTSVIEW,SA,5085,-34.86346,138.631119,3,3,3,House,House,False,132,m2,False
2018280743,listing,/12-springwood-way-northgate-sa-5085-2018280743,900000,is-sold,Sold by private treaty 09 Feb 2023,20230209,12 Springwood Way,NORTHGATE,SA,5085,-34.8573952,138.6318,4,4,4,House,House,False,600,m2,False
2018283548,listing,/20-jeffcott-avenue-lightsview-sa-5085-2018283548,635000,is-sold,Sold by private treaty 25 Jan 2023,20230125,20 Jeffcott Avenue,LIGHTSVIEW,SA,5085,-34.8621979,138.622208,3,3,3,House,House,False,0,m2,False
2018286480,listing,/15a-gurney-terrace-enfield-sa-5085-2018286480,660000,is-sold,Sold at auction 13 Feb 2023,20230213,15A Gurney Terrace,ENFIELD,SA,5085,-34.8583565,138.603363,3,3,3,House,House,False,303,m2,False
2018291155,listing,/1-durand-terrace-enfield-sa-5085-2018291155,571000,is-sold,Sold at auction 07 Feb 2023,20230207,1 Durand Terrace,ENFIELD,SA,5085,-34.86054,138.601669,2,2,2,House,House,False,700,m2,False
2018292023,listing,/2b-stroud-street-clearview-sa-5085-2018292023,790000,is-sold,Sold at auction 06 Feb 2023,20230206,2B Stroud Street,CLEARVIEW,SA,5085,-34.85472,138.614487,4,4,4,House,House,False,487,m2,False
2018295484,listing,/9-mckay-avenue-northfield-sa-5085-2018295484,631000,is-sold,Sold at auction 04 Feb 2023,20230204,9 McKay Avenue,NORTHFIELD,SA,5085,-34.85611,138.624588,3,3,3,House,House,False,786,m2,False
2018296936,listing,/22-patta-avenue-lightsview-sa-5085-2018296936,591000,is-sold,Sold by private treaty 01 Feb 2023,20230201,22 Patta Avenue,LIGHTSVIEW,SA,5085,-34.8643646,138.627045,3,3,3,House,House,False,171,m2,False
2018305793,listing,/9-webb-street-lightsview-sa-5085-2018305793,1200000,is-sold,Sold by private treaty 02 Feb 2023,20230202,9 Webb Street,LIGHTSVIEW,SA,5085,-34.86349,138.6277,5,5,5,House,House,False,344,m2,False
2018308902,listing,/13-high-avenue-clearview-sa-5085-2018308902,690000,is-sold,Sold at auction 11 Feb 2023,20230211,13 High Avenue,CLEARVIEW,SA,5085,-34.86375,138.612549,5,5,5,House,House,False,750,m2,False
2018315359,listing,/13-goodhall-street-lightsview-sa-5085-2018315359,,is-sold,Sold by private treaty 04 Feb 2023,20230204,13 Goodhall Street,LIGHTSVIEW,SA,5085,-34.85908,138.620285,3,3,3,Townhouse,Townhouse,False,0,m2,False
2018323615,listing,/7-dumfries-avenue-northfield-sa-5085-2018323615,708000,is-sold,Sold by private treaty 15 Feb 2023,20230215,7 Dumfries Avenue,NORTHFIELD,SA,5085,-34.8572464,138.626648,3,3,3,House,House,False,396,m2,False
2018323633,listing,/34-hunt-street-lightsview-sa-5085-2018323633,640000,is-sold,Sold by private treaty 20 Feb 2023,20230220,34 Hunt Street,LIGHTSVIEW,SA,5085,-34.8605347,138.624725,3,3,3,House,House,False,0,m2,False
2018326285,listing,/52-corconda-street-clearview-sa-5085-2018326285,,is-sold,Sold at auction 20 Feb 2023,20230220,52 Corconda Street,CLEARVIEW,SA,5085,-34.86607,138.61293,3,3,3,House,House,False,821,m2,False
2018333378,listing,/14a-north-avenue-northfield-sa-5085-2018333378,632500,is-sold,Sold at auction 27 Feb 2023,20230227,14A North Avenue,NORTHFIELD,SA,5085,-34.8479233,138.619415,3,3,3,House,House,False,374,m2,False
2018341779,listing,/154-east-parkway-lightsview-sa-5085-2018341779,481000,is-sold,Sold by private treaty 06 Mar 2023,20230306,154 East Parkway,LIGHTSVIEW,SA,5085,-34.8623772,138.626572,2,2,1,Townhouse,Townhouse,False,104,m2,False
2018108992,listing,/2-allen-street-northfield-sa-5085-2018108992,647000,is-sold,Sold by private treaty 06 Mar 2023,20230306,2 Allen Street,NORTHFIELD,SA,5085,-34.8509941,138.620422,3,1,1,House,House,False,770,m2,False
2018242195,listing,/3-25-barnes-avenue-northfield-sa-5085-2018242195,350000,is-sold,Sold by private treaty 06 Mar 2023,20230306,3/25 Barnes Avenue,NORTHFIELD,SA,5085,-34.8485527,138.625946,2,1,1,ApartmentUnitFlat,Apartment / Unit / Flat,False,0,m2,False
2018369546,listing,/6-35a-hoods-road-northfield-sa-5085-2018369546,415000,is-sold,Sold by private treaty 06 Mar 2023,20230306,6/35A Hoods Road,NORTHFIELD,SA,5085,-34.8428535,138.6251,2,1,1,ApartmentUnitFlat,Apartment / Unit / Flat,False,0,m2,False
2018349558,listing,/23-dumfries-avenue-northfield-sa-5085-2018349558,843000,is-sold,Sold at auction 04 Mar 2023,20230304,23 Dumfries Avenue,NORTHFIELD,SA,5085,-34.8553238,138.626572,3,1,1,House,House,False,770,m2,False
2018369580,listing,/31-parnatti-street-lightsview-sa-5085-2018369580,687000,is-sold,Sold by private treaty 07 Mar 2023,20230307,31 Parnatti Street,LIGHTSVIEW,SA,5085,-34.8638535,138.624176,3,2,1,House,House,False,0,m2,False
2018351374,listing,/1-5-chilworth-avenue-enfield-sa-5085-2018351374,,is-sold,Sold by private treaty 07 Mar 2023,20230307,1/5 Chilworth Avenue,ENFIELD,SA,5085,-34.862133,138.609,2,1,1,ApartmentUnitFlat,Apartment / Unit / Flat,False,0,m2,False
2018316027,listing,/1-cross-street-enfield-sa-5085-2018316027,635000,is-sold,Sold by private treaty 08 Mar 2023,20230308,1 Cross Street,ENFIELD,SA,5085,-34.8694649,138.603348,4,2,2,House,House,False,351,m2,False
2018388557,listing,/4-rhind-road-lightsview-sa-5085-2018388557,,is-sold,Sold by private treaty 07 Mar 2023,20230307,4 Rhind Road,LIGHTSVIEW,SA,5085,-34.86372,138.629608,4,2,2,House,House,False,413,m2,False
2018350802,listing,/31-north-parkway-lightsview-sa-5085-2018350802,735500,is-sold,Sold at auction 06 Mar 2023,20230306,31 North Parkway,LIGHTSVIEW,SA,5085,-34.86003,138.628189,3,2,1,House,House,False,296,m2,False
2018325533,listing,/3a-justin-avenue-northfield-sa-5085-2018325533,680000,is-sold,Sold by private treaty 28 Feb 2023,20230228,3a Justin Avenue,NORTHFIELD,SA,5085,-34.8494,138.624023,3,2,2,House,House,False,349,m2,False
2017805367,listing,/10-24-ragless-avenue-enfield-sa-5085-2017805367,350000,is-sold,Sold by private treaty 20 Feb 2023,20230220,10/24 Ragless Avenue,ENFIELD,SA,5085,-34.8710938,138.603409,,,,VacantLand,Vacant land,False,300,m2,False
2017900278,listing,/42-tiara-street-lightsview-sa-5085-2017900278,750000,is-sold,Sold by private treaty 07 Feb 2023,20230207,42 Tiara Street,LIGHTSVIEW,SA,5085,-34.86397,138.62532,4,2,4,House,House,False,220,m2,False
2018156105,listing,/1a-palmer-street-lightsview-sa-5085-2018156105,,is-sold,Sold by private treaty 08 Feb 2023,20230208,1A Palmer Street,LIGHTSVIEW,SA,5085,-34.8645859,138.633484,3,2,2,House,House,False,0,m2,False
2018192366,listing,/2-gill-road-lightsview-sa-5085-2018192366,240000,is-sold,Sold at auction 20 Jan 2023,20230120,2 Gill Road,LIGHTSVIEW,SA,5085,-34.8643341,138.626465,,,,VacantLand,Vacant land,False,154,m2,False
2018215624,listing,/1a-sarnia-avenue-clearview-sa-5085-2018215624,605000,is-sold,Sold by private treaty 08 Feb 2023,20230208,1A Sarnia Avenue,CLEARVIEW,SA,5085,-34.8629456,138.617783,3,1,2,House,House,False,330,m2,False
2018244390,listing,/5-9-city-view-boulevard-lightsview-sa-5085-2018244390,320000,is-sold,Sold by private treaty 25 Jan 2023,20230125,5/9 City View Boulevard,LIGHTSVIEW,SA,5085,-34.8588562,138.634811,1,1,1,ApartmentUnitFlat,Apartment / Unit / Flat,False,0,m2,False
2018268706,listing,/6-golding-lane-lightsview-sa-5085-2018268706,485000,is-sold,Sold prior to auction 09 Feb 2023,20230209,6 Golding Lane,LIGHTSVIEW,SA,5085,-34.86214,138.62735,3,2,1,House,House,False,0,m2,False
2018275427,listing,/13-grundy-road-lightsview-sa-5085-2018275427,520000,is-sold,Sold at auction 21 Jan 2023,20230121,13 Grundy Road,LIGHTSVIEW,SA,5085,-34.85972,138.620346,3,2,1,Townhouse,Townhouse,False,0,m2,False
2018281259,listing,/194-east-parkway-lightsview-sa-5085-2018281259,615505,is-sold,Sold by private treaty 20 Jan 2023,20230120,194 East Parkway,LIGHTSVIEW,SA,5085,-34.862587,138.623276,3,2,2,Townhouse,Townhouse,False,165,m2,False
2017866105,listing,/2a-gray-avenue-northfield-sa-5085-2017866105,595000,is-sold,Sold by private treaty 09 Jan 2023,20230109,2a Gray Avenue,NORTHFIELD,SA,5085,-34.84766,138.620712,3,2,1,House,House,False,370,m2,False
2018105320,listing,/unit-6-19-hindmarsh-tce-lightsview-sa-5085-2018105320,444000,is-sold,Sold by private treaty 16 Jan 2023,20230116,Unit 6/19 Hindmarsh Tce,LIGHTSVIEW,SA,5085,-34.8623352,138.63266,3,2,1,ApartmentUnitFlat,Apartment / Unit / Flat,False,0,m2,False
2018120907,listing,/9-walton-avenue-clearview-sa-5085-2018120907,650000,is-sold,Sold 18 Jan 2023,20230118,9 WALTON AVENUE,CLEARVIEW,SA,5085,-34.8505936,138.615509,3,2,2,House,House,False,300,m2,False
2018134312,listing,/25-bradley-terrace-lightsview-sa-5085-2018134312,585000,is-sold,Sold at auction 16 Jan 2023,20230116,25 Bradley Terrace,LIGHTSVIEW,SA,5085,-34.8631134,138.631042,3,2,2,Townhouse,Townhouse,False,132,m2,False
2018156544,listing,/6-beaumont-street-lightsview-sa-5085-2018156544,560000,is-sold,Sold by private treaty 09 Jan 2023,20230109,6 Beaumont Street,LIGHTSVIEW,SA,5085,-34.85921,138.620972,3,2,1,Townhouse,Townhouse,False,0,m2,False
2018157292,listing,/1-palmer-street-lightsview-sa-5085-2018157292,640000,is-sold,Sold by private treaty 30 Dec 2022,20221230,1 Palmer Street,LIGHTSVIEW,SA,5085,-34.8645821,138.633469,4,3,2,House,House,False,0,m2,False
2018168715,listing,/85-fairview-terrace-clearview-sa-5085-2018168715,600000,is-sold,Sold by private treaty 08 Jan 2023,20230108,85 Fairview Terrace,CLEARVIEW,SA,5085,-34.8544655,138.612366,4,1,2,House,House,False,847,m2,False
2018170214,listing,/128-folland-avenue-northgate-sa-5085-2018170214,580000,is-sold,Sold by private treaty 10 Jan 2023,20230110,128 Folland Avenue,NORTHGATE,SA,5085,-34.85777,138.63298,3,1,2,House,House,False,0,m2,False
2018184755,listing,/2-folland-avenue-northfield-sa-5085-2018184755,645000,is-sold,Sold by private treaty 22 Dec 2022,20221222,2 Folland Avenue,NORTHFIELD,SA,5085,-34.85833,138.6195,3,2,1,House,House,False,319,m2,False
2018192324,listing,/2-waterford-circuit-lightsview-sa-5085-2018192324,430000,is-sold,Sold at auction 09 Jan 2023,20230109,2 Waterford Circuit,LIGHTSVIEW,SA,5085,-34.86232,138.633377,2,1,1,House,House,False,123,m2,False
2018192846,listing,/211-east-parkway-lightsview-sa-5085-2018192846,588000,is-sold,Sold by private treaty 10 Jan 2023,20230110,211 East Parkway,LIGHTSVIEW,SA,5085,-34.86304,138.6213,3,2,1,House,House,False,0,m2,False
2018197253,listing,/unit-24-19-hindmarsh-tce-lightsview-sa-5085-2018197253,430000,is-sold,Sold by private treaty 16 Jan 2023,20230116,Unit 24/19 Hindmarsh Tce,LIGHTSVIEW,SA,5085,-34.86246,138.63298,2,2,1,ApartmentUnitFlat,Apartment / Unit / Flat,False,0,m2,False
2018198612,listing,/1c-baker-street-enfield-sa-5085-2018198612,935000,is-sold,Sold at auction 18 Jan 2023,20230118,1C Baker Street,ENFIELD,SA,5085,-34.8491859,138.6012,4,2,2,House,House,False,496,m2,False
2018200792,listing,/33-fairview-terrace-clearview-sa-5085-2018200792,630000,is-sold,Sold by private treaty 22 Dec 2022,20221222,33 Fairview Terrace,CLEARVIEW,SA,5085,-34.84996,138.61142,3,1,2,House,House,False,845,m2,False
2018205536,listing,/72-ormond-avenue-clearview-sa-5085-2018205536,522000,is-sold,Sold by private treaty 22 Dec 2022,20221222,72 Ormond Avenue,CLEARVIEW,SA,5085,-34.8604965,138.61084,3,1,3,House,House,False,547,m2,False
2018217667,listing,/24-neates-road-lightsview-sa-5085-2018217667,600000,is-sold,Sold by private treaty 19 Dec 2022,20221219,24 Neates Road,LIGHTSVIEW,SA,5085,-34.8601265,138.62645,3,3,1,House,House,False,0,m2,False
2018231246,listing,/35-jeffcott-avenue-lightsview-sa-5085-2018231246,600000,is-sold,Sold by private treaty 06 Jan 2023,20230106,35 Jeffcott Avenue,LIGHTSVIEW,SA,5085,-34.8618164,138.623245,3,2,1,Townhouse,Townhouse,False,0,m2,False
2018242255,listing,/9-amber-avenue-clearview-sa-5085-2018242255,580000,is-sold,Sold by private treaty 06 Jan 2023,20230106,9 Amber Avenue,CLEARVIEW,SA,5085,-34.84853,138.610565,3,2,2,House,House,False,352,m2,False
2018267130,listing,/2-folland-avenue-northfield-sa-5085-2018267130,645000,is-sold,Sold by private treaty 12 Jan 2023,20230112,2 Folland Avenue,NORTHFIELD,SA,5085,-34.85833,138.6195,3,2,1,House,House,False,319,m2,False
2018275469,listing,/26-chard-street-lightsview-sa-5085-2018275469,555000,is-sold,Sold by private treaty 19 Jan 2023,20230119,26 Chard Street,LIGHTSVIEW,SA,5085,-34.8631935,138.626816,3,3,1,Townhouse,Townhouse,False,0,m2,False
2017842622,listing,/59-wiltshire-drive-lightsview-sa-5085-2017842622,205000,is-sold,Sold by private treaty 06 Dec 2022,20221206,59 Wiltshire Drive,LIGHTSVIEW,SA,5085,-34.86384,138.620682,3,2,1,NewHouseLand,New House & Land,False,132,m2,False
2017939784,listing,/41-mccusker-avenue-enfield-sa-5085-2017939784,590000,is-sold,Sold by private treaty 30 Nov 2022,20221130,41 McCusker Avenue,ENFIELD,SA,5085,-34.8616333,138.6055,3,1,,House,House,False,660,m2,False
2018057643,listing,/47-collins-street-enfield-sa-5085-2018057643,700000,is-sold,Sold by private treaty 28 Nov 2022,20221128,47 Collins Street,ENFIELD,SA,5085,-34.867794,138.607712,3,2,1,House,House,False,410,m2,False
2018077310,listing,/15-glenburnie-avenue-northfield-sa-5085-2018077310,680000,is-sold,Sold prior to auction 14 Dec 2022,20221214,15 Glenburnie Avenue,NORTHFIELD,SA,5085,-34.85596,138.620529,3,1,1,House,House,False,924,m2,False
2018108988,listing,/20-hillsea-avenue-clearview-sa-5085-2018108988,670000,is-sold,Sold by private treaty 05 Dec 2022,20221205,20 Hillsea Avenue,CLEARVIEW,SA,5085,-34.8643456,138.6108,3,1,1,House,House,False,717,m2,False
2018118794,listing,/3-11-13-darlington-street-enfield-sa-5085-2018118794,375000,is-sold,Sold by private treaty 25 Nov 2022,20221125,3/11-13 Darlington Street,ENFIELD,SA,5085,-34.8542137,138.602219,2,1,1,ApartmentUnitFlat,Apartment / Unit / Flat,False,0,m2,False
2018155827,listing,/8-neale-lane-lightsview-sa-5085-2018155827,602000,is-sold,Sold by private treaty 15 Dec 2022,20221215,8 Neale Lane,LIGHTSVIEW,SA,5085,-34.8596878,138.634644,3,2,2,Townhouse,Townhouse,False,206,m2,False
2018170931,listing,/63-waterford-circuit-lightsview-sa-5085-2018170931,980000,is-sold,Sold at auction 09 Dec 2022,20221209,63 Waterford Circuit,LIGHTSVIEW,SA,5085,-34.8636971,138.630127,5,2,2,House,House,False,0,m2,False
2018183235,listing,/34-sarnia-avenue-clearview-sa-5085-2018183235,620000,is-sold,Sold at auction 26 Nov 2022,20221126,34 Sarnia Avenue,CLEARVIEW,SA,5085,-34.8623772,138.6129,3,2,4,House,House,False,0,m2,False
2018186617,listing,/7a-tennyson-street-clearview-sa-5085-2018186617,737500,is-sold,Sold by private treaty 05 Dec 2022,20221205,7A Tennyson Street,CLEARVIEW,SA,5085,-34.85781,138.615265,3,2,1,House,House,False,442,m2,False
2018192197,listing,/22-golding-lane-lightsview-sa-5085-2018192197,423000,is-sold,Sold by private treaty 09 Dec 2022,20221209,22 Golding Lane,LIGHTSVIEW,SA,5085,-34.8621445,138.62735,2,2,1,House,House,False,81,m2,False
2018197947,listing,/5-webb-street-lightsview-sa-5085-2018197947,980000,is-sold,Sold at auction 03 Dec 2022,20221203,5 Webb Street,LIGHTSVIEW,SA,5085,-34.863224,138.62767,4,2,2,House,House,False,413,m2,False
2018199852,listing,/18-perkins-avenue-enfield-sa-5085-2018199852,950000,is-sold,Sold at auction 03 Dec 2022,20221203,18 Perkins Avenue,ENFIELD,SA,5085,-34.871933,138.6098,4,2,2,House,House,False,606,m2,False
2018202563,listing,/452-grand-junction-road-clearview-sa-5085-2018202563,525000,is-sold,Sold by private treaty 08 Dec 2022,20221208,452 Grand Junction Road,CLEARVIEW,SA,5085,-34.8478622,138.61525,3,1,1,House,House,False,664,m2,False
2018203180,listing,/6-carrick-court-northgate-sa-5085-2018203180,839000,is-sold,Sold at auction 05 Dec 2022,20221205,6 Carrick Court,NORTHGATE,SA,5085,-34.8552856,138.631866,3,2,2,House,House,False,450,m2,False
2018203870,listing,/6-kardi-street-enfield-sa-5085-2018203870,790000,is-sold,Sold by private treaty 05 Dec 2022,20221205,6 Kardi Street,ENFIELD,SA,5085,-34.8487968,138.6051,3,2,2,House,House,False,375,m2,False
2018213509,listing,/28-tiwu-street-lightsview-sa-5085-2018213509,660000,is-sold,Sold by private treaty 16 Dec 2022,20221216,28 Tiwu Street,LIGHTSVIEW,SA,5085,-34.86522,138.627335,3,2,2,House,House,False,151,m2,False
2018213547,listing,/494-grand-junction-rd-northfield-sa-5085-2018213547,490000,is-sold,Sold at auction 17 Dec 2022,20221217,494 Grand Junction Rd,NORTHFIELD,SA,5085,-34.84764,138.621384,3,2,2,House,House,False,358,m2,False
2018219659,listing,/26-manchester-parade-lightsview-sa-5085-2018219659,560000,is-sold,Sold by private treaty 07 Dec 2022,20221207,26 Manchester Parade,LIGHTSVIEW,SA,5085,-34.8620377,138.631256,3,3,1,House,House,False,99,m2,False
2018244353,listing,/1-4-branson-avenue-clearview-sa-5085-2018244353,428000,is-sold,Sold at auction 18 Dec 2022,20221218,1/4 Branson Avenue,CLEARVIEW,SA,5085,-34.8649635,138.617691,2,1,2,House,House,False,251,m2,False
2017885098,listing,/lightsview-sa-5085-2017885098,510000,is-sold,Sold by private treaty 20 Nov 2022,20221120,,LIGHTSVIEW,SA,5085,-34.86206,138.628265,3,2,2,Townhouse,Townhouse,False,189,m2,False
2017941429,listing,/lot-1-27-walton-avenue-clearview-sa-5085-2017941429,300000,is-sold,Sold by private treaty 09 Nov 2022,20221109,Lot 1/27 Walton Avenue,CLEARVIEW,SA,5085,-34.85071,138.613068,,,,VacantLand,Vacant land,False,300,m2,False
2017955797,listing,/lot-1491-35-fairview-terrace-clearview-sa-5085-2017955797,360000,is-sold,Sold by private treaty 10 Nov 2022,20221110,"Lot 1491, 35 Fairview Terrace",CLEARVIEW,SA,5085,-34.8500748,138.611267,,,,VacantLand,Vacant land,False,407,m2,False
2018018338,listing,/41-lightsview-avenue-lightsview-sa-5085-2018018338,1490000,is-sold,Sold at auction 11 Nov 2022,20221111,41 Lightsview Avenue,LIGHTSVIEW,SA,5085,-34.8641052,138.627411,4,2,2,House,House,False,413,m2,False
2018028316,listing,/21-chilworth-avenue-enfield-sa-5085-2018028316,512186,is-sold,Sold by private treaty 07 Nov 2022,20221107,21 Chilworth Avenue,ENFIELD,SA,5085,-34.8650627,138.609161,3,1,1,House,House,False,696,m2,False
2018030605,listing,/17-light-terrace-lightsview-sa-5085-2018030605,575000,is-sold,Sold by private treaty 17 Nov 2022,20221117,17 Light Terrace,LIGHTSVIEW,SA,5085,-34.85959,138.635056,3,2,2,House,House,False,151,m2,False
2018037850,listing,/5-flint-street-enfield-sa-5085-2018037850,,is-sold,Sold by private treaty 15 Nov 2022,20221115,5 Flint Street,ENFIELD,SA,5085,-34.86156,138.602066,3,1,2,House,House,False,708,m2,False
2018055106,listing,/286a-hampstead-road-clearview-sa-5085-2018055106,647000,is-sold,Sold by private treaty 18 Nov 2022,20221118,286A Hampstead Road,CLEARVIEW,SA,5085,-34.85475,138.6175,3,2,2,House,House,False,418,m2,False
2018074546,listing,/6-wright-avenue-northfield-sa-5085-2018074546,747000,is-sold,Sold at auction 11 Nov 2022,20221111,6 Wright Avenue,NORTHFIELD,SA,5085,-34.85149,138.61937,3,1,2,House,House,False,679,m2,False
2018086819,listing,/500-grand-junction-road-northfield-sa-5085-2018086819,620000,is-sold,Sold by private treaty 18 Nov 2022,20221118,500 Grand Junction Road,NORTHFIELD,SA,5085,-34.8475876,138.621918,3,1,4,House,House,False,730,m2,False
2018092912,listing,/512-514-grand-junction-road-northfield-sa-5085-2018092912,580000,is-sold,Sold by private treaty 25 Nov 2022,20221125,512-514 Grand Junction Road,NORTHFIELD,SA,5085,-34.8475647,138.62352,3,1,2,House,House,False,449,m2,False
2018136654,listing,/28-blyth-street-clearview-sa-5085-2018136654,612500,is-sold,Sold at auction 05 Nov 2022,20221105,28 Blyth Street,CLEARVIEW,SA,5085,-34.8643646,138.611969,3,1,1,House,House,False,0,m2,False
2018140214,listing,/16-ashton-link-northgate-sa-5085-2018140214,801500,is-sold,Sold by private treaty 24 Nov 2022,20221124,16 Ashton Link,NORTHGATE,SA,5085,-34.84972,138.632813,3,2,2,House,House,False,415,m2,False
2018152941,listing,/52-gordon-avenue-enfield-sa-5085-2018152941,565000,is-sold,Sold by private treaty 25 Nov 2022,20221125,52 Gordon Avenue,ENFIELD,SA,5085,-34.8558044,138.607544,3,1,1,House,House,False,0,m2,False
2018155877,listing,/41-harper-circuit-lightsview-sa-5085-2018155877,697000,is-sold,Sold at auction 14 Nov 2022,20221114,41 Harper Circuit,LIGHTSVIEW,SA,5085,-34.8642464,138.620255,3,2,2,House,House,False,0,m2,False
2018168103,listing,/32-francis-street-lightsview-sa-5085-2018168103,980000,is-sold,Sold at auction 19 Nov 2022,20221119,32 Francis Street,LIGHTSVIEW,SA,5085,-34.86069,138.630081,5,2,2,House,House,False,495,m2,False
2018169060,listing,/25-winta-way-lightsview-sa-5085-2018169060,750000,is-sold,Sold by private treaty 17 Nov 2022,20221117,25 Winta Way,LIGHTSVIEW,SA,5085,-34.85964,138.624619,3,2,2,House,House,False,342,m2,False
2018170178,listing,/37-the-promenade-northgate-sa-5085-2018170178,560000,is-sold,Sold by private treaty 24 Nov 2022,20221124,37 The Promenade,NORTHGATE,SA,5085,-34.8518066,138.632217,3,1,2,Townhouse,Townhouse,False,0,m2,False
2018186600,listing,/2-fitzgerald-avenue-enfield-sa-5085-2018186600,,is-sold,Sold at auction 25 Nov 2022,20221125,2 Fitzgerald Avenue,ENFIELD,SA,5085,-34.8638725,138.603958,5,2,2,House,House,False,410,m2,False
2018197380,listing,/2-14-kent-avenue-clearview-sa-5085-2018197380,492000,is-sold,Sold by private treaty 21 Nov 2022,20221121,2/14 Kent Avenue,CLEARVIEW,SA,5085,-34.86361,138.615036,2,1,1,ApartmentUnitFlat,Apartment / Unit / Flat,False,0,m2,False
2017834518,listing,/24a-clearview-crescent-clearview-sa-5085-2017834518,330000,is-sold,Sold by private treaty 28 Oct 2022,20221028,24A Clearview Crescent,CLEARVIEW,SA,5085,-34.85273,138.610764,,,,VacantLand,Vacant land,False,419,m2,False
2017853417,listing,/14-austral-avenue-clearview-sa-5085-2017853417,610000,is-sold,Sold by private treaty 04 Nov 2022,20221104,14 Austral Avenue,CLEARVIEW,SA,5085,-34.8491135,138.614838,3,1,2,House,House,False,812,m2,False
2017912083,listing,/13-welsh-road-lightsview-sa-5085-2017912083,980000,is-sold,Sold by private treaty 24 Oct 2022,20221024,13 Welsh Road,LIGHTSVIEW,SA,5085,-34.8614464,138.629868,4,2,2,House,House,False,413,m2,False
2017953364,listing,/302-62-city-view-boulevard-lightsview-sa-5085-2017953364,490000,is-sold,Sold by private treaty 31 Oct 2022,20221031,302/62 City View Boulevard,LIGHTSVIEW,SA,5085,-34.8607521,138.63324,2,2,1,ApartmentUnitFlat,Apartment / Unit / Flat,False,0,m2,False
2018024287,listing,/80-navigator-drive-northgate-sa-5085-2018024287,1055000,is-sold,Sold at auction 27 Oct 2022,20221027,80 Navigator Drive,NORTHGATE,SA,5085,-34.8522377,138.629379,4,2,2,House,House,False,587,m2,False
2018043959,listing,/15-chard-street-lightsview-sa-5085-2018043959,670000,is-sold,Sold by private treaty 26 Oct 2022,20221026,15 Chard Street,LIGHTSVIEW,SA,5085,-34.8634224,138.626846,4,2,2,House,House,False,126,m2,False
2018050652,listing,/23-leron-avenue-enfield-sa-5085-2018050652,675000,is-sold,Sold by private treaty 31 Oct 2022,20221031,23 Leron Avenue,ENFIELD,SA,5085,-34.87001,138.604492,3,2,2,House,House,False,362,m2,False
2018051180,listing,/5-chaffey-common-northgate-sa-5085-2018051180,620000,is-sold,Sold by private treaty 26 Oct 2022,20221026,5 Chaffey Common,NORTHGATE,SA,5085,-34.8539734,138.629456,3,1,2,House,House,False,229,m2,False
2018061509,listing,/5-11-13-ormond-avenue-clearview-sa-5085-2018061509,490000,is-sold,Sold by private treaty 27 Oct 2022,20221027,5/11-13 Ormond Avenue,CLEARVIEW,SA,5085,-34.86088,138.616333,3,1,2,House,House,False,203,m2,False
2018065490,listing,/22-neale-lane-lightsview-sa-5085-2018065490,885000,is-sold,Sold at auction 31 Oct 2022,20221031,22 Neale Lane,LIGHTSVIEW,SA,5085,-34.86017,138.6344,5,5,2,House,House,False,0,m2,False
2018068407,listing,/2a-stroud-street-clearview-sa-5085-2018068407,608000,is-sold,Sold by private treaty 03 Nov 2022,20221103,2A Stroud Street,CLEARVIEW,SA,5085,-34.85457,138.614517,3,2,1,House,House,False,343,m2,False
2018070488,listing,/4-35a-hoods-road-northfield-sa-5085-2018070488,420000,is-sold,Sold by private treaty 04 Nov 2022,20221104,4/35a Hoods Road,NORTHFIELD,SA,5085,-34.8430824,138.625168,2,1,1,ApartmentUnitFlat,Apartment / Unit / Flat,False,272,m2,False
2018086045,listing,/5a-tindall-road-enfield-sa-5085-2018086045,630000,is-sold,Sold by private treaty 01 Nov 2022,20221101,5a Tindall Road,ENFIELD,SA,5085,-34.8576736,138.605835,3,2,2,House,House,False,300,m2,False
2018086540,listing,/7-stirling-street-northfield-sa-5085-2018086540,590000,is-sold,Sold by private treaty 04 Nov 2022,20221104,7 Stirling Street,NORTHFIELD,SA,5085,-34.8451729,138.62233,3,1,,House,House,False,730,m2,False
2018087605,listing,/2a-chilworth-avenue-enfield-sa-5085-2018087605,673000,is-sold,Sold by private treaty 01 Nov 2022,20221101,2A Chilworth Avenue,ENFIELD,SA,5085,-34.86175,138.609543,3,2,1,House,House,False,384,m2,False
2018094540,listing,/14-piccadilly-way-lightsview-sa-5085-2018094540,880000,is-sold,Sold by private treaty 28 Oct 2022,20221028,14 Piccadilly Way,LIGHTSVIEW,SA,5085,-34.8643036,138.634445,4,2,2,House,House,False,0,m2,False
2018110665,listing,/61-browning-street-clearview-sa-5085-2018110665,455000,is-sold,Sold at auction 24 Oct 2022,20221024,61 Browning Street,CLEARVIEW,SA,5085,-34.85999,138.610428,4,1,1,House,House,False,563,m2,False
2018120676,listing,/12-preston-court-lightsview-sa-5085-2018120676,550000,is-sold,Sold by private treaty 05 Nov 2022,20221105,12 Preston Court,LIGHTSVIEW,SA,5085,-34.85916,138.62442,3,1,2,House,House,False,303,m2,False
2018121266,listing,/25-cranbourne-close-northgate-sa-5085-2018121266,720000,is-sold,Sold at auction 31 Oct 2022,20221031,25 Cranbourne Close,NORTHGATE,SA,5085,-34.8494759,138.62767,3,2,2,House,House,False,0,m2,False
2018129947,listing,/5-29-ayredale-avenue-clearview-sa-5085-2018129947,391000,is-sold,Sold by private treaty 24 Oct 2022,20221024,5/29 Ayredale Avenue,CLEARVIEW,SA,5085,-34.86187,138.615128,2,1,1,House,House,False,212,m2,False
2017601961,listing,/13-19-hindmarsh-terrace-lightsview-sa-5085-2017601961,312500,is-sold,Sold by private treaty 07 Oct 2022,20221007,13/19 Hindmarsh Terrace,LIGHTSVIEW,SA,5085,-34.8623352,138.63266,1,1,2,ApartmentUnitFlat,Apartment / Unit / Flat,False,0,m2,False
2017787191,listing,/2a-hargrave-street-northfield-sa-5085-2017787191,683000,is-sold,Sold by private treaty 12 Oct 2022,20221012,2A Hargrave Street,NORTHFIELD,SA,5085,-34.85432,138.62,4,2,1,House,House,False,325,m2,False
2017856952,listing,/20-learmonth-terrace-enfield-sa-5085-2017856952,620000,is-sold,Sold by private treaty 07 Oct 2022,20221007,20 Learmonth Terrace,ENFIELD,SA,5085,-34.85608,138.603012,,,,VacantLand,Vacant land,False,630,m2,False
2017872765,listing,/34a-northfield-road-northfield-sa-5085-2017872765,310000,is-sold,Sold by private treaty 11 Oct 2022,20221011,34a Northfield Road,NORTHFIELD,SA,5085,-34.8569565,138.622025,,,1,VacantLand,Vacant land,False,350,m2,False
2017943843,listing,/12a-silver-street-enfield-sa-5085-2017943843,,is-sold,Sold by private treaty 07 Oct 2022,20221007,12a Silver Street,ENFIELD,SA,5085,-34.85443,138.607254,4,3,2,House,House,False,338,m2,False
2017955879,listing,/lightsview-sa-5085-2017955879,555000,is-sold,Sold by private treaty 10 Oct 2022,20221010,,LIGHTSVIEW,SA,5085,-34.86206,138.628265,3,2,2,Townhouse,Townhouse,False,306,m2,False
2017963160,listing,/9-west-avenue-northfield-sa-5085-2017963160,570000,is-sold,Sold by private treaty 21 Oct 2022,20221021,9 West Avenue,NORTHFIELD,SA,5085,-34.84896,138.618271,3,2,1,House,House,False,0,m2,False
2017980360,listing,/20-prescott-street-clearview-sa-5085-2017980360,607000,is-sold,Sold at auction 05 Oct 2022,20221005,20 Prescott Street,CLEARVIEW,SA,5085,-34.8643456,138.611359,3,2,2,House,House,False,303,m2,False
2017988814,listing,/8-pavy-close-lightsview-sa-5085-2017988814,675000,is-sold,Sold by private treaty 12 Oct 2022,20221012,8 Pavy Close,LIGHTSVIEW,SA,5085,-34.86483,138.619888,3,3,2,House,House,False,152,m2,False
2017992938,listing,/7-brookfield-circuit-northgate-sa-5085-2017992938,910000,is-sold,Sold by private treaty 14 Oct 2022,20221014,7 Brookfield Circuit,NORTHGATE,SA,5085,-34.85002,138.630081,4,2,4,House,House,False,625,m2,False
2017998807,listing,/13-pateela-street-enfield-sa-5085-2017998807,607000,is-sold,Sold at auction 01 Oct 2022,20221001,13 Pateela Street,ENFIELD,SA,5085,-34.8659363,138.604034,3,1,1,House,House,False,718,m2,False
2018005916,listing,/89-waterford-circuit-lightsview-sa-5085-2018005916,880000,is-sold,Sold by private treaty 21 Oct 2022,20221021,89 Waterford Circuit,LIGHTSVIEW,SA,5085,-34.8624573,138.63028,4,2,2,House,House,False,275,m2,False
2018028018,listing,/125-east-parkway-lightsview-sa-5085-2018028018,570000,is-sold,Sold by private treaty 13 Oct 2022,20221013,125 East Parkway,LIGHTSVIEW,SA,5085,-34.8627663,138.627228,3,2,1,House,House,False,132,m2,False
2018037385,listing,/22a-gordon-avenue-clearview-sa-5085-2018037385,600000,is-sold,Sold by private treaty 04 Oct 2022,20221004,22A Gordon Avenue,CLEARVIEW,SA,5085,-34.855545,138.61264,3,1,1,House,House,False,470,m2,False
2018039240,listing,/2-5-dorothy-avenue-northfield-sa-5085-2018039240,315000,is-sold,Sold by private treaty 19 Oct 2022,20221019,2/5 Dorothy Avenue,NORTHFIELD,SA,5085,-34.8399162,138.6235,2,1,1,House,House,False,0,m2,False
2018051164,listing,/8-jeffcott-avenue-lightsview-sa-5085-2018051164,517500,is-sold,Sold by private treaty 21 Oct 2022,20221021,8 Jeffcott Avenue,LIGHTSVIEW,SA,5085,-34.86225,138.621841,2,1,1,House,House,False,162,m2,False
2018053425,listing,/27c-west-avenue-northfield-sa-5085-2018053425,650000,is-sold,Sold by private treaty 17 Oct 2022,20221017,27c West Avenue,NORTHFIELD,SA,5085,-34.85117,138.618454,3,2,1,House,House,False,313,m2,False
2018100167,listing,/4a-fairview-terrace-clearview-sa-5085-2018100167,610000,is-sold,Sold by private treaty 19 Oct 2022,20221019,4A Fairview Terrace,CLEARVIEW,SA,5085,-34.8492432,138.614288,3,2,1,House,House,False,301,m2,False
2018103153,listing,/8-55-parnatti-street-lightsview-sa-5085-2018103153,420000,is-sold,Sold by private treaty 15 Oct 2022,20221015,8/55 Parnatti Street,LIGHTSVIEW,SA,5085,-34.8626366,138.6248,2,1,1,ApartmentUnitFlat,Apartment / Unit / Flat,False,0,m2,False
2018108956,listing,/26-perkins-avenue-enfield-sa-5085-2018108956,832500,is-sold,Sold at auction 19 Oct 2022,20221019,26 Perkins Avenue,ENFIELD,SA,5085,-34.8717651,138.609573,3,2,2,House,House,False,420,m2,False
2017885509,listing,/12-truscott-road-enfield-sa-5085-2017885509,650000,is-sold,Sold by private treaty 16 Sep 2022,20220916,12 Truscott Road,ENFIELD,SA,5085,-34.8545341,138.604736,3,2,1,House,House,False,343,m2,False
2017905944,listing,/205-62-city-view-boulevard-lightsview-sa-5085-2017905944,550000,is-sold,Sold by private treaty 15 Sep 2022,20220915,205/62 City View Boulevard,LIGHTSVIEW,SA,5085,-34.8610039,138.633011,2,2,1,ApartmentUnitFlat,Apartment / Unit / Flat,False,0,m2,False
2017931277,listing,/4-wirra-wirra-avenue-enfield-sa-5085-2017931277,615000,is-sold,Sold by private treaty 09 Sep 2022,20220909,4 Wirra Wirra Avenue,ENFIELD,SA,5085,-34.8670959,138.603,3,2,2,House,House,False,396,m2,False
2017941897,listing,/15-wright-avenue-northfield-sa-5085-2017941897,730000,is-sold,Sold by private treaty 15 Sep 2022,20220915,15 Wright Avenue,NORTHFIELD,SA,5085,-34.85183,138.6214,3,1,1,House,House,False,875,m2,False
2017945659,listing,/16-ashton-link-northgate-sa-5085-2017945659,775000,is-sold,Sold by private treaty 12 Sep 2022,20220912,16 Ashton Link,NORTHGATE,SA,5085,-34.84972,138.632813,3,2,2,House,House,False,415,m2,False
2017988689,listing,/4-patta-avenue-lightsview-sa-5085-2017988689,670000,is-sold,Sold by private treaty 26 Sep 2022,20220926,4 Patta Avenue,LIGHTSVIEW,SA,5085,-34.8645744,138.626068,3,2,2,House,House,False,165,m2,False
2017991955,listing,/2-heathcote-avenue-northgate-sa-5085-2017991955,795000,is-sold,Sold by private treaty 15 Sep 2022,20220915,2 Heathcote Avenue,NORTHGATE,SA,5085,-34.8487129,138.629471,3,2,2,House,House,False,540,m2,False
2017993508,listing,/16a-silver-street-enfield-sa-5085-2017993508,620000,is-sold,Sold by private treaty 16 Sep 2022,20220916,16a Silver Street,ENFIELD,SA,5085,-34.85442,138.607742,3,1,1,House,House,False,423,m2,False
2017993758,listing,/21-condon-drive-lightsview-sa-5085-2017993758,631000,is-sold,Sold by private treaty 16 Sep 2022,20220916,21 Condon Drive,LIGHTSVIEW,SA,5085,-34.8632545,138.625854,3,2,2,Townhouse,Townhouse,False,165,m2,False
2018001060,listing,/17-wright-avenue-northfield-sa-5085-2018001060,702000,is-sold,Sold by private treaty 19 Sep 2022,20220919,17 Wright Avenue,NORTHFIELD,SA,5085,-34.8518028,138.6216,4,1,3,House,House,False,780,m2,False
2018015111,listing,/8-51-grundy-road-lightsview-sa-5085-2018015111,460000,is-sold,Sold by private treaty 20 Sep 2022,20220920,8/51 Grundy Road,LIGHTSVIEW,SA,5085,-34.8589821,138.619263,2,2,1,Townhouse,Townhouse,False,0,m2,False
2018019272,listing,/39-somerset-avenue-clearview-sa-5085-2018019272,700000,is-sold,Sold at auction 10 Sep 2022,20220910,39 Somerset Avenue,CLEARVIEW,SA,5085,-34.85693,138.6166,3,2,2,House,House,False,382,m2,False
2018019361,listing,/10-pateela-street-enfield-sa-5085-2018019361,713000,is-sold,Sold at auction 10 Sep 2022,20220910,10 Pateela Street,ENFIELD,SA,5085,-34.86638,138.603592,3,1,1,House,House,False,733,m2,False
2018022422,listing,/1-vickers-vimy-parade-northgate-sa-5085-2018022422,927000,is-sold,Sold at auction 12 Sep 2022,20220912,1 Vickers Vimy Parade,NORTHGATE,SA,5085,-34.85202,138.631226,4,2,2,House,House,False,375,m2,False
2018024037,listing,/6-stafford-street-clearview-sa-5085-2018024037,643000,is-sold,Sold by private treaty 26 Sep 2022,20220926,6 Stafford Street,CLEARVIEW,SA,5085,-34.8549156,138.613327,3,1,2,House,House,False,680,m2,False
2018035778,listing,/9-broadway-avenue-lightsview-sa-5085-2018035778,1180000,is-sold,Sold by private treaty 29 Sep 2022,20220929,9 Broadway Avenue,LIGHTSVIEW,SA,5085,-34.86324,138.633987,4,2,4,House,House,False,344,m2,False
2018036633,listing,/14-winpirra-circuit-lightsview-sa-5085-2018036633,592000,is-sold,Sold by private treaty 13 Sep 2022,20220913,14 Winpirra Circuit,LIGHTSVIEW,SA,5085,-34.86307,138.6286,3,2,1,House,House,False,0,m2,False
2018046403,listing,/14-south-parkway-lightsview-sa-5085-2018046403,585000,is-sold,Sold at auction 24 Sep 2022,20220924,14 South Parkway,LIGHTSVIEW,SA,5085,-34.86552,138.62236,3,2,2,House,House,False,0,m2,False
2018050230,listing,/28-clearview-crescent-clearview-sa-5085-2018050230,730000,is-sold,Sold at auction 26 Sep 2022,20220926,28 Clearview Crescent,CLEARVIEW,SA,5085,-34.8529549,138.610977,4,2,1,House,House,False,475,m2,False
2018061444,listing,/19-lakeside-circuit-northgate-sa-5085-2018061444,675000,is-sold,Sold by private treaty 27 Sep 2022,20220927,19 Lakeside Circuit,NORTHGATE,SA,5085,-34.85525,138.628784,3,2,2,House,House,False,271,m2,False
2017808777,listing,/8-branson-avenue-clearview-sa-5085-2017808777,654500,is-sold,Sold at auction 30 Aug 2022,20220830,8 Branson Avenue,CLEARVIEW,SA,5085,-34.864933,138.61734,3,1,2,House,House,False,770,m2,False
2017815102,listing,/5-thompson-ave-northfield-sa-5085-2017815102,,is-sold,Sold by private treaty 29 Aug 2022,20220829,5 Thompson Ave,NORTHFIELD,SA,5085,-34.8427849,138.621872,,,,VacantLand,Vacant land,False,330,m2,False
2017892615,listing,/17-ridgeway-avenue-enfield-sa-5085-2017892615,636000,is-sold,Sold at auction 30 Aug 2022,20220830,17 Ridgeway Avenue,ENFIELD,SA,5085,-34.8541222,138.608459,3,2,2,House,House,False,0,m2,False
2017896082,listing,/55b-fairview-tce-clearview-sa-5085-2017896082,635000,is-sold,Sold prior to auction 26 Aug 2022,20220826,55B Fairview Tce,CLEARVIEW,SA,5085,-34.85179,138.610245,3,2,3,House,House,False,309,m2,False
2017908730,listing,/38-chilworth-avenue-enfield-sa-5085-2017908730,705000,is-sold,Sold by private treaty 24 Aug 2022,20220824,38 Chilworth Avenue,ENFIELD,SA,5085,-34.8647346,138.609665,3,1,2,House,House,False,725,m2,False
2017912075,listing,/10-walton-avenue-clearview-sa-5085-2017912075,600000,is-sold,Sold by private treaty 07 Sep 2022,20220907,10 Walton Avenue,CLEARVIEW,SA,5085,-34.8500862,138.615891,3,1,5,House,House,False,681,m2,False
2017920342,listing,/206-redward-avenue-lightsview-sa-5085-2017920342,451217,is-sold,Sold by private treaty 02 Sep 2022,20220902,206 Redward Avenue,LIGHTSVIEW,SA,5085,-34.8649826,138.6362,2,2,1,House,House,False,0,m2,False
2017945768,listing,/9-stroud-street-clearview-sa-5085-2017945768,640000,is-sold,Sold by private treaty 30 Aug 2022,20220830,9 Stroud Street,CLEARVIEW,SA,5085,-34.8544121,138.613968,3,1,2,House,House,False,766,m2,False
2017955219,listing,/34-northfield-road-northfield-sa-5085-2017955219,679000,is-sold,Sold by private treaty 05 Sep 2022,20220905,34 Northfield Road,NORTHFIELD,SA,5085,-34.8569565,138.622025,3,2,2,House,House,False,350,m2,False
2017961125,listing,/5b-silver-street-enfield-sa-5085-2017961125,625000,is-sold,Sold by private treaty 24 Aug 2022,20220824,5B Silver Street,ENFIELD,SA,5085,-34.85482,138.608017,3,2,1,House,House,False,299,m2,False
2017978726,listing,/15-rhind-road-lightsview-sa-5085-2017978726,1501000,is-sold,Sold at auction 27 Aug 2022,20220827,15 Rhind Road,LIGHTSVIEW,SA,5085,-34.86397,138.6293,5,3,2,House,House,False,413,m2,False
2017979780,listing,/4-gill-road-lightsview-sa-5085-2017979780,615000,is-sold,Sold prior to auction 09 Sep 2022,20220909,4 Gill Road,LIGHTSVIEW,SA,5085,-34.8643341,138.62645,3,2,2,House,House,False,0,m2,False
2017986986,listing,/18a-woodfield-street-enfield-sa-5085-2017986986,645000,is-sold,Sold at auction 29 Aug 2022,20220829,18A Woodfield Street,ENFIELD,SA,5085,-34.86437,138.608475,3,2,1,House,House,False,379,m2,False
2017990906,listing,/15-ludgate-avenue-lightsview-sa-5085-2017990906,650000,is-sold,Sold at auction 27 Aug 2022,20220827,15 Ludgate Avenue,LIGHTSVIEW,SA,5085,-34.8626137,138.63382,3,2,1,House,House,False,151,m2,False
2017992810,listing,/53-nottage-road-lightsview-sa-5085-2017992810,467000,is-sold,Sold at auction 07 Sep 2022,20220907,53 Nottage Road,LIGHTSVIEW,SA,5085,-34.85985,138.627243,2,2,2,House,House,False,0,m2,False
2017993972,listing,/6-petaluma-close-northgate-sa-5085-2017993972,775000,is-sold,Sold at auction 29 Aug 2022,20220829,6 Petaluma Close,NORTHGATE,SA,5085,-34.85642,138.630966,4,2,2,House,House,False,497,m2,False
2018000827,listing,/39-cityside-drive-lightsview-sa-5085-2018000827,581000,is-sold,Sold by private treaty 25 Aug 2022,20220825,39 Cityside Drive,LIGHTSVIEW,SA,5085,-34.8647957,138.635178,3,2,2,House,House,False,151,m2,False
2018002668,listing,/27-condon-drive-lightsview-sa-5085-2018002668,580000,is-sold,Sold by private treaty 26 Aug 2022,20220826,27 Condon Drive,LIGHTSVIEW,SA,5085,-34.86305,138.625916,3,2,2,House,House,False,165,m2,False
2018003196,listing,/32-neates-road-lightsview-sa-5085-2018003196,485000,is-sold,Sold by private treaty 03 Sep 2022,20220903,32 Neates Road,LIGHTSVIEW,SA,5085,-34.85999,138.626282,2,1,2,House,House,False,165,m2,False
2018011379,listing,/7-tiara-street-lightsview-sa-5085-2018011379,640000,is-sold,Sold by private treaty 01 Sep 2022,20220901,7 Tiara Street,LIGHTSVIEW,SA,5085,-34.8642921,138.6249,4,2,2,House,House,False,155,m2,False
2015793143,listing,/4-mornington-terrace-northgate-sa-5085-2015793143,1350000,is-sold,Sold by private treaty 09 Aug 2022,20220809,4 Mornington Terrace,NORTHGATE,SA,5085,-34.850647,138.627258,4,2,5,House,House,False,0,m2,False
2017502827,listing,/1-cooper-street-lightsview-sa-5085-2017502827,1690000,is-sold,Sold by private treaty 22 Aug 2022,20220822,1 Cooper Street,LIGHTSVIEW,SA,5085,-34.864666,138.63237,4,3,2,House,House,False,0,m2,False
2017761095,listing,/10-sevenhill-way-northgate-sa-5085-2017761095,920000,is-sold,Sold by private treaty 12 Aug 2022,20220812,10 Sevenhill Way,NORTHGATE,SA,5085,-34.84958,138.630386,4,2,2,House,House,False,540,m2,False
2017859393,listing,/9-cornet-lane-lightsview-sa-5085-2017859393,661000,is-sold,Sold at auction 09 Aug 2022,20220809,9 Cornet Lane,LIGHTSVIEW,SA,5085,-34.86502,138.6338,3,2,2,House,House,False,0,m2,False
2017868198,listing,/10-coleridge-crescent-clearview-sa-5085-2017868198,630000,is-sold,Sold by private treaty 18 Aug 2022,20220818,10 Coleridge Crescent,CLEARVIEW,SA,5085,-34.8546638,138.615967,3,1,2,House,House,False,751,m2,False
2017868630,listing,/466-grand-junction-road-northfield-sa-5085-2017868630,485000,is-sold,Sold by private treaty 13 Aug 2022,20220813,466 Grand Junction Road,NORTHFIELD,SA,5085,-34.84767,138.618057,3,2,1,House,House,False,295,m2,False
2017899493,listing,/4a-marker-street-enfield-sa-5085-2017899493,617000,is-sold,Sold at auction 15 Aug 2022,20220815,4A Marker Street,ENFIELD,SA,5085,-34.8497658,138.60675,3,2,2,House,House,False,373,m2,False
2017917025,listing,/11a-guildford-street-clearview-sa-5085-2017917025,635000,is-sold,Sold by private treaty 22 Aug 2022,20220822,11A Guildford Street,CLEARVIEW,SA,5085,-34.8514862,138.616165,3,1,2,House,House,False,327,m2,False
2017919844,listing,/34-south-parkway-lightsview-sa-5085-2017919844,625000,is-sold,Sold by private treaty 09 Aug 2022,20220809,34 South Parkway,LIGHTSVIEW,SA,5085,-34.8654,138.623016,3,2,2,Townhouse,Townhouse,False,0,m2,False
2017933883,listing,/20-hastings-lane-lightsview-sa-5085-2017933883,601000,is-sold,Sold by private treaty 08 Aug 2022,20220808,20 Hastings Lane,LIGHTSVIEW,SA,5085,-34.8633156,138.631332,3,2,2,House,House,False,137,m2,False
2017944444,listing,/1b-palmer-st-lightsview-sa-5085-2017944444,665000,is-sold,Sold by private treaty 15 Aug 2022,20220815,1B Palmer St,LIGHTSVIEW,SA,5085,-34.86468,138.633484,4,2,2,House,House,False,149,m2,False
2017956735,listing,/2-blyth-street-clearview-sa-5085-2017956735,,is-sold,Sold by private treaty 22 Aug 2022,20220822,2 Blyth Street,CLEARVIEW,SA,5085,-34.8688545,138.612457,,,,VacantLand,Vacant land,False,362,m2,False
2017957389,listing,/9-grundy-road-lightsview-sa-5085-2017957389,512500,is-sold,Sold at auction 10 Aug 2022,20220810,9 Grundy Road,LIGHTSVIEW,SA,5085,-34.85978,138.620529,3,2,1,House,House,False,132,m2,False
2017957822,listing,/19-high-ave-clearview-sa-5085-2017957822,,is-sold,Sold by private treaty 22 Aug 2022,20220822,19 High Ave,CLEARVIEW,SA,5085,-34.86328,138.612564,,,,VacantLand,Vacant land,False,369,m2,False
2017960045,listing,/8-manchester-parade-lightsview-sa-5085-2017960045,741000,is-sold,Sold at auction 15 Aug 2022,20220815,8 Manchester Parade,LIGHTSVIEW,SA,5085,-34.8624725,138.631073,3,2,1,House,House,False,0,m2,False
2017978125,listing,/220-east-parkway-lightsview-sa-5085-2017978125,450000,is-sold,Sold by private treaty 12 Aug 2022,20220812,220 East Parkway,LIGHTSVIEW,SA,5085,-34.8627052,138.622314,2,1,1,House,House,False,132,m2,False
2017978333,listing,/55a-collins-street-enfield-sa-5085-2017978333,702000,is-sold,Sold at auction 22 Aug 2022,20220822,55A Collins Street,ENFIELD,SA,5085,-34.8677635,138.608551,3,2,2,House,House,False,422,m2,False
2017986749,listing,/69-navigator-drive-northgate-sa-5085-2017986749,880000,is-sold,Sold by private treaty 19 Aug 2022,20220819,69 Navigator Drive,NORTHGATE,SA,5085,-34.85291,138.629608,4,2,2,House,House,False,547,m2,False
2017991087,listing,/4a-charles-street-northfield-sa-5085-2017991087,752000,is-sold,Sold prior to auction 17 Aug 2022,20220817,4A Charles Street,NORTHFIELD,SA,5085,-34.85301,138.62413,4,2,2,House,House,False,441,m2,False
2018078233,listing,/lot-2-27-walton-avenue-clearview-sa-5085-2018078233,355000,is-sold,Sold by private treaty 22 Aug 2022,20220822,Lot 2/27 Walton Avenue,CLEARVIEW,SA,5085,-34.85071,138.613068,,,,VacantLand,Vacant land,False,300,m2,False
2017753715,listing,/10-goodhall-street-lightsview-sa-5085-2017753715,528000,is-sold,Sold by private treaty 01 Aug 2022,20220801,10 Goodhall Street,LIGHTSVIEW,SA,5085,-34.85893,138.620621,3,2,1,House,House,False,137,m2,False
2017779809,listing,/27-nottage-road-lightsview-sa-5085-2017779809,400000,is-sold,Sold by private treaty 26 Jul 2022,20220726,27 Nottage Road,LIGHTSVIEW,SA,5085,-34.86106,138.627335,2,1,2,House,House,False,0,m2,False
2017791767,listing,/2-16-collins-street-enfield-sa-5085-2017791767,380000,is-sold,Sold by private treaty 04 Aug 2022,20220804,2/16 Collins Street,ENFIELD,SA,5085,-34.86758,138.603592,2,1,1,ApartmentUnitFlat,Apartment / Unit / Flat,False,0,m2,False
2017813534,listing,/36-ormond-avenue-clearview-sa-5085-2017813534,810000,is-sold,Sold by private treaty 24 Jul 2022,20220724,36 Ormond Avenue,CLEARVIEW,SA,5085,-34.860363,138.614029,3,1,4,House,House,False,785,m2,False
2017822717,listing,/2-durand-terrace-enfield-sa-5085-2017822717,735000,is-sold,Sold at auction 26 Jul 2022,20220726,2 Durand Terrace,ENFIELD,SA,5085,-34.8604,138.601608,5,2,2,House,House,False,369,m2,False
2017830904,listing,/1-bremerton-way-northgate-sa-5085-2017830904,795000,is-sold,Sold by private treaty 26 Jul 2022,20220726,1 Bremerton Way,NORTHGATE,SA,5085,-34.85053,138.627716,3,2,4,House,House,False,420,m2,False
2017832140,listing,/9-clarice-avenue-enfield-sa-5085-2017832140,500000,is-sold,Sold by private treaty 05 Aug 2022,20220805,9 Clarice Avenue,ENFIELD,SA,5085,-34.86606,138.603165,3,1,1,House,House,False,694,m2,False
2017857416,listing,/22-paddington-avenue-northgate-sa-5085-2017857416,820000,is-sold,Sold at auction 25 Jul 2022,20220725,22 Paddington Avenue,NORTHGATE,SA,5085,-34.8560181,138.632111,3,2,2,House,House,False,480,m2,False
2017882374,listing,/27-freeling-lane-lightsview-sa-5085-2017882374,652000,is-sold,Sold by private treaty 24 Jul 2022,20220724,27 Freeling Lane,LIGHTSVIEW,SA,5085,-34.8622131,138.633545,4,2,2,House,House,False,168,m2,False
2017896404,listing,/22-mccusker-avenue-enfield-sa-5085-2017896404,1200000,is-sold,Sold by private treaty 02 Aug 2022,20220802,22 McCusker Avenue,ENFIELD,SA,5085,-34.8610039,138.6076,5,3,3,House,House,False,1350,m2,False
2017906542,listing,/1-yutika-drive-enfield-sa-5085-2017906542,990000,is-sold,Sold at auction 02 Aug 2022,20220802,1 Yutika Drive,ENFIELD,SA,5085,-34.85008,138.604034,4,3,4,House,House,False,475,m2,False
2017910974,listing,/27-dumfries-avenue-northfield-sa-5085-2017910974,1121000,is-sold,Sold at auction 23 Jul 2022,20220723,27 Dumfries Avenue,NORTHFIELD,SA,5085,-34.8548965,138.6265,3,1,1,House,House,False,1039,m2,False
2017912006,listing,/31-woodfield-street-enfield-sa-5085-2017912006,520000,is-sold,Sold by private treaty 25 Jul 2022,20220725,31 Woodfield Street,ENFIELD,SA,5085,-34.8648872,138.60791,3,1,1,House,House,False,230,m2,False
2017919433,listing,/26-south-avenue-northfield-sa-5085-2017919433,487000,is-sold,Sold by private treaty 24 Jul 2022,20220724,26 South Avenue,NORTHFIELD,SA,5085,-34.84944,138.620316,3,1,2,House,House,False,0,m2,False
2017931158,listing,/17-webb-street-lightsview-sa-5085-2017931158,589000,is-sold,Sold by private treaty 08 Aug 2022,20220808,17 Webb Street,LIGHTSVIEW,SA,5085,-34.86375,138.627655,3,2,1,House,House,False,0,m2,False
2017931316,listing,/9-meadowbank-terrace-northgate-sa-5085-2017931316,1112000,is-sold,Sold at auction 01 Aug 2022,20220801,9 Meadowbank Terrace,NORTHGATE,SA,5085,-34.8535843,138.634537,5,2,2,House,House,False,486,m2,False
2017940462,listing,/28-warwick-street-enfield-sa-5085-2017940462,717000,is-sold,Sold at auction 05 Aug 2022,20220805,28 Warwick Street,ENFIELD,SA,5085,-34.8603134,138.60434,2,1,1,House,House,False,715,m2,False
2017940926,listing,/6-firth-avenue-northfield-sa-5085-2017940926,880000,is-sold,Sold by private treaty 03 Aug 2022,20220803,6 Firth Avenue,NORTHFIELD,SA,5085,-34.856678,138.623871,3,2,4,House,House,False,725,m2,False
2017945743,listing,/15-navigator-drive-northgate-sa-5085-2017945743,911000,is-sold,Sold at auction 08 Aug 2022,20220808,15 Navigator Drive,NORTHGATE,SA,5085,-34.85656,138.632248,5,2,2,House,House,False,540,m2,False
2017947312,listing,/196-hampstead-road-clearview-sa-5085-2017947312,935100,is-sold,Sold at auction 05 Aug 2022,20220805,196 Hampstead Road,CLEARVIEW,SA,5085,-34.86394,138.618179,3,1,2,House,House,False,695,m2,False
2017758309,listing,/9-hereford-street-enfield-sa-5085-2017758309,502000,is-sold,Sold at auction 15 Jul 2022,20220715,9 Hereford Street,ENFIELD,SA,5085,-34.86164,138.605911,3,1,1,House,House,False,480,m2,False
2017779437,listing,/21-collins-street-enfield-sa-5085-2017779437,990000,is-sold,Sold at auction 20 Jul 2022,20220720,21 Collins Street,ENFIELD,SA,5085,-34.86812,138.604279,3,2,2,House,House,False,1020,m2,False
2017786706,listing,/24-stewart-avenue-northfield-sa-5085-2017786706,680000,is-sold,Sold by private treaty 11 Jul 2022,20220711,24 Stewart Avenue,NORTHFIELD,SA,5085,-34.8554153,138.6261,4,2,3,House,House,False,0,m2,False
2017787724,listing,/1c-reading-street-clearview-sa-5085-2017787724,695000,is-sold,Sold by private treaty 15 Jul 2022,20220715,1C Reading Street,CLEARVIEW,SA,5085,-34.85546,138.609665,3,2,1,House,House,False,0,m2,False
2017819332,listing,/-d-h-a-defence-housing-australia-lightsview-sa-5085-2017819332,465000,is-sold,Sold by private treaty 07 Jul 2022,20220707,(D.H.A) Defence Housing Australia,LIGHTSVIEW,SA,5085,-34.8617859,138.62825,3,2,2,ApartmentUnitFlat,Apartment / Unit / Flat,False,158,m2,False
2017837632,listing,/28-west-avenue-northfield-sa-5085-2017837632,370000,is-sold,Sold by private treaty 12 Jul 2022,20220712,28 West Avenue,NORTHFIELD,SA,5085,-34.8509521,138.618942,,,,VacantLand,Vacant land,False,348,m2,False
2017840688,listing,/lot-221-51-northfield-road-northfield-sa-5085-2017840688,490000,is-sold,Sold by private treaty 11 Jul 2022,20220711,Lot 221/51 Northfield Road,NORTHFIELD,SA,5085,-34.8558769,138.6221,,,,VacantLand,Vacant land,False,582,m2,False
2017842080,listing,/2-halton-street-enfield-sa-5085-2017842080,649000,is-sold,Sold at auction 19 Jul 2022,20220719,2 Halton Street,ENFIELD,SA,5085,-34.86458,138.602264,3,1,1,House,House,False,364,m2,False
2017853415,listing,/2-fairview-tce-clearview-sa-5085-2017853415,635000,is-sold,Sold by private treaty 21 Jul 2022,20220721,2 Fairview Tce,CLEARVIEW,SA,5085,-34.849205,138.614578,3,1,2,House,House,False,822,m2,False
2017857387,listing,/5-gray-avenue-northfield-sa-5085-2017857387,780000,is-sold,Sold by private treaty 21 Jul 2022,20220721,5 Gray Avenue,NORTHFIELD,SA,5085,-34.84771,138.6202,4,2,2,House,House,False,409,m2,False
2017861355,listing,/6-waterford-circuit-lightsview-sa-5085-2017861355,565000,is-sold,Sold by private treaty 07 Jul 2022,20220707,6 Waterford Circuit,LIGHTSVIEW,SA,5085,-34.86232,138.633377,3,2,2,Townhouse,Townhouse,False,0,m2,False
2017869671,listing,/10a-northfield-road-northfield-sa-5085-2017869671,625000,is-sold,Sold by private treaty 13 Jul 2022,20220713,10a Northfield Road,NORTHFIELD,SA,5085,-34.857048,138.619354,3,2,1,House,House,False,303,m2,False
2017882863,listing,/41-greengate-close-northgate-sa-5085-2017882863,595000,is-sold,Sold by private treaty 20 Jul 2022,20220720,41 Greengate Close,NORTHGATE,SA,5085,-34.8561821,138.635651,3,1,1,House,House,False,326,m2,False
2017883183,listing,/17-gill-road-lightsview-sa-5085-2017883183,530000,is-sold,Sold by private treaty 14 Jul 2022,20220714,17 Gill Road,LIGHTSVIEW,SA,5085,-34.86419,138.626678,3,3,1,Townhouse,Townhouse,False,79,m2,False
2017885913,listing,/11-stroud-street-clearview-sa-5085-2017885913,615000,is-sold,Sold at auction 09 Jul 2022,20220709,11 Stroud Street,CLEARVIEW,SA,5085,-34.85427,138.613968,3,1,1,House,House,False,698,m2,False
2017886933,listing,/10-york-street-northfield-sa-5085-2017886933,747000,is-sold,Sold at auction 11 Jul 2022,20220711,10 York Street,NORTHFIELD,SA,5085,-34.85164,138.625275,3,2,2,House,House,False,351,m2,False
2017889266,listing,/20-proclamation-road-lightsview-sa-5085-2017889266,535000,is-sold,Sold by private treaty 11 Jul 2022,20220711,20 Proclamation Road,LIGHTSVIEW,SA,5085,-34.8601952,138.628754,3,2,1,House,House,False,151,m2,False
2017896461,listing,/4a-swindon-street-clearview-sa-5085-2017896461,893500,is-sold,Sold at auction 18 Jul 2022,20220718,4A Swindon Street,CLEARVIEW,SA,5085,-34.84848,138.609665,4,2,2,House,House,False,606,m2,False
2017907044,listing,/24-stewart-avenue-northfield-sa-5085-2017907044,680000,is-sold,Sold by private treaty 11 Jul 2022,20220711,24 Stewart Avenue,NORTHFIELD,SA,5085,-34.8553848,138.626022,4,2,3,House,House,False,0,m2,False
2017912668,listing,/3-newton-terrace-enfield-sa-5085-2017912668,727000,is-sold,Sold by private treaty 19 Jul 2022,20220719,3 Newton Terrace,ENFIELD,SA,5085,-34.8553848,138.601685,5,2,7,House,House,False,788,m2,False
2017618571,listing,/13-bradley-terrace-lightsview-sa-5085-2017618571,640000,is-sold,Sold by private treaty 30 Jun 2022,20220630,13 Bradley Terrace,LIGHTSVIEW,SA,5085,-34.8631554,138.631668,3,2,2,House,House,False,0,m2,False
2017665782,listing,/3-cooper-street-lightsview-sa-5085-2017665782,1150000,is-sold,Sold by private treaty 05 Jul 2022,20220705,3 Cooper Street,LIGHTSVIEW,SA,5085,-34.8647881,138.6324,4,2,2,House,House,False,344,m2,False
2017738317,listing,/5-51-parnatti-street-lightsview-sa-5085-2017738317,290000,is-sold,Sold by private treaty 30 Jun 2022,20220630,5/51 Parnatti Street,LIGHTSVIEW,SA,5085,-34.8630829,138.624344,1,1,1,ApartmentUnitFlat,Apartment / Unit / Flat,False,0,m2,False
2017761405,listing,/55-dumfries-avenue-northfield-sa-5085-2017761405,705000,is-sold,Sold by private treaty 21 Jun 2022,20220621,55 Dumfries Avenue,NORTHFIELD,SA,5085,-34.8516655,138.6263,3,2,1,House,House,False,0,m2,False
2017761894,listing,/7a-tindall-road-enfield-sa-5085-2017761894,607500,is-sold,Sold by private treaty 22 Jun 2022,20220622,7a Tindall Road,ENFIELD,SA,5085,-34.8573837,138.605911,3,2,1,House,House,False,340,m2,False
2017769075,listing,/13-springwood-way-northgate-sa-5085-2017769075,620000,is-sold,Sold by private treaty 01 Jul 2022,20220701,13 Springwood Way,NORTHGATE,SA,5085,-34.8566933,138.632065,3,1,1,House,House,False,354,m2,False
2017778534,listing,/13-kelway-crescent-clearview-sa-5085-2017778534,650000,is-sold,Sold by private treaty 30 Jun 2022,20220630,13 Kelway Crescent,CLEARVIEW,SA,5085,-34.8527756,138.612518,3,2,1,House,House,False,301,m2,False
2017779210,listing,/101-folland-avenue-lightsview-sa-5085-2017779210,620000,is-sold,Sold by private treaty 30 Jun 2022,20220630,101 Folland Avenue,LIGHTSVIEW,SA,5085,-34.8585739,138.625885,3,2,2,House,House,False,0,m2,False
2017779662,listing,/4-237-fosters-rd-northgate-sa-5085-2017779662,12345,is-sold,Sold by private treaty 04 Jul 2022,20220704,4/237 Fosters Rd,NORTHGATE,SA,5085,-34.8539543,138.634842,4,2,2,House,House,False,219,m2,False
2017790737,listing,/15-19-hindmarsh-terrace-lightsview-sa-5085-2017790737,380000,is-sold,Sold by private treaty 30 Jun 2022,20220630,15/19 Hindmarsh Terrace,LIGHTSVIEW,SA,5085,-34.8623352,138.63266,2,2,1,ApartmentUnitFlat,Apartment / Unit / Flat,False,0,m2,False
2017796766,listing,/21-corconda-street-clearview-sa-5085-2017796766,550000,is-sold,Sold by private treaty 21 Jun 2022,20220621,21 Corconda Street,CLEARVIEW,SA,5085,-34.86652,138.615829,3,2,1,House,House,False,301,m2,False
2017797852,listing,/3-north-parkway-lightsview-sa-5085-2017797852,630000,is-sold,Sold at auction 20 Jun 2022,20220620,3 North Parkway,LIGHTSVIEW,SA,5085,-34.861763,138.628174,3,2,2,House,House,False,165,m2,False
2017798357,listing,/12-browning-street-clearview-sa-5085-2017798357,765000,is-sold,Sold by private treaty 28 Jun 2022,20220628,12 Browning Street,CLEARVIEW,SA,5085,-34.85935,138.615341,3,2,4,House,House,False,820,m2,False
2017829409,listing,/183-east-parkway-lightsview-sa-5085-2017829409,700000,is-sold,Sold by private treaty 24 Jun 2022,20220624,183 East Parkway,LIGHTSVIEW,SA,5085,-34.8629875,138.62294,3,2,2,House,House,False,136,m2,False
2017842111,listing,/10-hillier-street-lightsview-sa-5085-2017842111,1041000,is-sold,Sold at auction 20 Jun 2022,20220620,10 Hillier Street,LIGHTSVIEW,SA,5085,-34.8612442,138.626129,4,2,2,House,House,False,413,m2,False
2017853198,listing,/10-clearview-crescent-clearview-sa-5085-2017853198,675000,is-sold,Sold at auction 27 Jun 2022,20220627,10 Clearview Crescent,CLEARVIEW,SA,5085,-34.8506,138.6115,4,1,1,House,House,False,770,m2,False
2017853499,listing,/18-york-street-northfield-sa-5085-2017853499,687000,is-sold,Sold at auction 27 Jun 2022,20220627,18 York Street,NORTHFIELD,SA,5085,-34.8521538,138.625824,3,2,1,House,House,False,400,m2,False
2017857531,listing,/71-branson-avenue-clearview-sa-5085-2017857531,571500,is-sold,Sold by private treaty 02 Jul 2022,20220702,71 Branson Avenue,CLEARVIEW,SA,5085,-34.8657837,138.610214,1,1,,House,House,False,660,m2,False
2017874725,listing,/3-5-dorothy-avenue-northfield-sa-5085-2017874725,360500,is-sold,Sold by private treaty 28 Jun 2022,20220628,3/5 Dorothy Avenue,NORTHFIELD,SA,5085,-34.8398857,138.623383,3,1,2,ApartmentUnitFlat,Apartment / Unit / Flat,False,0,m2,False
2017925137,listing,/7-tarakan-avenue-enfield-sa-5085-2017925137,795000,is-sold,Sold by private treaty 06 Jul 2022,20220706,7 Tarakan Avenue,ENFIELD,SA,5085,-34.86869,138.60817,3,1,1,House,House,False,0,m2,False
2017441044,listing,/16-rapid-ave-lightsview-sa-5085-2017441044,1025000,is-sold,Sold by private treaty 30 May 2022,20220530,16 Rapid Ave,LIGHTSVIEW,SA,5085,-34.8585777,138.632889,4,2,2,House,House,False,0,m2,False
2017631975,listing,/5-49-east-parkway-lightsview-sa-5085-2017631975,300000,is-sold,Sold by private treaty 26 May 2022,20220526,5/49 East Parkway,LIGHTSVIEW,SA,5085,-34.86187,138.632156,1,1,1,ApartmentUnitFlat,Apartment / Unit / Flat,False,0,m2,False
2017634168,listing,/10-silver-street-enfield-sa-5085-2017634168,782000,is-sold,Sold by private treaty 30 May 2022,20220530,10 Silver Street,ENFIELD,SA,5085,-34.8544426,138.60704,4,2,2,House,House,False,338,m2,False
2017695549,listing,/11-29-walker-court-enfield-sa-5085-2017695549,500000,is-sold,Sold by private treaty 27 May 2022,20220527,11/29 Walker Court,ENFIELD,SA,5085,-34.8638725,138.606018,3,1,2,House,House,False,0,m2,False
2017721691,listing,/35-rapid-avenue-lightsview-sa-5085-2017721691,450000,is-sold,Sold by private treaty 30 May 2022,20220530,35 Rapid Avenue,LIGHTSVIEW,SA,5085,-34.8590622,138.630386,2,1,1,House,House,False,132,m2,False
2017728596,listing,/231-east-parkway-lightsview-sa-5085-2017728596,370000,is-sold,Sold by private treaty 14 Jun 2022,20220614,231 East Parkway,LIGHTSVIEW,SA,5085,-34.8631439,138.620758,2,1,1,Townhouse,Townhouse,False,0,m2,False
2017762226,listing,/10a-milton-avenue-clearview-sa-5085-2017762226,653000,is-sold,Sold by private treaty 27 May 2022,20220527,10A Milton Avenue,CLEARVIEW,SA,5085,-34.8582535,138.616379,3,2,4,House,House,False,356,m2,False
2017773186,listing,/32-the-promenade-northgate-sa-5085-2017773186,748555,is-sold,Sold by private treaty 03 Jun 2022,20220603,32 The Promenade,NORTHGATE,SA,5085,-34.851265,138.632736,3,2,2,House,House,False,0,m2,False
2017779016,listing,/11a-south-ave-northfield-sa-5085-2017779016,700000,is-sold,Sold at auction 28 May 2022,20220528,11A South Ave,NORTHFIELD,SA,5085,-34.8501053,138.62027,3,2,1,House,House,False,386,m2,False
2017782254,listing,/54-waterford-circuit-lightsview-sa-5085-2017782254,1703500,is-sold,Sold by private treaty 08 Jun 2022,20220608,54 Waterford Circuit,LIGHTSVIEW,SA,5085,-34.8642044,138.631485,4,2,2,House,House,False,413,m2,False
2017794343,listing,/28-east-avenue-northfield-sa-5085-2017794343,730000,is-sold,Sold prior to auction 05 Jun 2022,20220605,28 East Avenue,NORTHFIELD,SA,5085,-34.8504944,138.621857,3,1,4,House,House,False,780,m2,False
2017801138,listing,/12-brandis-way-lightsview-sa-5085-2017801138,800500,is-sold,Sold at auction 04 Jun 2022,20220604,12 Brandis Way,LIGHTSVIEW,SA,5085,-34.85902,138.622559,3,2,3,House,House,False,487,m2,False
2017810116,listing,/10-paxton-avenue-northgate-sa-5085-2017810116,655000,is-sold,Sold by private treaty 08 Jun 2022,20220608,10 Paxton Avenue,NORTHGATE,SA,5085,-34.8529,138.6279,3,1,4,House,House,False,0,m2,False
2017810237,listing,/9a-central-avenue-enfield-sa-5085-2017810237,570000,is-sold,Sold by private treaty 06 Jun 2022,20220606,9A Central Avenue,ENFIELD,SA,5085,-34.85253,138.605087,3,2,1,House,House,False,317,m2,False
2017812025,listing,/60-west-avenue-northfield-sa-5085-2017812025,680000,is-sold,Sold at auction 05 Jun 2022,20220605,60 West Avenue,NORTHFIELD,SA,5085,-34.8544769,138.619,3,2,1,House,House,False,312,m2,False
2017813341,listing,/13a-jolly-avenue-northfield-sa-5085-2017813341,420500,is-sold,Sold at auction 06 Jun 2022,20220606,13A Jolly Avenue,NORTHFIELD,SA,5085,-34.8433723,138.6239,3,2,1,House,House,False,257,m2,False
2017813891,listing,/212-hampstead-road-clearview-sa-5085-2017813891,900000,is-sold,Sold at auction 04 Jun 2022,20220604,212 Hampstead Road,CLEARVIEW,SA,5085,-34.8625374,138.618118,3,1,2,House,House,False,790,m2,False
2017822599,listing,/29-gordon-avenue-clearview-sa-5085-2017822599,532000,is-sold,Sold at auction 14 Jun 2022,20220614,29 Gordon Avenue,CLEARVIEW,SA,5085,-34.8560448,138.6145,3,1,3,House,House,False,409,m2,False
2017826904,listing,/1-ayredale-avenue-clearview-sa-5085-2017826904,827000,is-sold,Sold at auction 11 Jun 2022,20220611,1 Ayredale Avenue,CLEARVIEW,SA,5085,-34.861454,138.6177,3,1,1,House,House,False,878,m2,False
2017829286,listing,/3-7-hillsea-avenue-clearview-sa-5085-2017829286,450000,is-sold,Sold by private treaty 31 May 2022,20220531,3/7 Hillsea Avenue,CLEARVIEW,SA,5085,-34.8654,138.610184,2,1,1,ApartmentUnitFlat,Apartment / Unit / Flat,False,0,m2,False
2017530013,listing,/7-david-campbell-way-lightsview-sa-5085-2017530013,934000,is-sold,Sold by private treaty 20 May 2022,20220520,7 David Campbell Way,LIGHTSVIEW,SA,5085,-34.86341,138.619446,3,2,2,House,House,False,0,m2,False
2017556286,listing,/25-waterford-circuit-lightsview-sa-5085-2017556286,1110000,is-sold,Sold by private treaty 20 May 2022,20220520,25 Waterford Circuit,LIGHTSVIEW,SA,5085,-34.8635025,138.633545,4,2,4,House,House,False,435,m2,False
2017569209,listing,/25-freeling-lane-lightsview-sa-5085-2017569209,642000,is-sold,Sold prior to auction 22 May 2022,20220522,25 Freeling Lane,LIGHTSVIEW,SA,5085,-34.86217,138.633652,4,2,2,Townhouse,Townhouse,False,160,m2,False
2017598368,listing,/19-high-avenue-clearview-sa-5085-2017598368,601000,is-sold,Sold by private treaty 20 May 2022,20220520,19 High Avenue,CLEARVIEW,SA,5085,-34.86333,138.6125,2,1,1,House,House,False,737,m2,False
2017645978,listing,/13-manchester-parade-lightsview-sa-5085-2017645978,550000,is-sold,Sold at auction 24 May 2022,20220524,13 Manchester Parade,LIGHTSVIEW,SA,5085,-34.86252,138.631409,3,2,1,House,House,False,0,m2,False
2017662103,listing,/1a-tindall-road-enfield-sa-5085-2017662103,670000,is-sold,Sold by private treaty 20 May 2022,20220520,1a Tindall Road,ENFIELD,SA,5085,-34.8579865,138.605988,3,2,1,House,House,False,386,m2,False
2017681378,listing,/40-high-avenue-clearview-sa-5085-2017681378,824000,is-sold,Sold prior to auction 19 May 2022,20220519,40 High Avenue,CLEARVIEW,SA,5085,-34.86119,138.6129,3,1,2,House,House,False,910,m2,False
2017686279,listing,/37-wiltshire-drive-lightsview-sa-5085-2017686279,600000,is-sold,Sold by private treaty 19 May 2022,20220519,37 Wiltshire Drive,LIGHTSVIEW,SA,5085,-34.8637047,138.622055,3,2,1,House,House,False,0,m2,False
2017688236,listing,/18-bradford-court-enfield-sa-5085-2017688236,555000,is-sold,Sold by private treaty 23 May 2022,20220523,18 Bradford Court,ENFIELD,SA,5085,-34.8714561,138.607117,3,2,1,House,House,False,0,m2,False
2017688576,listing,/20-10-collins-street-enfield-sa-5085-2017688576,185000,is-sold,Sold by private treaty 20 May 2022,20220520,20/10 Collins Street,ENFIELD,SA,5085,-34.86703,138.603333,1,1,1,ApartmentUnitFlat,Apartment / Unit / Flat,False,0,m2,False
2017694850,listing,/2-43-fairview-terrace-clearview-sa-5085-2017694850,258000,is-sold,Sold by private treaty 19 May 2022,20220519,2/43 Fairview Terrace,CLEARVIEW,SA,5085,-34.8508759,138.61055,2,1,1,ApartmentUnitFlat,Apartment / Unit / Flat,False,0,m2,False
2017702594,listing,/4-92-waterford-circuit-lightsview-sa-5085-2017702594,375500,is-sold,Sold by private treaty 25 May 2022,20220525,4/92 Waterford Circuit,LIGHTSVIEW,SA,5085,-34.8620872,138.630615,2,1,1,House,House,False,0,m2,False
2017772226,listing,/7a-barnes-avenue-northfield-sa-5085-2017772226,647000,is-sold,Sold at auction 21 May 2022,20220521,7a Barnes Avenue,NORTHFIELD,SA,5085,-34.8485031,138.624115,3,2,2,House,House,False,349,m2,False
2017773066,listing,/60-meadowbank-terrace-northgate-sa-5085-2017773066,1100000,is-sold,Sold at auction 23 May 2022,20220523,60 Meadowbank Terrace,NORTHGATE,SA,5085,-34.8502121,138.63327,4,2,2,House,House,False,435,m2,False
2017774051,listing,/44-collins-street-enfield-sa-5085-2017774051,766500,is-sold,Sold at auction 23 May 2022,20220523,44 Collins Street,ENFIELD,SA,5085,-34.86737,138.6069,4,1,3,House,House,False,700,m2,False
2017776257,listing,/36a-darlington-street-enfield-sa-5085-2017776257,665000,is-sold,Sold at auction 21 May 2022,20220521,36A Darlington Street,ENFIELD,SA,5085,-34.85353,138.606842,3,2,1,House,House,False,400,m2,False
2017782200,listing,/308-62-city-view-boulevard-lightsview-sa-5085-2017782200,396000,is-sold,Sold by private treaty 26 May 2022,20220526,308/62 City View Boulevard,LIGHTSVIEW,SA,5085,-34.8607674,138.633011,2,2,1,ApartmentUnitFlat,Apartment / Unit / Flat,False,0,m2,False
2017795045,listing,/13-stratford-way-northgate-sa-5085-2017795045,,is-sold,Sold by private treaty 20 May 2022,20220520,13 Stratford Way,NORTHGATE,SA,5085,-34.85203,138.630569,4,2,4,House,House,False,375,m2,False
2017796994,listing,/8-172-east-parkway-lightsview-sa-5085-2017796994,388500,is-sold,Sold by private treaty 26 May 2022,20220526,8/172 East Parkway,LIGHTSVIEW,SA,5085,-34.86229,138.624664,2,1,1,ApartmentUnitFlat,Apartment / Unit / Flat,False,0,m2,False
2017818782,listing,/21-21-grundy-road-lightsview-sa-5085-2017818782,394950,is-sold,Sold by private treaty 20 May 2022,20220520,21/21 Grundy Road,LIGHTSVIEW,SA,5085,-34.8598175,138.619934,3,2,2,House,House,False,0,m2,False
2015609973,listing,/3-12-city-view-boulevard-lightsview-sa-5085-2015609973,330000,is-sold,Sold by private treaty 09 May 2022,20220509,3/12 City View Boulevard,LIGHTSVIEW,SA,5085,-34.8586349,138.63446,2,2,1,ApartmentUnitFlat,Apartment / Unit / Flat,False,0,m2,False
2017616012,listing,/9-tindall-road-enfield-sa-5085-2017616012,755000,is-sold,Sold by private treaty 09 May 2022,20220509,9 Tindall Road,ENFIELD,SA,5085,-34.8572731,138.605911,3,1,2,House,House,False,910,m2,False
2017665901,listing,/34-the-strand-lightsview-sa-5085-2017665901,530000,is-sold,Sold by private treaty 04 May 2022,20220504,34 The Strand,LIGHTSVIEW,SA,5085,-34.8614922,138.632675,3,2,2,House,House,False,0,m2,False
2017674528,listing,/20-brown-street-northfield-sa-5085-2017674528,920000,is-sold,Sold by private treaty 06 May 2022,20220506,20 Brown Street,NORTHFIELD,SA,5085,-34.8448372,138.621857,4,3,2,House,House,False,320,m2,False
2017682867,listing,/12-nepean-lane-lightsview-sa-5085-2017682867,575000,is-sold,Sold at auction 16 May 2022,20220516,12 Nepean Lane,LIGHTSVIEW,SA,5085,-34.8648834,138.6332,2,2,1,House,House,False,0,m2,False
2017682911,listing,/140-east-parkway-lightsview-sa-5085-2017682911,650000,is-sold,Sold by private treaty 12 May 2022,20220512,140 East Parkway,LIGHTSVIEW,SA,5085,-34.8624229,138.6269,3,2,2,House,House,False,0,m2,False
2017698551,listing,/15-proclamation-road-lightsview-sa-5085-2017698551,437000,is-sold,Sold by private treaty 04 May 2022,20220504,15 Proclamation Road,LIGHTSVIEW,SA,5085,-34.8602562,138.628891,2,1,1,House,House,False,0,m2,False
2017724632,listing,/27a-branson-avenue-clearview-sa-5085-2017724632,592000,is-sold,Sold by private treaty 10 May 2022,20220510,27A Branson Avenue,CLEARVIEW,SA,5085,-34.8655128,138.6155,3,2,1,House,House,False,331,m2,False
2017743750,listing,/17-northfield-road-northfield-sa-5085-2017743750,700000,is-sold,Sold at auction 16 May 2022,20220516,17 Northfield Road,NORTHFIELD,SA,5085,-34.8570442,138.618866,4,2,2,House,House,False,363,m2,False
2017744077,listing,/4-nixon-street-lightsview-sa-5085-2017744077,1025000,is-sold,Sold at auction 09 May 2022,20220509,4 Nixon Street,LIGHTSVIEW,SA,5085,-34.8647575,138.632675,4,2,2,House,House,False,344,m2,False
2017744117,listing,/13b-dumfries-avenue-northfield-sa-5085-2017744117,619000,is-sold,Sold at auction 09 May 2022,20220509,13B Dumfries Avenue,NORTHFIELD,SA,5085,-34.8565025,138.626648,3,2,1,House,House,False,0,m2,False
2017747429,listing,/20-darlington-street-enfield-sa-5085-2017747429,755000,is-sold,Sold at auction 09 May 2022,20220509,20 Darlington Street,ENFIELD,SA,5085,-34.8536568,138.60434,3,1,1,House,House,False,854,m2,False
2017747560,listing,/353-hampstead-road-northfield-sa-5085-2017747560,520000,is-sold,Sold at auction 14 May 2022,20220514,353 Hampstead Road,NORTHFIELD,SA,5085,-34.848835,138.617676,3,1,,House,House,False,735,m2,False
2017748615,listing,/66-navigator-drive-northgate-sa-5085-2017748615,961000,is-sold,Sold prior to auction 07 May 2022,20220507,66 Navigator Drive,NORTHGATE,SA,5085,-34.8529129,138.630524,4,2,2,House,House,False,600,m2,False
2017749324,listing,/19-clyde-road-lightsview-sa-5085-2017749324,460000,is-sold,Sold at auction 09 May 2022,20220509,19 Clyde Road,LIGHTSVIEW,SA,5085,-34.8613358,138.62883,2,1,1,House,House,False,132,m2,False
2017749602,listing,/32-city-view-boulevard-lightsview-sa-5085-2017749602,,is-sold,Sold by private treaty 12 May 2022,20220512,32 City View Boulevard,LIGHTSVIEW,SA,5085,-34.85962,138.633942,3,2,2,House,House,False,0,m2,False
2017759610,listing,/26-west-avenue-northfield-sa-5085-2017759610,733000,is-sold,Sold at auction 16 May 2022,20220516,26 West Avenue,NORTHFIELD,SA,5085,-34.8507919,138.618973,3,1,2,House,House,False,700,m2,False
2017786499,listing,/8-james-avenue-northfield-sa-5085-2017786499,705000,is-sold,Sold by private treaty 19 May 2022,20220519,8 James Avenue,NORTHFIELD,SA,5085,-34.84404,138.621017,3,1,2,House,House,False,775,m2,False
2017801645,listing,/36-south-parkway-lightsview-sa-5085-2017801645,625000,is-sold,Sold by private treaty 19 May 2022,20220519,36 South Parkway,LIGHTSVIEW,SA,5085,-34.8654251,138.623062,3,2,2,Townhouse,Townhouse,False,0,m2,False
2017935340,listing,/231-east-parkway-lightsview-sa-5085-2017935340,370000,is-sold,Sold by private treaty 17 May 2022,20220517,231 East Parkway,LIGHTSVIEW,SA,5085,-34.8631439,138.620758,2,1,1,Townhouse,Townhouse,False,0,m2,False
2017423538,listing,/lot-1-2-3-59-west-avenue-northfield-sa-5085-2017423538,,is-sold,Sold by private treaty 22 Apr 2022,20220422,"Lot 1,2&3/59 West Avenue",NORTHFIELD,SA,5085,-34.8542747,138.618744,,,,VacantLand,Vacant land,False,350,m2,False
2017521055,listing,/26-justin-avenue-northfield-sa-5085-2017521055,635000,is-sold,Sold by private treaty 20 Apr 2022,20220420,26 Justin Avenue,NORTHFIELD,SA,5085,-34.8489,138.625961,3,1,4,House,House,False,714,m2,False
2017640989,listing,/17-amber-ave-clearview-sa-5085-2017640989,330000,is-sold,Sold by private treaty 27 Apr 2022,20220427,17 Amber Ave,CLEARVIEW,SA,5085,-34.8489761,138.610168,,,,VacantLand,Vacant land,False,391,m2,False
2017662280,listing,/16-shiers-avenue-northgate-sa-5085-2017662280,688000,is-sold,Sold by private treaty 27 Apr 2022,20220427,16 Shiers Avenue,NORTHGATE,SA,5085,-34.8505363,138.633972,3,2,4,House,House,False,375,m2,False
2017669647,listing,/510-regency-road-enfield-sa-5085-2017669647,580000,is-sold,Sold by private treaty 22 Apr 2022,20220422,510 Regency Road,ENFIELD,SA,5085,-34.8732,138.6051,3,1,3,House,House,False,753,m2,False
2017673938,listing,/3-sevenhill-way-northgate-sa-5085-2017673938,735000,is-sold,Sold by private treaty 04 May 2022,20220504,3 Sevenhill Way,NORTHGATE,SA,5085,-34.84833,138.6308,3,2,2,House,House,False,375,m2,False
2017694923,listing,/20-lines-street-enfield-sa-5085-2017694923,772000,is-sold,Sold at auction 25 Apr 2022,20220425,20 Lines Street,ENFIELD,SA,5085,-34.8498268,138.601913,4,2,1,House,House,False,371,m2,False
2017695098,listing,/7-truscott-road-enfield-sa-5085-2017695098,740000,is-sold,Sold at auction 25 Apr 2022,20220425,7 Truscott Road,ENFIELD,SA,5085,-34.8551178,138.604843,3,1,2,House,House,False,887,m2,False
2017714697,listing,/10-rhind-road-lightsview-sa-5085-2017714697,1500000,is-sold,Sold at auction 25 Apr 2022,20220425,10 Rhind Road,LIGHTSVIEW,SA,5085,-34.8637352,138.629074,4,2,2,House,House,False,413,m2,False
2017719008,listing,/53b-northfield-road-northfield-sa-5085-2017719008,465000,is-sold,Sold at auction 23 Apr 2022,20220423,53b Northfield Road,NORTHFIELD,SA,5085,-34.8560333,138.622314,3,1,2,House,House,False,268,m2,False
2017719352,listing,/69-folland-avenue-lightsview-sa-5085-2017719352,748000,is-sold,Sold at auction 27 Apr 2022,20220427,69 Folland Avenue,LIGHTSVIEW,SA,5085,-34.8587341,138.62413,3,2,2,House,House,False,515,m2,False
2017720621,listing,/2-barrington-avenue-enfield-sa-5085-2017720621,637000,is-sold,Sold at auction 26 Apr 2022,20220426,2 Barrington Avenue,ENFIELD,SA,5085,-34.85183,138.602692,3,1,1,House,House,False,745,m2,False
2017729848,listing,/10-south-parkway-lightsview-sa-5085-2017729848,556500,is-sold,Sold by private treaty 27 Apr 2022,20220427,10 South Parkway,LIGHTSVIEW,SA,5085,-34.8654633,138.622269,3,2,1,House,House,False,171,m2,False
2017730630,listing,/2-13-jacob-lane-lightsview-sa-5085-2017730630,640000,is-sold,Sold at auction 02 May 2022,20220502,2/13 Jacob Lane,LIGHTSVIEW,SA,5085,-34.8594475,138.630142,3,2,2,House,House,False,0,m2,False
2017734697,listing,/14-silver-street-enfield-sa-5085-2017734697,760000,is-sold,Sold at auction 02 May 2022,20220502,14 Silver Street,ENFIELD,SA,5085,-34.8545,138.607513,3,1,2,House,House,False,845,m2,False
2017737548,listing,/35-peppercorn-way-lightsview-sa-5085-2017737548,578500,is-sold,Sold by private treaty 02 May 2022,20220502,35 Peppercorn Way,LIGHTSVIEW,SA,5085,-34.86451,138.636215,3,2,2,House,House,False,152,m2,False
2017743470,listing,/53-warwick-street-enfield-sa-5085-2017743470,640000,is-sold,Sold prior to auction 03 May 2022,20220503,53 Warwick Street,ENFIELD,SA,5085,-34.8606377,138.607773,3,1,2,House,House,False,700,m2,False
2017744640,listing,/9-glenburnie-ave-northfield-sa-5085-2017744640,718000,is-sold,Sold at auction 04 May 2022,20220504,9 Glenburnie Ave,NORTHFIELD,SA,5085,-34.85629,138.61937,3,2,2,House,House,False,377,m2,False
2017754578,listing,/lot-10-59-west-avenue-northfield-sa-5085-2017754578,355000,is-sold,Sold by private treaty 22 Apr 2022,20220422,Lot 10/59 West Avenue,NORTHFIELD,SA,5085,-34.8542747,138.618744,,,,VacantLand,Vacant land,False,350,m2,False
2017754632,listing,/lot-11-59-west-avenue-northfield-sa-5085-2017754632,,is-sold,Sold by private treaty 22 Apr 2022,20220422,Lot 11/59 West Avenue,NORTHFIELD,SA,5085,-34.8542747,138.618744,,,,VacantLand,Vacant land,False,350,m2,False
2017140231,listing,/37a-hoods-road-northfield-sa-5085-2017140231,495000,is-sold,Sold by private treaty 20 Apr 2022,20220420,37a Hoods Road,NORTHFIELD,SA,5085,-34.8430367,138.625549,4,2,1,House,House,False,0,m2,False
2017483642,listing,/lot-101-10-branson-avenue-clearview-sa-5085-2017483642,380000,is-sold,Sold by private treaty 15 Apr 2022,20220415,Lot 101/10 Branson Avenue,CLEARVIEW,SA,5085,-34.86494,138.617172,,,,VacantLand,Vacant land,False,381,m2,False
2017531178,listing,/2-33-collins-st-enfield-sa-5085-2017531178,305000,is-sold,Sold by private treaty 08 Apr 2022,20220408,2/33 Collins St,ENFIELD,SA,5085,-34.8679237,138.605881,2,1,1,House,House,False,0,m2,False
2017563897,listing,/17-david-campbell-way-lightsview-sa-5085-2017563897,670000,is-sold,Sold by private treaty 12 Apr 2022,20220412,17 David Campbell Way,LIGHTSVIEW,SA,5085,-34.86358,138.619278,3,3,2,House,House,False,275,m2,False
2017577758,listing,/4-3-9-fitzgerald-avenue-enfield-sa-5085-2017577758,272500,is-sold,Sold by private treaty 14 Apr 2022,20220414,4/3-9 Fitzgerald Avenue,ENFIELD,SA,5085,-34.86312,138.602356,1,1,1,ApartmentUnitFlat,Apartment / Unit / Flat,False,0,m2,False
2017583279,listing,/19-stonewell-common-northgate-sa-5085-2017583279,695000,is-sold,Sold at auction 20 Apr 2022,20220420,19 Stonewell Common,NORTHGATE,SA,5085,-34.8479156,138.631561,3,2,2,House,House,False,375,m2,False
2017601235,listing,/10-james-avenue-northfield-sa-5085-2017601235,631000,is-sold,Sold by private treaty 13 Apr 2022,20220413,10 James Avenue,NORTHFIELD,SA,5085,-34.8442268,138.620865,3,1,6,House,House,False,0,m2,False
2017614550,listing,/59-vickers-vimy-parade-northgate-sa-5085-2017614550,521000,is-sold,Sold by private treaty 08 Apr 2022,20220408,59 Vickers Vimy Parade,NORTHGATE,SA,5085,-34.8479729,138.62886,3,1,2,House,House,False,200,m2,False
2017644516,listing,/9a-george-street-enfield-sa-5085-2017644516,940000,is-sold,Sold by private treaty 15 Apr 2022,20220415,9A George Street,ENFIELD,SA,5085,-34.8708267,138.603439,5,2,2,House,House,False,391,m2,False
2017648986,listing,/20-ridgeway-avenue-enfield-sa-5085-2017648986,455000,is-sold,Sold by private treaty 06 Apr 2022,20220406,20 Ridgeway Avenue,ENFIELD,SA,5085,-34.8542252,138.608917,3,1,3,House,House,False,471,m2,False
2017677097,listing,/14a-alderney-avenue-clearview-sa-5085-2017677097,680000,is-sold,Sold at auction 09 Apr 2022,20220409,14A Alderney Avenue,CLEARVIEW,SA,5085,-34.8548355,138.61087,4,2,1,House,House,False,404,m2,False
2017677344,listing,/10-twin-street-northfield-sa-5085-2017677344,681000,is-sold,Sold at auction 09 Apr 2022,20220409,10 Twin Street,NORTHFIELD,SA,5085,-34.8405228,138.624924,4,2,1,House,House,False,457,m2,False
2017678014,listing,/16-selkirk-avenue-clearview-sa-5085-2017678014,885000,is-sold,Sold at auction 08 Apr 2022,20220408,16 Selkirk Avenue,CLEARVIEW,SA,5085,-34.8532257,138.615692,3,2,2,House,House,False,570,m2,False
2017682862,listing,/56-fairview-terrace-clearview-sa-5085-2017682862,725000,is-sold,Sold at auction 10 Apr 2022,20220410,56 Fairview Terrace,CLEARVIEW,SA,5085,-34.8532028,138.609741,2,1,3,House,House,False,800,m2,False
2017682872,listing,/108-collins-street-clearview-sa-5085-2017682872,726000,is-sold,Sold at auction 09 Apr 2022,20220409,108 Collins Street,CLEARVIEW,SA,5085,-34.86701,138.614334,3,1,3,House,House,False,730,m2,False
2017682897,listing,/15-goodhall-street-lightsview-sa-5085-2017682897,475000,is-sold,Sold at auction 10 Apr 2022,20220410,15 Goodhall Street,LIGHTSVIEW,SA,5085,-34.8590965,138.62027,3,2,1,House,House,False,0,m2,False
2017687137,listing,/5-amber-avenue-clearview-sa-5085-2017687137,492000,is-sold,Sold at auction 11 Apr 2022,20220411,5 Amber Avenue,CLEARVIEW,SA,5085,-34.84821,138.610565,3,1,1,House,House,False,376,m2,False
2017690072,listing,/26-corconda-street-clearview-sa-5085-2017690072,707000,is-sold,Sold by private treaty 15 Apr 2022,20220415,26 Corconda Street,CLEARVIEW,SA,5085,-34.8660545,138.615692,3,2,2,House,House,False,319,m2,False
2017698126,listing,/9-parna-lane-lightsview-sa-5085-2017698126,460000,is-sold,Sold by private treaty 07 Apr 2022,20220407,9 Parna Lane,LIGHTSVIEW,SA,5085,-34.86533,138.625931,2,1,1,House,House,False,0,m2,False
2017699624,listing,/16-bradford-court-enfield-sa-5085-2017699624,611700,is-sold,Sold by private treaty 07 Apr 2022,20220407,16 Bradford Court,ENFIELD,SA,5085,-34.8714027,138.607056,3,2,1,House,House,False,332,m2,False
2017409298,listing,/3-woodfield-street-enfield-sa-5085-2017409298,565000,is-sold,Sold by private treaty 04 Apr 2022,20220404,3 Woodfield Street,ENFIELD,SA,5085,-34.86283,138.607788,2,1,2,House,House,False,730,m2,False
2017450374,listing,/3-allen-street-northfield-sa-5085-2017450374,738000,is-sold,Sold by private treaty 04 Apr 2022,20220404,3 Allen Street,NORTHFIELD,SA,5085,-34.8510551,138.620667,6,2,2,House,House,False,756,m2,False
2017464237,listing,/1-55-blyth-street-clearview-sa-5085-2017464237,350000,is-sold,Sold by private treaty 31 Mar 2022,20220331,1/55 Blyth Street,CLEARVIEW,SA,5085,-34.8623161,138.611343,,,,VacantLand,Vacant land,False,362,m2,False
2017470047,listing,/lot-2-41-hoods-road-northfield-sa-5085-2017470047,788000,is-sold,Sold by private treaty 31 Mar 2022,20220331,Lot 2/41 Hoods Road,NORTHFIELD,SA,5085,-34.8430939,138.626038,4,2,2,House,House,False,423,m2,False
2017591614,listing,/6-gulnare-grove-lightsview-sa-5085-2017591614,565000,is-sold,Sold by private treaty 25 Mar 2022,20220325,6 Gulnare Grove,LIGHTSVIEW,SA,5085,-34.8613739,138.6322,3,2,1,House,House,False,128,m2,False
2017614840,listing,/31-piccadilly-way-lightsview-sa-5085-2017614840,460000,is-sold,Sold by private treaty 28 Mar 2022,20220328,31 Piccadilly Way,LIGHTSVIEW,SA,5085,-34.8646965,138.6341,2,1,1,House,House,False,154,m2,False
2017615200,listing,/2-howe-lane-lightsview-sa-5085-2017615200,432000,is-sold,Sold by private treaty 24 Mar 2022,20220324,2 Howe Lane,LIGHTSVIEW,SA,5085,-34.86202,138.623688,2,1,1,House,House,False,0,m2,False
2017615255,listing,/13-north-parkway-lightsview-sa-5085-2017615255,431000,is-sold,Sold by private treaty 04 Apr 2022,20220404,13 North Parkway,LIGHTSVIEW,SA,5085,-34.861496,138.628189,2,1,1,House,House,False,0,m2,False
2017624148,listing,/9-gulnare-grove-lightsview-sa-5085-2017624148,888000,is-sold,Sold by private treaty 28 Mar 2022,20220328,9 Gulnare Grove,LIGHTSVIEW,SA,5085,-34.86095,138.631836,4,3,2,House,House,False,308,m2,False
2017626755,listing,/22-beaumont-street-lightsview-sa-5085-2017626755,550000,is-sold,Sold by private treaty 23 Mar 2022,20220323,22 Beaumont Street,LIGHTSVIEW,SA,5085,-34.8597374,138.620972,3,2,1,House,House,False,165,m2,False
2017644005,listing,/9-selkirk-avenue-clearview-sa-5085-2017644005,675000,is-sold,Sold at auction 28 Mar 2022,20220328,9 Selkirk Avenue,CLEARVIEW,SA,5085,-34.85369,138.6159,3,1,1,House,House,False,650,m2,False
2017648740,listing,/12b-york-street-northfield-sa-5085-2017648740,545000,is-sold,Sold at auction 26 Mar 2022,20220326,12b York Street,NORTHFIELD,SA,5085,-34.8515129,138.625534,3,2,1,House,House,False,277,m2,False
2017648968,listing,/21-dumfries-avenue-northfield-sa-5085-2017648968,868000,is-sold,Sold at auction 26 Mar 2022,20220326,21 Dumfries Avenue,NORTHFIELD,SA,5085,-34.8556,138.62645,4,2,2,House,House,False,383,m2,False
2017648978,listing,/7-grundy-road-lightsview-sa-5085-2017648978,508000,is-sold,Sold by private treaty 29 Mar 2022,20220329,7 Grundy Road,LIGHTSVIEW,SA,5085,-34.85978,138.620529,3,2,1,House,House,False,0,m2,False
2017653686,listing,/2-norton-street-northfield-sa-5085-2017653686,406000,is-sold,Sold at auction 26 Mar 2022,20220326,2 NORTON STREET,NORTHFIELD,SA,5085,-34.8445129,138.625061,3,1,3,House,House,False,346,m2,False
2017657278,listing,/7-the-provence-northgate-sa-5085-2017657278,790000,is-sold,Sold at auction 02 Apr 2022,20220402,7 The Provence,NORTHGATE,SA,5085,-34.8542938,138.6307,3,2,2,House,House,False,450,m2,False
2017662526,listing,/5-justin-avenue-northfield-sa-5085-2017662526,765000,is-sold,Sold at auction 04 Apr 2022,20220404,5 Justin Avenue,NORTHFIELD,SA,5085,-34.84939,138.6242,5,1,3,House,House,False,700,m2,False
2017665948,listing,/63-rowe-avenue-northfield-sa-5085-2017665948,705000,is-sold,Sold at auction 02 Apr 2022,20220402,63 Rowe Avenue,NORTHFIELD,SA,5085,-34.850235,138.6223,3,2,1,House,House,False,417,m2,False
2017667941,listing,/8-stewart-avenue-northfield-sa-5085-2017667941,715500,is-sold,Sold at auction 04 Apr 2022,20220404,8 Stewart Avenue,NORTHFIELD,SA,5085,-34.8571663,138.626175,3,1,1,House,House,False,724,m2,False
2017668168,listing,/4a-mckay-avenue-northfield-sa-5085-2017668168,637000,is-sold,Sold at auction 03 Apr 2022,20220403,4A McKay Avenue,NORTHFIELD,SA,5085,-34.8556976,138.624054,3,2,1,House,House,False,388,m2,False
2016658951,listing,/11-rapid-avenue-lightsview-sa-5085-2016658951,515000,is-sold,Sold by private treaty 04 Mar 2022,20220304,11 Rapid Avenue,LIGHTSVIEW,SA,5085,-34.859,138.6324,3,2,2,House,House,False,0,m2,False
2017379934,listing,/15-stratford-way-northgate-sa-5085-2017379934,842000,is-sold,Sold by private treaty 17 Mar 2022,20220317,15 Stratford Way,NORTHGATE,SA,5085,-34.8519363,138.630692,4,3,4,House,House,False,375,m2,False
2017404992,listing,/3-park-terrace-enfield-sa-5085-2017404992,700000,is-sold,Sold by private treaty 18 Mar 2022,20220318,3 Park Terrace,ENFIELD,SA,5085,-34.8532028,138.608536,3,1,2,House,House,False,912,m2,False
2017457318,listing,/46-somerset-avenue-clearview-sa-5085-2017457318,700000,is-sold,Sold by private treaty 07 Mar 2022,20220307,46 Somerset Avenue,CLEARVIEW,SA,5085,-34.856636,138.617081,3,1,2,House,House,False,810,m2,False
2017505371,listing,/5-10-collins-street-enfield-sa-5085-2017505371,200000,is-sold,Sold prior to auction 16 Mar 2022,20220316,5/10 Collins Street,ENFIELD,SA,5085,-34.86751,138.603409,1,1,1,ApartmentUnitFlat,Apartment / Unit / Flat,False,0,m2,False
2017508113,listing,/26a-neale-lane-lightsview-sa-5085-2017508113,305000,is-sold,Sold by private treaty 04 Mar 2022,20220304,26A Neale Lane,LIGHTSVIEW,SA,5085,-34.86027,138.634232,1,1,1,Townhouse,Townhouse,False,0,m2,False
2017514442,listing,/8-marker-street-enfield-sa-5085-2017514442,355000,is-sold,Sold by private treaty 18 Mar 2022,20220318,8 Marker Street,ENFIELD,SA,5085,-34.84981,138.607086,,,,VacantLand,Vacant land,False,362,m2,False
2017516292,listing,/24a-stewart-avenue-northfield-sa-5085-2017516292,623000,is-sold,Sold by private treaty 10 Mar 2022,20220310,24A Stewart Avenue,NORTHFIELD,SA,5085,-34.85535,138.626022,4,2,1,House,House,False,0,m2,False
2017529013,listing,/4-north-parkway-lightsview-sa-5085-2017529013,655000,is-sold,Sold at auction 07 Mar 2022,20220307,4 North Parkway,LIGHTSVIEW,SA,5085,-34.8613548,138.627884,3,2,2,House,House,False,179,m2,False
2017535401,listing,/10-barrington-avenue-enfield-sa-5085-2017535401,375000,is-sold,Sold by private treaty 22 Mar 2022,20220322,10 Barrington Avenue,ENFIELD,SA,5085,-34.8517,138.603455,,,,VacantLand,Vacant land,False,373,m2,False
2017538534,listing,/12a-corralyn-terrace-enfield-sa-5085-2017538534,695000,is-sold,Sold by private treaty 17 Mar 2022,20220317,12A Corralyn Terrace,ENFIELD,SA,5085,-34.872242,138.604965,4,2,3,House,House,False,395,m2,False
2017560332,listing,/7-sarnia-avenue-clearview-sa-5085-2017560332,700000,is-sold,Sold at auction 21 Mar 2022,20220321,7 Sarnia Avenue,CLEARVIEW,SA,5085,-34.86274,138.614014,3,2,1,House,House,False,396,m2,False
2017586183,listing,/51-west-avenue-northfield-sa-5085-2017586183,660000,is-sold,Sold prior to auction 05 Mar 2022,20220305,51 West Avenue,NORTHFIELD,SA,5085,-34.85358,138.618622,3,2,6,House,House,False,784,m2,False
2017596387,listing,/55-west-avenue-northfield-sa-5085-2017596387,700000,is-sold,Sold at auction 07 Mar 2022,20220307,55 West Avenue,NORTHFIELD,SA,5085,-34.8539,138.6187,3,1,,House,House,False,800,m2,False
2017609641,listing,/1a-palmer-street-lightsview-sa-5085-2017609641,,is-sold,Sold by private treaty 19 Mar 2022,20220319,1a Palmer Street,LIGHTSVIEW,SA,5085,-34.86468,138.633484,3,2,2,Townhouse,Townhouse,False,137,m2,False
2017617825,listing,/32-learmonth-terrace-enfield-sa-5085-2017617825,751000,is-sold,Sold at auction 12 Mar 2022,20220312,32 Learmonth Terrace,ENFIELD,SA,5085,-34.855484,138.603912,3,1,3,House,House,False,710,m2,False
2017634192,listing,/10-sarnia-avenue-clearview-sa-5085-2017634192,775000,is-sold,Sold prior to auction 10 Mar 2022,20220310,10 Sarnia Avenue,CLEARVIEW,SA,5085,-34.8622131,138.615692,3,1,3,House,House,False,808,m2,False
2017642538,listing,/6-clearview-crescent-clearview-sa-5085-2017642538,665000,is-sold,Sold by private treaty 21 Mar 2022,20220321,6 Clearview Crescent,CLEARVIEW,SA,5085,-34.85048,138.611816,2,1,1,House,House,False,800,m2,False
2017644658,listing,/23-hardy-walk-lightsview-sa-5085-2017644658,725620,is-sold,Sold by private treaty 22 Mar 2022,20220322,23 Hardy Walk,LIGHTSVIEW,SA,5085,-34.86239,138.631546,4,2,2,House,House,False,0,m2,False
2017650016,listing,/29b-branson-avenue-clearview-sa-5085-2017650016,575000,is-sold,Sold by private treaty 18 Mar 2022,20220318,29B Branson Avenue,CLEARVIEW,SA,5085,-34.8655128,138.615189,3,2,1,House,House,False,311,m2,False
2017214163,listing,/lot-2354-south-parkway-lightsview-sa-5085-2017214163,515000,is-sold,Sold by private treaty 22 Feb 2022,20220222,Lot 2354 South Parkway,LIGHTSVIEW,SA,5085,-34.8559837,138.618835,4,4,2,House,House,False,342,m2,False
2017243938,listing,/2-devon-street-enfield-sa-5085-2017243938,545000,is-sold,Sold by private treaty 28 Feb 2022,20220228,2 Devon Street,ENFIELD,SA,5085,-34.8485947,138.603043,3,2,2,House,House,False,275,m2,False
2017299972,listing,/2a-eton-road-lightsview-sa-5085-2017299972,535000,is-sold,Sold by private treaty 18 Feb 2022,20220218,2A Eton Road,LIGHTSVIEW,SA,5085,-34.85999,138.6336,3,2,2,House,House,False,0,m2,False
2017344162,listing,/lot-2-55-blyth-avenue-clearview-sa-5085-2017344162,,is-sold,Sold by private treaty 15 Feb 2022,20220215,Lot 2/55 Blyth Avenue,CLEARVIEW,SA,5085,-34.8623161,138.611343,3,2,1,NewHouseLand,New House & Land,False,362,m2,False
2017373387,listing,/6-allen-street-northfield-sa-5085-2017373387,550000,is-sold,Sold at auction 16 Feb 2022,20220216,6 Allen Street,NORTHFIELD,SA,5085,-34.8504944,138.620773,,,,VacantLand,Vacant land,False,1100,m2,False
2017399428,listing,/9-172-east-parkway-lightsview-sa-5085-2017399428,285000,is-sold,Sold by private treaty 22 Feb 2022,20220222,9/172 East Parkway,LIGHTSVIEW,SA,5085,-34.86229,138.624664,1,1,1,ApartmentUnitFlat,Apartment / Unit / Flat,False,0,m2,False
2017409685,listing,/6-reading-avenue-clearview-sa-5085-2017409685,990000,is-sold,Sold by private treaty 14 Feb 2022,20220214,6 Reading Avenue,CLEARVIEW,SA,5085,-34.8544655,138.610718,4,2,2,House,House,False,696,m2,False
2017472383,listing,/181-east-parkway-lightsview-sa-5085-2017472383,700000,is-sold,Sold by private treaty 28 Feb 2022,20220228,181 East Parkway,LIGHTSVIEW,SA,5085,-34.86296,138.623123,3,2,2,House,House,False,0,m2,False
2017489730,listing,/18-martin-st-northfield-sa-5085-2017489730,411000,is-sold,Sold by private treaty 01 Mar 2022,20220301,18 Martin St,NORTHFIELD,SA,5085,-34.85346,138.62532,,,,VacantLand,Vacant land,False,373,m2,False
2017516978,listing,/lot-2-27-walton-avenue-clearview-sa-5085-2017516978,,is-sold,Sold by private treaty 15 Feb 2022,20220215,Lot 2/27 Walton Avenue,CLEARVIEW,SA,5085,-34.8507843,138.613037,3,2,2,NewHouseLand,New House & Land,False,300,m2,False
2017517784,listing,/clearview-sa-5085-2017517784,,is-sold,Sold by private treaty 14 Feb 2022,20220214,,CLEARVIEW,SA,5085,-34.8508224,138.61261,4,2,2,NewHouseLand,New House & Land,False,334,m2,False
2017518795,listing,/18-clearview-crescent-clearview-sa-5085-2017518795,645000,is-sold,Sold by private treaty 25 Feb 2022,20220225,18 Clearview Crescent,CLEARVIEW,SA,5085,-34.8512344,138.610809,3,1,1,House,House,False,864,m2,False
2017534866,listing,/lot-3-walton-avenue-clearview-sa-5085-2017534866,375000,is-sold,Sold at auction 24 Feb 2022,20220224,Lot 3 Walton Avenue,CLEARVIEW,SA,5085,-34.8505249,138.616089,,,,VacantLand,Vacant land,False,334,m2,False
2017535063,listing,/24-north-parkway-lightsview-sa-5085-2017535063,621000,is-sold,Sold by private treaty 03 Mar 2022,20220303,24 North Parkway,LIGHTSVIEW,SA,5085,-34.86074,138.627823,3,2,2,House,House,False,230,m2,False
2017545949,listing,/23-broadstock-street-lightsview-sa-5085-2017545949,658000,is-sold,Sold at auction 14 Feb 2022,20220214,23 Broadstock Street,LIGHTSVIEW,SA,5085,-34.8607,138.624786,3,2,1,House,House,False,0,m2,False
2017558659,listing,/1-william-terrace-lightsview-sa-5085-2017558659,1300000,is-sold,Sold at auction 21 Feb 2022,20220221,1 William Terrace,LIGHTSVIEW,SA,5085,-34.85954,138.63353,6,3,2,House,House,False,493,m2,False
2017564454,listing,/26-taunton-avenue-enfield-sa-5085-2017564454,781000,is-sold,Sold at auction 19 Feb 2022,20220219,26 Taunton Avenue,ENFIELD,SA,5085,-34.85258,138.6072,3,1,1,House,House,False,740,m2,False
2017577489,listing,/15-tindall-road-enfield-sa-5085-2017577489,593000,is-sold,Sold at auction 27 Feb 2022,20220227,15 Tindall Road,ENFIELD,SA,5085,-34.85598,138.60585,3,2,1,House,House,False,0,m2,False
2017577546,listing,/13a-dumfries-avenue-northfield-sa-5085-2017577546,725500,is-sold,Sold at auction 26 Feb 2022,20220226,13A Dumfries Avenue,NORTHFIELD,SA,5085,-34.85659,138.6267,3,2,2,House,House,False,317,m2,False
2017581273,listing,/76-rapid-avenue-lightsview-sa-5085-2017581273,987000,is-sold,Sold at auction 26 Feb 2022,20220226,76 Rapid Avenue,LIGHTSVIEW,SA,5085,-34.8588028,138.628418,3,2,2,House,House,False,356,m2,False
2017334365,listing,/20-south-parkway-lightsview-sa-5085-2017334365,680000,is-sold,Sold by private treaty 01 Feb 2022,20220201,20 South Parkway,LIGHTSVIEW,SA,5085,-34.865448,138.622559,3,2,4,House,House,False,225,m2,False
2017338851,listing,/1-420b-grand-junction-road-clearview-sa-5085-2017338851,245000,is-sold,Sold by private treaty 04 Feb 2022,20220204,1/420B Grand Junction Road,CLEARVIEW,SA,5085,-34.847805,138.611435,2,1,1,ApartmentUnitFlat,Apartment / Unit / Flat,False,0,m2,False
2017354306,listing,/11-12-9-city-view-boulevard-lightsview-sa-5085-2017354306,380000,is-sold,Sold by private treaty 03 Feb 2022,20220203,11 & 12/9 City View Boulevard,LIGHTSVIEW,SA,5085,-34.8597832,138.634079,2,1,1,ApartmentUnitFlat,Apartment / Unit / Flat,False,0,m2,False
2017410305,listing,/unit-2-17-hoods-rd-northfield-sa-5085-2017410305,368000,is-sold,Sold by private treaty 14 Feb 2022,20220214,Unit 2/17 Hoods Rd,NORTHFIELD,SA,5085,-34.842247,138.623932,2,1,1,ApartmentUnitFlat,Apartment / Unit / Flat,False,0,m2,False
2017423161,listing,/16-maldon-street-northfield-sa-5085-2017423161,560000,is-sold,Sold by private treaty 04 Feb 2022,20220204,16 Maldon Street,NORTHFIELD,SA,5085,-34.8524361,138.619415,3,2,1,House,House,False,0,m2,False
2017423252,listing,/lot-1-of-18-milton-avenue-clearview-sa-5085-2017423252,430000,is-sold,Sold by private treaty 08 Feb 2022,20220208,Lot 1/of 18 Milton Avenue,CLEARVIEW,SA,5085,-34.8585243,138.614716,,,,VacantLand,Vacant land,False,416,m2,False
2017455598,listing,/8-clearview-crescent-clearview-sa-5085-2017455598,743500,is-sold,Sold by private treaty 10 Feb 2022,20220210,8 Clearview Crescent,CLEARVIEW,SA,5085,-34.8505249,138.611664,3,1,6,House,House,False,920,m2,False
2017456588,listing,/4-condon-drive-lightsview-sa-5085-2017456588,772000,is-sold,Sold at auction 02 Feb 2022,20220202,4 Condon Drive,LIGHTSVIEW,SA,5085,-34.8643875,138.625671,4,2,2,House,House,False,275,m2,False
2017458185,listing,/11-1-walter-parade-lightsview-sa-5085-2017458185,395000,is-sold,Sold by private treaty 03 Feb 2022,20220203,11/1 Walter Parade,LIGHTSVIEW,SA,5085,-34.8587227,138.634918,2,1,1,ApartmentUnitFlat,Apartment / Unit / Flat,False,0,m2,False
2017461350,listing,/23-ormond-avenue-clearview-sa-5085-2017461350,630000,is-sold,Sold at auction 04 Feb 2022,20220204,23 Ormond Avenue,CLEARVIEW,SA,5085,-34.86074,138.615387,3,1,2,House,House,False,794,m2,False
2017471358,listing,/24-julian-street-lightsview-sa-5085-2017471358,651000,is-sold,Sold by private treaty 02 Feb 2022,20220202,24 Julian Street,LIGHTSVIEW,SA,5085,-34.8626251,138.635971,3,2,2,House,House,False,0,m2,False
2017482323,listing,/14-bowman-crescent-enfield-sa-5085-2017482323,700000,is-sold,Sold by private treaty 04 Feb 2022,20220204,14 BOWMAN Crescent,ENFIELD,SA,5085,-34.8616066,138.6039,3,1,2,House,House,False,702,m2,False
2017514869,listing,/21-barrington-avenue-enfield-sa-5085-2017514869,720000,is-sold,Sold at auction 31 Jan 2022,20220131,21 Barrington Avenue,ENFIELD,SA,5085,-34.85207,138.606644,3,1,3,House,House,False,775,m2,False
2017518687,listing,/19-jeffcott-avenue-lightsview-sa-5085-2017518687,487000,is-sold,Sold by private treaty 01 Feb 2022,20220201,19 Jeffcott Avenue,LIGHTSVIEW,SA,5085,-34.8634529,138.621719,3,1,1,House,House,False,0,m2,False
2017521581,listing,/8-stratford-way-northgate-sa-5085-2017521581,770500,is-sold,Sold at auction 07 Feb 2022,20220207,8 Stratford Way,NORTHGATE,SA,5085,-34.8523,138.630173,4,2,4,House,House,False,450,m2,False
2017528627,listing,/5-harrington-grove-northfield-sa-5085-2017528627,610000,is-sold,Sold at auction 07 Feb 2022,20220207,5 Harrington Grove,NORTHFIELD,SA,5085,-34.84331,138.624237,3,1,2,House,House,False,720,m2,False
2017545927,listing,/18-ridgeway-avenue-enfield-sa-5085-2017545927,663000,is-sold,Sold at auction 12 Feb 2022,20220212,18 Ridgeway Avenue,ENFIELD,SA,5085,-34.8544159,138.609039,3,2,1,House,House,False,350,m2,False
2017546811,listing,/4-milton-avenue-clearview-sa-5085-2017546811,577500,is-sold,Sold prior to auction 04 Feb 2022,20220204,4 Milton Avenue,CLEARVIEW,SA,5085,-34.8581619,138.617416,3,1,2,House,House,False,0,m2,False
2017562651,listing,/d1-41-hoods-road-northfield-sa-5085-2017562651,575000,is-sold,Sold by private treaty 01 Feb 2022,20220201,D1/41 Hoods Road,NORTHFIELD,SA,5085,-34.8430939,138.626038,3,2,1,House,House,False,309,m2,False
2017570553,listing,/25-clyde-rd-lightsview-sa-5085-2017570553,554000,is-sold,Sold by private treaty 08 Feb 2022,20220208,25 Clyde Rd,LIGHTSVIEW,SA,5085,-34.86134,138.628647,3,2,2,Townhouse,Townhouse,False,0,m2,False
2017224762,listing,/lot-742-34-redward-avenue-lightsview-sa-5085-2017224762,370000,is-sold,Sold by private treaty 28 Jan 2022,20220128,Lot 742/34 Redward Avenue,LIGHTSVIEW,SA,5085,-34.8658676,138.622971,,,,VacantLand,Vacant land,False,329,m2,False
2017333595,listing,/12-31-haines-road-lightsview-sa-5085-2017333595,380000,is-sold,Sold by private treaty 27 Jan 2022,20220127,12/31 Haines Road,LIGHTSVIEW,SA,5085,-34.8620567,138.625931,2,1,1,ApartmentUnitFlat,Apartment / Unit / Flat,False,0,m2,False
2017371163,listing,/4-gould-road-enfield-sa-5085-2017371163,620000,is-sold,Sold by private treaty 14 Jan 2022,20220114,4 Gould Road,ENFIELD,SA,5085,-34.8558273,138.602371,3,2,2,House,House,False,297,m2,False
2017381677,listing,/34-neates-road-lightsview-sa-5085-2017381677,412000,is-sold,Sold by private treaty 14 Jan 2022,20220114,34 Neates Road,LIGHTSVIEW,SA,5085,-34.85999,138.626282,2,1,2,Terrace,Terrace,False,0,m2,False
2017385737,listing,/26-peppercorn-way-lightsview-sa-5085-2017385737,660000,is-sold,Sold by private treaty 31 Jan 2022,20220131,26 Peppercorn Way,LIGHTSVIEW,SA,5085,-34.86375,138.636292,4,2,2,House,House,False,207,m2,False
2017392840,listing,/5-bradley-terrace-lightsview-sa-5085-2017392840,749900,is-sold,Sold by private treaty 27 Jan 2022,20220127,5 Bradley Terrace,LIGHTSVIEW,SA,5085,-34.86311,138.631927,4,2,2,Townhouse,Townhouse,False,204,m2,False
2017399309,listing,/34-high-avenue-clearview-sa-5085-2017399309,752000,is-sold,Sold at auction 25 Jan 2022,20220125,34 High Avenue,CLEARVIEW,SA,5085,-34.86189,138.612915,3,1,2,House,House,False,750,m2,False
2017400666,listing,/2-92-waterford-circuit-lightsview-sa-5085-2017400666,360000,is-sold,Sold by private treaty 12 Jan 2022,20220112,2/92 Waterford Circuit,LIGHTSVIEW,SA,5085,-34.8620872,138.630615,2,1,1,ApartmentUnitFlat,Apartment / Unit / Flat,False,0,m2,False
2017406317,listing,/1-gawler-street-lightsview-sa-5085-2017406317,1002600,is-sold,Sold by private treaty 11 Jan 2022,20220111,1 Gawler Street,LIGHTSVIEW,SA,5085,-34.8646965,138.630875,4,2,4,House,House,False,344,m2,False
2017411658,listing,/223-east-parkway-lightsview-sa-5085-2017411658,385000,is-sold,Sold by private treaty 18 Jan 2022,20220118,223 East Parkway,LIGHTSVIEW,SA,5085,-34.8630524,138.620987,2,2,1,House,House,False,105,m2,False
2017411907,listing,/32-blyth-street-clearview-sa-5085-2017411907,575000,is-sold,Sold at auction 14 Jan 2022,20220114,32 Blyth Street,CLEARVIEW,SA,5085,-34.86406,138.612015,3,1,2,House,House,False,738,m2,False
