id,listingType,url,price,tagClassName,tagText,date,street,suburb,state,postcode,lat,lng,beds,baths,parking,propertyType,propertyTypeFormatted,isRural,landSize,landUnit,isRetirement
2016583927,listing,/26-north-terrace-ardrossan-sa-5571-2016583927,415000,is-sold,Sold by private treaty 16 Dec 2022,20221216,26 North Terrace,ARDROSSAN,SA,5571,-34.4224663,137.918869,3,3,3,House,House,False,568,m2,False
2017974587,listing,/lot-31-10-bullock-street-ardrossan-sa-5571-2017974587,80000,is-sold,Sold by private treaty 11 Nov 2022,20221111,Lot 31/10 Bullock Street,ARDROSSAN,SA,5571,-34.4270554,137.9092,,,,VacantLand,Vacant land,False,642,m2,False
2018020218,listing,/27-diagonal-road-ardrossan-sa-5571-2018020218,305000,is-sold,Sold by private treaty 14 Nov 2022,20221114,27 Diagonal Road,ARDROSSAN,SA,5571,-34.41852,137.91832,3,3,3,House,House,False,1589,m2,False
2018025566,listing,/29-diagonal-road-ardrossan-sa-5571-2018025566,390000,is-sold,Sold by private treaty 21 Dec 2022,20221221,29 Diagonal Road,ARDROSSAN,SA,5571,-34.4187355,137.9184,3,3,3,House,House,False,1710,m2,False
2018040839,listing,/3-bullock-street-ardrossan-sa-5571-2018040839,531000,is-sold,Sold by private treaty 04 Nov 2022,20221104,3 Bullock Street,ARDROSSAN,SA,5571,-34.4275475,137.90947,4,4,4,House,House,False,812,m2,False
2018086552,listing,/15-douglas-court-tiddy-widdy-beach-sa-5571-2018086552,415000,is-sold,Sold by private treaty 18 Nov 2022,20221118,15 Douglas Court,TIDDY WIDDY BEACH,SA,5571,-34.4028168,137.935577,3,3,3,House,House,False,851,m2,False
2018143340,listing,/91-hosking-road-tiddy-widdy-beach-sa-5571-2018143340,275000,is-sold,Sold by private treaty 09 Jan 2023,20230109,91 Hosking Road,TIDDY WIDDY BEACH,SA,5571,-34.40394,137.9363,2,2,2,House,House,False,696,m2,False
2018143878,listing,/2-4-the-crescent-ardrossan-sa-5571-2018143878,,is-sold,Sold by private treaty 17 Feb 2023,20230217,2-4 The Crescent,ARDROSSAN,SA,5571,-34.41791,137.919861,5,5,5,House,House,False,1814,m2,False
2018176901,listing,/41-james-well-road-james-well-sa-5571-2018176901,,is-sold,Sold by private treaty 28 Nov 2022,20221128,41 James Well Road,JAMES WELL,SA,5571,-34.4811172,137.897385,3,3,3,House,House,False,570,m2,False
2018180915,listing,/2-second-street-ardrossan-sa-5571-2018180915,,is-sold,Sold at auction 09 Dec 2022,20221209,2 Second Street,ARDROSSAN,SA,5571,-34.4248,137.918457,3,3,3,House,House,False,588,m2,False
2018184719,listing,/3-allen-road-tiddy-widdy-beach-sa-5571-2018184719,235000,is-sold,Sold by private treaty 12 Dec 2022,20221212,3 Allen Road,TIDDY WIDDY BEACH,SA,5571,-34.3994637,137.938156,3,3,3,House,House,False,919,m2,False
2018197444,listing,/19-john-street-ardrossan-sa-5571-2018197444,325000,is-sold,Sold by private treaty 05 Dec 2022,20221205,19 John Street,ARDROSSAN,SA,5571,-34.41506,137.920532,3,3,3,House,House,False,884,m2,False
2018249211,listing,/lot-5-harvey-crescent-black-point-sa-5571-2018249211,1155000,is-sold,Sold at auction 10 Jan 2023,20230110,Lot 5 Harvey Crescent,BLACK POINT,SA,5571,-34.608242,137.8836,1,1,1,House,House,False,698,m2,False
2018271466,listing,/68-james-well-road-james-well-sa-5571-2018271466,,is-sold,Sold at auction 07 Feb 2023,20230207,68 James Well Road,JAMES WELL,SA,5571,-34.4893074,137.896683,2,2,2,House,House,False,480,m2,False
2018272508,listing,/33-bridge-road-ardrossan-sa-5571-2018272508,,is-sold,Sold by private treaty 10 Feb 2023,20230210,33 Bridge Road,ARDROSSAN,SA,5571,-34.41579,137.921341,2,2,2,House,House,False,861,m2,False
2018275412,listing,/19-outlook-road-black-point-sa-5571-2018275412,1011000,is-sold,Sold by private treaty 02 Feb 2023,20230202,19 Outlook Road,BLACK POINT,SA,5571,-34.616375,137.903458,5,5,5,House,House,False,863,m2,False
2018282832,listing,/1-barton-road-tiddy-widdy-beach-sa-5571-2018282832,336000,is-sold,Sold by private treaty 08 Feb 2023,20230208,1 Barton Road,TIDDY WIDDY BEACH,SA,5571,-34.40033,137.9375,3,3,3,House,House,False,703,m2,False
2018288553,listing,/site-11-highview-holiday-village-ardrossan-sa-5571-2018288553,,is-sold,Sold by private treaty 10 Feb 2023,20230210,Site 11 Highview Holiday Village,ARDROSSAN,SA,5571,-34.4133072,137.9181,2,2,2,House,House,False,0,m2,False
2018291006,listing,/17-main-coast-road-ardrossan-sa-5571-2018291006,,is-sold,Sold by private treaty 03 Feb 2023,20230203,17 Main Coast Road,ARDROSSAN,SA,5571,-34.4229546,137.910522,3,3,3,House,House,False,1132,m2,False
2018300338,listing,/21-grahn-road-james-well-sa-5571-2018300338,,is-sold,Sold by private treaty 10 Feb 2023,20230210,21 Grahn Road,JAMES WELL,SA,5571,-34.4907,137.895233,4,4,4,House,House,False,923,m2,False
2018310291,listing,/50-main-coast-road-ardrossan-sa-5571-2018310291,,is-sold,Sold by private treaty 03 Mar 2023,20230303,50 Main Coast Road,ARDROSSAN,SA,5571,-34.4168167,137.912277,3,3,3,House,House,False,808,m2,False
2018042628,listing,/4-maitland-road-ardrossan-sa-5571-2018042628,265000,is-sold,Sold by private treaty 25 Nov 2022,20221125,4 Maitland Road,ARDROSSAN,SA,5571,-34.4261322,137.909561,3,1,4,House,House,False,793,m2,False
2018077792,listing,/13-fourth-street-ardrossan-sa-5571-2018077792,350000,is-sold,Sold by private treaty 13 Dec 2022,20221213,13 Fourth Street,ARDROSSAN,SA,5571,-34.423912,137.91713,3,1,1,House,House,False,1185,m2,False
2018118781,listing,/56-main-coast-road-pine-point-sa-5571-2018118781,415000,is-sold,Sold by private treaty 08 Dec 2022,20221208,56 Main Coast Road,PINE POINT,SA,5571,-34.5753632,137.87764,3,2,,House,House,False,2023,m2,False
2016034812,listing,/9-henderson-court-ardrossan-sa-5571-2016034812,,is-sold,Sold by private treaty 19 Sep 2022,20220919,9 Henderson Court,ARDROSSAN,SA,5571,-34.4285049,137.913376,,,,VacantLand,Vacant land,False,694,m2,False
2017708655,listing,/67-james-well-road-james-well-sa-5571-2017708655,325000,is-sold,Sold by private treaty 16 Sep 2022,20220916,67 James Well Road,JAMES WELL,SA,5571,-34.4880142,137.896637,3,1,2,House,House,False,361,m2,False
2017711354,listing,/21-black-point-rd-black-point-sa-5571-2017711354,410000,is-sold,Sold by private treaty 26 Aug 2022,20220826,21 Black Point Rd,BLACK POINT,SA,5571,-34.5901527,137.873749,3,1,2,House,House,False,898,m2,False
2017716443,listing,/3a-highview-road-ardrossan-sa-5571-2017716443,180000,is-sold,Sold by private treaty 08 Aug 2022,20220808,3a Highview Road,ARDROSSAN,SA,5571,-34.4119644,137.916443,3,1,5,House,House,False,1600,m2,False
2017850050,listing,/7-cane-avenue-ardrossan-sa-5571-2017850050,380000,is-sold,Sold by private treaty 19 Aug 2022,20220819,7 Cane Avenue,ARDROSSAN,SA,5571,-34.4278069,137.909241,3,2,2,House,House,False,629,m2,False
2017864015,listing,/41-west-terrace-ardrossan-sa-5571-2017864015,375000,is-sold,Sold by private treaty 26 Aug 2022,20220826,41 West Terrace,ARDROSSAN,SA,5571,-34.4272842,137.913345,3,1,4,House,House,False,649,m2,False
2017900998,listing,/8-the-crescent-ardrossan-sa-5571-2017900998,333000,is-sold,Sold by private treaty 12 Aug 2022,20220812,8 The Crescent,ARDROSSAN,SA,5571,-34.41766,137.919327,3,2,4,House,House,False,858,m2,False
2017957119,listing,/lot-35-14-henderson-court-ardrossan-sa-5571-2017957119,,is-sold,Sold by private treaty 17 Oct 2022,20221017,Lot 35/14 Henderson Court,ARDROSSAN,SA,5571,-34.4285126,137.913391,,,,VacantLand,Vacant land,False,835,m2,False
2017979744,listing,/18-east-terrace-ardrossan-sa-5571-2017979744,602000,is-sold,Sold at auction 05 Sep 2022,20220905,18 East Terrace,ARDROSSAN,SA,5571,-34.42459,137.919327,3,2,2,House,House,False,788,m2,False
2017981674,listing,/38-tiddy-widdy-beach-road-tiddy-widdy-beach-sa-5571-2017981674,450000,is-sold,Sold prior to auction 30 Sep 2022,20220930,38 Tiddy Widdy Beach Road,TIDDY WIDDY BEACH,SA,5571,-34.4037666,137.937836,3,2,6,House,House,False,710,m2,False
2017990333,listing,/11-beach-road-pine-point-sa-5571-2017990333,580000,is-sold,Sold by private treaty 12 Sep 2022,20220912,11 Beach Road,PINE POINT,SA,5571,-34.56805,137.8825,4,2,2,House,House,False,628,m2,False
2018013506,listing,/10-sanders-street-ardrossan-sa-5571-2018013506,310000,is-sold,Sold by private treaty 28 Sep 2022,20220928,10 Sanders Street,ARDROSSAN,SA,5571,-34.4215126,137.912949,3,1,3,House,House,False,376,m2,False
2018045518,listing,/62-bridge-road-ardrossan-sa-5571-2018045518,310000,is-sold,Sold by private treaty 10 Oct 2022,20221010,62 Bridge Road,ARDROSSAN,SA,5571,-34.41446,137.922638,3,1,3,House,House,False,950,m2,False
2018071150,listing,/21-douglas-court-tiddy-widdy-beach-sa-5571-2018071150,520000,is-sold,Sold by private treaty 30 Sep 2022,20220930,21 Douglas Court,TIDDY WIDDY BEACH,SA,5571,-34.4033241,137.93602,4,2,7,House,House,False,1184,m2,False
2018071880,listing,/29-tiddy-widdy-beach-road-tiddy-widdy-beach-sa-5571-2018071880,,is-sold,Sold by private treaty 18 Oct 2022,20221018,29 Tiddy Widdy Beach Road,TIDDY WIDDY BEACH,SA,5571,-34.40246,137.93895,6,3,3,House,House,False,708,m2,False
2018099185,listing,/154-harvey-crescent-black-point-sa-5571-2018099185,1710000,is-sold,Sold by private treaty 25 Sep 2022,20220925,154 Harvey Crescent,BLACK POINT,SA,5571,-34.6073875,137.8824,4,2,1,House,House,False,628,m2,False
2013764011,listing,/3-lot-41-cane-avenue-ardrossan-sa-5571-2013764011,,is-sold,Sold by private treaty 28 Apr 2022,20220428,3 (Lot 41) Cane Avenue,ARDROSSAN,SA,5571,-34.4276962,137.9089,,,,VacantLand,Vacant land,False,656,m2,False
2014639183,listing,/53-57-arthurton-road-ardrossan-sa-5571-2014639183,235000,is-sold,Sold by private treaty 03 Aug 2022,20220803,53-57 Arthurton Road,ARDROSSAN,SA,5571,-34.4105835,137.90715,,,,VacantLand,Vacant land,True,2.8,ha,False
2017070996,listing,/4-winen-court-ardrossan-sa-5571-2017070996,120000,is-sold,Sold by private treaty 26 Apr 2022,20220426,4 Winen Court,ARDROSSAN,SA,5571,-34.4212227,137.912186,,,,VacantLand,Vacant land,False,700,m2,False
2017224289,listing,/lot-20-bowman-road-ardrossan-sa-5571-2017224289,126500,is-sold,Sold by private treaty 13 Apr 2022,20220413,Lot 20 Bowman Road,ARDROSSAN,SA,5571,-34.4313965,137.912766,,,,VacantLand,Vacant land,False,2315,m2,False
2017536599,listing,/23-hosking-road-tiddy-widdy-beach-sa-5571-2017536599,356000,is-sold,Sold by private treaty 11 Apr 2022,20220411,23 Hosking Road,TIDDY WIDDY BEACH,SA,5571,-34.39939,137.940353,3,1,1,House,House,False,696,m2,False
2017580327,listing,/8-south-terrace-ardrossan-sa-5571-2017580327,465000,is-sold,Sold by private treaty 14 Apr 2022,20220414,8 South Terrace,ARDROSSAN,SA,5571,-34.42803,137.913574,4,1,7,House,House,False,2058,m2,False
2017628398,listing,/35-hosking-road-tiddy-widdy-beach-sa-5571-2017628398,480000,is-sold,Sold by private treaty 29 Apr 2022,20220429,35 Hosking Road,TIDDY WIDDY BEACH,SA,5571,-34.4002647,137.939545,4,3,1,House,House,False,696,m2,False
2017636779,listing,/14-barton-road-tiddy-widdy-beach-sa-5571-2017636779,320000,is-sold,Sold by private treaty 27 Apr 2022,20220427,14 Barton Road,TIDDY WIDDY BEACH,SA,5571,-34.4007721,137.938461,2,1,4,House,House,False,652,m2,False
2017646421,listing,/3-gloria-street-ardrossan-sa-5571-2017646421,320000,is-sold,Sold by private treaty 29 Apr 2022,20220429,3 Gloria Street,ARDROSSAN,SA,5571,-34.4135857,137.922241,3,2,4,House,House,False,626,m2,False
2017697200,listing,/34-tiddy-widdy-beach-road-tiddy-widdy-beach-sa-5571-2017697200,491000,is-sold,Sold at auction 26 Apr 2022,20220426,34 Tiddy Widdy Beach Road,TIDDY WIDDY BEACH,SA,5571,-34.40323,137.938263,2,1,4,House,House,False,711,m2,False
2017717339,listing,/2a-high-street-ardrossan-sa-5571-2017717339,411000,is-sold,Sold by private treaty 20 May 2022,20220520,2A High Street,ARDROSSAN,SA,5571,-34.4164963,137.917236,3,2,3,House,House,False,546,m2,False
2017722727,listing,/10-third-street-ardrossan-sa-5571-2017722727,320000,is-sold,Sold by private treaty 10 Jun 2022,20220610,10 Third Street,ARDROSSAN,SA,5571,-34.42653,137.915619,2,1,2,House,House,False,1010,m2,False
2017722932,listing,/4-allen-road-tiddy-widdy-beach-sa-5571-2017722932,320000,is-sold,Sold by private treaty 12 May 2022,20220512,4 Allen Road,TIDDY WIDDY BEACH,SA,5571,-34.3999825,137.939041,3,1,3,House,House,False,796,m2,False
2017752239,listing,/12-barton-road-tiddy-widdy-beach-sa-5571-2017752239,473500,is-sold,Sold by private treaty 29 Apr 2022,20220429,12 Barton Road,TIDDY WIDDY BEACH,SA,5571,-34.4006958,137.938614,3,1,2,House,House,False,943,m2,False
2017803508,listing,/71-hosking-road-tiddy-widdy-beach-sa-5571-2017803508,277000,is-sold,Sold by private treaty 31 May 2022,20220531,71 Hosking Road,TIDDY WIDDY BEACH,SA,5571,-34.4025459,137.9375,2,1,,House,House,False,707,m2,False
2017824626,listing,/133-piggery-corner-road-cunningham-sa-5571-2017824626,,is-sold,Sold by private treaty 29 Jun 2022,20220629,133 Piggery Corner Road,CUNNINGHAM,SA,5571,-34.46703,137.782547,3,1,16,House,House,True,2.59,ha,False
2017830599,listing,/79-hosking-road-tiddy-widdy-beach-sa-5571-2017830599,320000,is-sold,Sold by private treaty 29 Jun 2022,20220629,79 Hosking Road,TIDDY WIDDY BEACH,SA,5571,-34.4031944,137.937,4,2,4,House,House,False,696,m2,False
2017845633,listing,/8-bullock-street-ardrossan-sa-5571-2017845633,432000,is-sold,Sold by private treaty 18 Jul 2022,20220718,8 Bullock Street,ARDROSSAN,SA,5571,-34.42712,137.909454,4,2,4,House,House,False,611,m2,False
2017867868,listing,/17-hosking-road-tiddy-widdy-beach-sa-5571-2017867868,310000,is-sold,Sold by private treaty 30 Jun 2022,20220630,17 Hosking Road,TIDDY WIDDY BEACH,SA,5571,-34.39902,137.940659,2,2,,House,House,False,959,m2,False
2017898427,listing,/34-high-street-ardrossan-sa-5571-2017898427,255000,is-sold,Sold by private treaty 08 Aug 2022,20220808,34 High Street,ARDROSSAN,SA,5571,-34.41855,137.922882,2,1,4,House,House,False,950,m2,False
2014463916,listing,/39-68-bridge-road-ardrossan-sa-5571-2014463916,98000,is-sold,Sold by private treaty 01 Mar 2022,20220301,39/68 Bridge Road,ARDROSSAN,SA,5571,-34.41445,137.9226,,,,VacantLand,Vacant land,False,0,m2,False
2017317088,listing,/2-earle-street-pine-point-sa-5571-2017317088,260000,is-sold,Sold by private treaty 15 Mar 2022,20220315,2 Earle Street,PINE POINT,SA,5571,-34.5660629,137.882217,4,1,,House,House,False,608,m2,False
2017392720,listing,/8-henderson-court-ardrossan-sa-5571-2017392720,130000,is-sold,Sold by private treaty 08 Apr 2022,20220408,8 Henderson Court,ARDROSSAN,SA,5571,-34.4285126,137.913391,,,,VacantLand,Vacant land,False,761,m2,False
2017408273,listing,/7-brown-road-james-well-sa-5571-2017408273,560000,is-sold,Sold by private treaty 11 Mar 2022,20220311,7 Brown Road,JAMES WELL,SA,5571,-34.48743,137.895691,4,2,4,House,House,False,900,m2,False
2017468930,listing,/71-james-well-road-james-well-sa-5571-2017468930,335000,is-sold,Sold by private treaty 21 Mar 2022,20220321,71 James Well Road,JAMES WELL,SA,5571,-34.48829,137.89653,2,1,2,House,House,False,354,m2,False
2017468936,listing,/19-james-well-road-james-well-sa-5571-2017468936,335000,is-sold,Sold by private treaty 08 Apr 2022,20220408,19 James Well Road,JAMES WELL,SA,5571,-34.47962,137.89798,3,1,3,House,House,False,683,m2,False
2017469201,listing,/36-james-well-road-james-well-sa-5571-2017469201,510000,is-sold,Sold by private treaty 08 Mar 2022,20220308,36 James Well Road,JAMES WELL,SA,5571,-34.4813728,137.897842,3,1,4,House,House,False,574,m2,False
2017474082,listing,/51-bridge-road-ardrossan-sa-5571-2017474082,132000,is-sold,Sold by private treaty 16 Feb 2022,20220216,51 Bridge Road,ARDROSSAN,SA,5571,-34.4140244,137.92215,,,,VacantLand,Vacant land,False,970,m2,False
2017485547,listing,/16-blue-crab-court-ardrossan-sa-5571-2017485547,370000,is-sold,Sold by private treaty 28 Feb 2022,20220228,16 Blue Crab Court,ARDROSSAN,SA,5571,-34.4269524,137.910736,3,2,4,House,House,False,657,m2,False
2017496644,listing,/57-high-street-ardrossan-sa-5571-2017496644,255000,is-sold,Sold by private treaty 25 Mar 2022,20220325,57 High Street,ARDROSSAN,SA,5571,-34.4179726,137.9226,3,1,5,House,House,False,840,m2,False
2017528692,listing,/26-outlook-road-black-point-sa-5571-2017528692,249000,is-sold,Sold by private treaty 25 Feb 2022,20220225,26 Outlook Road,BLACK POINT,SA,5571,-34.6152229,137.902649,,,,VacantLand,Vacant land,False,1117,m2,False
2017535101,listing,/8-tiddy-widdy-road-ardrossan-sa-5571-2017535101,335000,is-sold,Sold by private treaty 04 Apr 2022,20220404,8 Tiddy Widdy Road,ARDROSSAN,SA,5571,-34.41966,137.922379,3,1,9,House,House,False,1361,m2,False
2017555866,listing,/32-allen-road-tiddy-widdy-beach-sa-5571-2017555866,270000,is-sold,Sold by private treaty 03 Mar 2022,20220303,32 Allen Road,TIDDY WIDDY BEACH,SA,5571,-34.40194,137.936646,3,1,4,House,House,False,720,m2,False
2017559840,listing,/19-15a-highview-road-ardrossan-sa-5571-2017559840,,is-sold,Sold by private treaty 28 Mar 2022,20220328,19/15A HIGHVIEW ROAD,ARDROSSAN,SA,5571,-34.4134178,137.918808,3,1,2,Villa,Villa,False,0,m2,False
2017574810,listing,/10a-john-street-ardrossan-sa-5571-2017574810,390000,is-sold,Sold by private treaty 31 Mar 2022,20220331,10A John Street,ARDROSSAN,SA,5571,-34.41592,137.920639,3,1,5,House,House,False,860,m2,False
2017595321,listing,/16-barton-road-tiddy-widdy-beach-sa-5571-2017595321,290000,is-sold,Sold by private treaty 10 Mar 2022,20220310,16 Barton Road,TIDDY WIDDY BEACH,SA,5571,-34.4009056,137.938416,3,1,3,House,House,False,703,m2,False
2017611740,listing,/720-37-outlook-road-black-point-sa-5571-2017611740,301000,is-sold,Sold by private treaty 24 Feb 2022,20220224,720/37 Outlook Road,BLACK POINT,SA,5571,-34.616375,137.903458,,,,VacantLand,Vacant land,False,754,m2,False
2017636008,listing,/33-highview-road-ardrossan-sa-5571-2017636008,441000,is-sold,Sold by private treaty 31 Mar 2022,20220331,33 Highview Road,ARDROSSAN,SA,5571,-34.4157066,137.916473,3,1,5,House,House,False,1672,m2,False
2017702767,listing,/19-rose-court-highview-holiday-village-ardrossan-sa-5571-2017702767,,is-sold,Sold by private treaty 18 Mar 2022,20220318,19 Rose Court Highview Holiday Village,ARDROSSAN,SA,5571,-34.4125938,137.917252,3,1,3,House,House,False,0,m2,False
2017710916,listing,/21-cane-ave-ardrossan-sa-5571-2017710916,415000,is-sold,Sold by private treaty 04 Apr 2022,20220404,21 Cane Ave,ARDROSSAN,SA,5571,-34.42908,137.913025,3,1,3,House,House,False,0,m2,False
2015119883,listing,/3-henderson-court-ardrossan-sa-5571-2015119883,108000,is-sold,Sold by private treaty 09 Feb 2022,20220209,3 Henderson Court,ARDROSSAN,SA,5571,-34.4285126,137.913391,,,,VacantLand,Vacant land,False,694,m2,False
2016040831,listing,/2-4-main-coast-road-ardrossan-sa-5571-2016040831,459000,is-sold,Sold by private treaty 28 Jan 2022,20220128,2-4 Main Coast Road,ARDROSSAN,SA,5571,-34.4102669,137.915329,3,3,20,House,House,False,4040,m2,False
2017076814,listing,/35-chapman-road-rogues-point-sa-5571-2017076814,403500,is-sold,Sold by private treaty 05 Jan 2022,20220105,35 Chapman Road,ROGUES POINT,SA,5571,-34.4971,137.893417,3,2,,House,House,False,900,m2,False
2017080964,listing,/8-petersen-road-petersville-sa-5571-2017080964,340000,is-sold,Sold by private treaty 20 Dec 2021,20211220,8 Petersen Road,PETERSVILLE,SA,5571,-34.37005,137.887726,4,1,5,House,House,False,9914,m2,False
2017294400,listing,/24-hosking-road-tiddy-widdy-beach-sa-5571-2017294400,475000,is-sold,Sold by private treaty 22 Dec 2021,20211222,24 Hosking Road,TIDDY WIDDY BEACH,SA,5571,-34.3996468,137.940811,3,2,1,House,House,False,700,m2,False
2017347637,listing,/28-second-street-ardrossan-sa-5571-2017347637,255000,is-sold,Sold by private treaty 14 Feb 2022,20220214,28 Second Street,ARDROSSAN,SA,5571,-34.42236,137.9112,3,1,5,House,House,False,1348,m2,False
2017362700,listing,/37-bridge-road-ardrossan-sa-5571-2017362700,253000,is-sold,Sold by private treaty 04 Feb 2022,20220204,37 Bridge Road,ARDROSSAN,SA,5571,-34.41537,137.921524,3,1,3,House,House,False,950,m2,False
2017367176,listing,/lot-405-black-point-drive-black-point-sa-5571-2017367176,,is-sold,Sold by private treaty 10 Jan 2022,20220110,Lot 405 Black Point Drive,BLACK POINT,SA,5571,-34.6126022,137.8933,,,,VacantLand,Vacant land,False,1099,m2,False
2017386907,listing,/8-south-terrace-ardrossan-sa-5571-2017386907,,is-sold,Sold by private treaty 24 Dec 2021,20211224,8 SOUTH TERRACE,ARDROSSAN,SA,5571,-34.4280243,137.913574,4,1,7,House,House,False,2058,m2,False
2017391261,listing,/5-lot-24-sailors-street-ardrossan-sa-5571-2017391261,75000,is-sold,Sold by private treaty 20 Dec 2021,20211220,5 (Lot 24) Sailors Street,ARDROSSAN,SA,5571,-34.4269333,137.90976,,,,VacantLand,Vacant land,False,616,m2,False
2017404135,listing,/20-north-terrace-ardrossan-sa-5571-2017404135,325000,is-sold,Sold by private treaty 20 Jan 2022,20220120,20 North Terrace,ARDROSSAN,SA,5571,-34.422226,137.918213,3,1,8,House,House,False,1335,m2,False
2017425796,listing,/15-high-street-ardrossan-sa-5571-2017425796,265000,is-sold,Sold by private treaty 04 Feb 2022,20220204,15 High Street,ARDROSSAN,SA,5571,-34.41629,137.918091,3,1,3,House,House,False,1051,m2,False
2017444975,listing,/5-barton-road-tiddy-widdy-beach-sa-5571-2017444975,285000,is-sold,Sold by private treaty 22 Dec 2021,20211222,5 Barton Road,TIDDY WIDDY BEACH,SA,5571,-34.4004936,137.937881,3,1,4,House,House,False,707,m2,False
2017459795,listing,/9-tiddy-widdy-beach-road-tiddy-widdy-beach-sa-5571-2017459795,570000,is-sold,Sold at auction 15 Feb 2022,20220215,9 TIDDY WIDDY BEACH ROAD,TIDDY WIDDY BEACH,SA,5571,-34.39969,137.941315,4,2,2,House,House,False,696,m2,False
2017474219,listing,/7-diagonal-road-ardrossan-sa-5571-2017474219,189000,is-sold,Sold by private treaty 23 Dec 2021,20211223,7 Diagonal Road,ARDROSSAN,SA,5571,-34.416996,137.917236,3,1,3,House,House,False,985,m2,False
2017492351,listing,/48-east-terrace-ardrossan-sa-5571-2017492351,510000,is-sold,Sold by private treaty 28 Jan 2022,20220128,48 East Terrace,ARDROSSAN,SA,5571,-34.42889,137.915039,3,2,5,House,House,False,961,m2,False
2017499478,listing,/lot-507-black-point-drive-black-point-sa-5571-2017499478,,is-sold,Sold by private treaty 24 Jan 2022,20220124,Lot 507 Black Point Drive,BLACK POINT,SA,5571,-34.6135063,137.8966,4,2,7,House,House,False,1004,m2,False
2017513162,listing,/36-fourth-street-ardrossan-sa-5571-2017513162,290000,is-sold,Sold by private treaty 06 Jan 2022,20220106,36 Fourth Street,ARDROSSAN,SA,5571,-34.42694,137.914734,3,1,5,House,House,False,1010,m2,False
2017525482,listing,/117-black-point-drive-black-point-sa-5571-2017525482,1700000,is-sold,Sold at auction 06 Feb 2022,20220206,117 Black Point Drive,BLACK POINT,SA,5571,-34.6141,137.9004,,,,VacantLand,Vacant land,False,849,m2,False
2017581253,listing,/9-tiddy-widdy-beach-road-tiddy-widdy-beach-sa-5571-2017581253,570000,is-sold,Sold prior to auction 15 Feb 2022,20220215,9 Tiddy Widdy Beach Road,TIDDY WIDDY BEACH,SA,5571,-34.39969,137.941315,4,2,2,House,House,False,696,m2,False
2014654070,listing,/870-2-east-terrace-ardrossan-sa-5571-2014654070,241000,is-sold,Sold by private treaty 09 Dec 2021,20211209,870/2 East Terrace,ARDROSSAN,SA,5571,-34.4228134,137.919861,,,,VacantLand,Vacant land,False,850,m2,False
2016142963,listing,/4-lot-51-cane-avenue-ardrossan-sa-5571-2016142963,,is-sold,Sold by private treaty 25 Oct 2021,20211025,4 (Lot 51) Cane Avenue,ARDROSSAN,SA,5571,-34.4283066,137.909241,,,,VacantLand,Vacant land,False,831,m2,False
2016905338,listing,/3-highview-holiday-village-ardrossan-sa-5571-2016905338,122000,is-sold,Sold by private treaty 01 Dec 2021,20211201,3 Highview Holiday Village,ARDROSSAN,SA,5571,-34.4133072,137.9181,2,1,2,House,House,False,0,m2,False
2017198289,listing,/1357-ardrossan-road-ardrossan-sa-5571-2017198289,236000,is-sold,Sold by private treaty 10 Nov 2021,20211110,1357 Ardrossan Road,ARDROSSAN,SA,5571,-34.36463,137.8338,3,2,7,House,House,False,4040,m2,False
2017207001,listing,/76-james-well-road-james-well-sa-5571-2017207001,505000,is-sold,Sold at auction 08 Nov 2021,20211108,76 James Well Road,JAMES WELL,SA,5571,-34.48999,137.896713,3,2,3,House,House,False,445,m2,False
2017214579,listing,/16-tiddy-widdy-beach-road-tiddy-widdy-beach-sa-5571-2017214579,534000,is-sold,Sold at auction 03 Dec 2021,20211203,16 Tiddy Widdy Beach Road,TIDDY WIDDY BEACH,SA,5571,-34.4007339,137.940323,3,2,5,House,House,False,702,m2,False
2017236586,listing,/2-cane-avenue-ardrossan-sa-5571-2017236586,235000,is-sold,Sold by private treaty 19 Oct 2021,20211019,2 Cane Avenue,ARDROSSAN,SA,5571,-34.4280739,137.908646,3,1,4,House,House,False,979,m2,False
2017262075,listing,/53-high-street-ardrossan-sa-5571-2017262075,355000,is-sold,Sold by private treaty 19 Nov 2021,20211119,53 High Street,ARDROSSAN,SA,5571,-34.4178123,137.92215,3,1,4,House,House,False,840,m2,False
2017272769,listing,/20-outlook-road-black-point-sa-5571-2017272769,810000,is-sold,Sold by private treaty 29 Oct 2021,20211029,20 Outlook Road,BLACK POINT,SA,5571,-34.616375,137.903458,4,2,2,House,House,False,1174,m2,False
2017277912,listing,/65-james-well-road-james-well-sa-5571-2017277912,469000,is-sold,Sold by private treaty 05 Nov 2021,20211105,65 James Well Road,JAMES WELL,SA,5571,-34.4878159,137.896713,3,2,5,House,House,False,393,m2,False
2017279850,listing,/2-6-8-rowe-terrace-ardrossan-sa-5571-2017279850,310000,is-sold,Sold by private treaty 22 Oct 2021,20211022,2/6-8 Rowe Terrace,ARDROSSAN,SA,5571,-34.4305229,137.914536,3,1,1,ApartmentUnitFlat,Apartment / Unit / Flat,False,0,m2,False
2017320724,listing,/49-tiddy-widdy-beach-road-tiddy-widdy-beach-sa-5571-2017320724,555000,is-sold,Sold by private treaty 25 Nov 2021,20211125,49 Tiddy Widdy Beach Road,TIDDY WIDDY BEACH,SA,5571,-34.4050827,137.936478,4,2,5,House,House,False,0,m2,False
2017323126,listing,/26-allen-road-tiddy-widdy-beach-sa-5571-2017323126,95000,is-sold,Sold by private treaty 17 Nov 2021,20211117,26 Allen Road,TIDDY WIDDY BEACH,SA,5571,-34.40139,137.936768,,,,VacantLand,Vacant land,False,876,m2,False
2017339026,listing,/26-tiddy-widdy-beach-road-tiddy-widdy-beach-sa-5571-2017339026,362000,is-sold,Sold by private treaty 20 Dec 2021,20211220,26 Tiddy Widdy Beach Road,TIDDY WIDDY BEACH,SA,5571,-34.40203,137.9393,2,1,2,House,House,False,705,m2,False
2017398678,listing,/61-james-well-road-james-well-sa-5571-2017398678,330000,is-sold,Sold by private treaty 09 Nov 2021,20211109,61 James well Road,JAMES WELL,SA,5571,-34.4833069,137.897781,3,1,,House,House,False,707,m2,False
2017399242,listing,/34-the-esplanade-pine-point-sa-5571-2017399242,,is-sold,Sold at auction 05 Dec 2021,20211205,34 The Esplanade,PINE POINT,SA,5571,-34.56964,137.882172,3,2,,House,House,False,650,m2,False
2017401870,listing,/lot-118-31-brown-road-james-well-sa-5571-2017401870,130000,is-sold,Sold by private treaty 29 Nov 2021,20211129,Lot 118/31 Brown Road,JAMES WELL,SA,5571,-34.48533,137.896515,,,,VacantLand,Vacant land,False,900,m2,False
2017422442,listing,/lot-407-black-point-drive-black-point-sa-5571-2017422442,,is-sold,Sold by private treaty 14 Dec 2021,20211214,Lot 407 Black Point Drive,BLACK POINT,SA,5571,-34.6126022,137.8933,,,,VacantLand,Vacant land,False,1160,m2,False
2017478561,listing,/716-outlook-road-black-point-sa-5571-2017478561,,is-sold,Sold by private treaty 13 Dec 2021,20211213,716 Outlook Road,BLACK POINT,SA,5571,-34.616375,137.903458,,,,VacantLand,Vacant land,False,733,m2,False
2017661818,listing,/715-27-outlook-road-black-point-sa-5571-2017661818,261000,is-sold,Sold by private treaty 03 Dec 2021,20211203,715/27 Outlook Road,BLACK POINT,SA,5571,-34.616375,137.903458,,,,VacantLand,Vacant land,False,793,m2,False
2013224346,listing,/12-rowe-terrace-ardrossan-sa-5571-2013224346,290000,is-sold,Sold by private treaty 17 Sep 2021,20210917,12 Rowe Terrace,ARDROSSAN,SA,5571,-34.4312668,137.914566,,,,VacantLand,Vacant land,False,1320,m2,False
2014485207,listing,/707-outlook-road-black-point-sa-5571-2014485207,,is-sold,Sold by private treaty 13 Aug 2021,20210813,707 Outlook Road,BLACK POINT,SA,5571,-34.616375,137.903458,,,,VacantLand,Vacant land,False,760,m2,False
2015954713,listing,/736-outlook-road-black-point-sa-5571-2015954713,545000,is-sold,Sold by private treaty 21 Aug 2021,20210821,736 Outlook Road,BLACK POINT,SA,5571,-34.616375,137.903458,4,2,4,House,House,False,784,m2,False
2016654846,listing,/3-high-street-ardrossan-sa-5571-2016654846,325000,is-sold,Sold by private treaty 27 Aug 2021,20210827,3 High Street,ARDROSSAN,SA,5571,-34.41597,137.917,4,1,3,House,House,False,850,m2,False
2016681822,listing,/15-hosking-road-tiddy-widdy-beach-sa-5571-2016681822,449000,is-sold,Sold by private treaty 30 Sep 2021,20210930,15 Hosking Road,TIDDY WIDDY BEACH,SA,5571,-34.3989029,137.9409,5,3,6,House,House,False,960,m2,False
2016875563,listing,/58-hosking-road-tiddy-widdy-beach-sa-5571-2016875563,163000,is-sold,Sold by private treaty 29 Sep 2021,20210929,58 Hosking Road,TIDDY WIDDY BEACH,SA,5571,-34.4019241,137.938828,,,,VacantLand,Vacant land,False,700,m2,False
2016929602,listing,/17-tiddy-widdy-beach-road-tiddy-widdy-beach-sa-5571-2016929602,295000,is-sold,Sold by private treaty 08 Oct 2021,20211008,17 TIDDY WIDDY BEACH ROAD,TIDDY WIDDY BEACH,SA,5571,-34.4008942,137.940277,3,1,2,House,House,False,700,m2,False
2016998355,listing,/6-second-street-pine-point-sa-5571-2016998355,265000,is-sold,Sold by private treaty 23 Jul 2021,20210723,6 Second Street,PINE POINT,SA,5571,-34.56828,137.882172,2,1,5,House,House,False,1163,m2,False
2017011599,listing,/38-hosking-road-tiddy-widdy-beach-sa-5571-2017011599,350000,is-sold,Sold by private treaty 27 Aug 2021,20210827,38 Hosking Road,TIDDY WIDDY BEACH,SA,5571,-34.4006729,137.9399,3,1,4,House,House,False,700,m2,False
2017011943,listing,/5-angus-road-tiddy-widdy-beach-sa-5571-2017011943,362000,is-sold,Sold by private treaty 27 Jul 2021,20210727,5 Angus Road,TIDDY WIDDY BEACH,SA,5571,-34.39734,137.942444,3,2,5,House,House,False,970,m2,False
2017016446,listing,/51-bridge-road-ardrossan-sa-5571-2017016446,125000,is-sold,Sold by private treaty 09 Jul 2021,20210709,51 Bridge Road,ARDROSSAN,SA,5571,-34.4140244,137.92215,,,,VacantLand,Vacant land,False,970,m2,False
2017073619,listing,/45-47-high-street-ardrossan-sa-5571-2017073619,510000,is-sold,Sold by private treaty 23 Aug 2021,20210823,45 - 47 HIGH STREET,ARDROSSAN,SA,5571,-34.4174461,137.921448,4,1,8,House,House,False,2133,m2,False
2017083905,listing,/55-high-street-ardrossan-sa-5571-2017083905,335000,is-sold,Sold by private treaty 27 Aug 2021,20210827,55 High Street,ARDROSSAN,SA,5571,-34.4178925,137.922348,3,1,5,House,House,False,840,m2,False
2017115421,listing,/40-70-bridge-road-ardrossan-sa-5571-2017115421,80000,is-sold,Sold by private treaty 06 Jul 2021,20210706,40/70 Bridge Road,ARDROSSAN,SA,5571,-34.41445,137.9226,,,,VacantLand,Vacant land,False,630,m2,False
2017128886,listing,/9-gloria-street-ardrossan-sa-5571-2017128886,332500,is-sold,Sold by private treaty 01 Oct 2021,20211001,9 Gloria Street,ARDROSSAN,SA,5571,-34.4132957,137.921692,3,1,4,House,House,False,626,m2,False
2017169507,listing,/27-john-street-ardrossan-sa-5571-2017169507,292500,is-sold,Sold at auction 29 Sep 2021,20210929,27 John Street,ARDROSSAN,SA,5571,-34.414402,137.920837,3,2,5,House,House,False,884,m2,False
2017178712,listing,/15a-fourth-street-ardrossan-sa-5571-2017178712,418000,is-sold,Sold by private treaty 17 Sep 2021,20210917,15A FOURTH STREET,ARDROSSAN,SA,5571,-34.4242134,137.916672,3,2,6,House,House,False,1117,m2,False
2017214207,listing,/1-5-tiddy-widdy-road-ardrossan-sa-5571-2017214207,285000,is-sold,Sold by private treaty 15 Oct 2021,20211015,1/5 Tiddy Widdy Road,ARDROSSAN,SA,5571,-34.4196243,137.921524,2,1,2,House,House,False,376,m2,False
2017309032,listing,/1-black-point-drive-black-point-sa-5571-2017309032,,is-sold,Sold by private treaty 19 Oct 2021,20211019,1 Black Point Drive,BLACK POINT,SA,5571,-34.6087265,137.883789,,,,VacantLand,Vacant land,False,2108,m2,False
2017331593,listing,/50-east-terrace-ardrossan-sa-5571-2017331593,379000,is-sold,Sold by private treaty 15 Oct 2021,20211015,50 East Terrace,ARDROSSAN,SA,5571,-34.4290047,137.914886,3,1,3,House,House,False,960,m2,False
2014463919,listing,/41-72-bridge-road-ardrossan-sa-5571-2014463919,93000,is-sold,Sold by private treaty 13 May 2021,20210513,41/72 Bridge Road,ARDROSSAN,SA,5571,-34.4150238,137.921722,,,,VacantLand,Vacant land,False,0,m2,False
2016202569,listing,/48-bridge-road-ardrossan-sa-5571-2016202569,110000,is-sold,Sold by private treaty 28 May 2021,20210528,48 Bridge Road,ARDROSSAN,SA,5571,-34.415802,137.921967,,,,VacantLand,Vacant land,False,833,m2,False
2016421189,listing,/lot-704-black-point-drive-black-point-sa-5571-2016421189,,is-sold,Sold by private treaty 10 May 2021,20210510,Lot 704 Black Point Drive,BLACK POINT,SA,5571,-34.61316,137.89296,3,1,4,House,House,False,705,m2,False
2016555410,listing,/27-cane-avenue-ardrossan-sa-5571-2016555410,395000,is-sold,Sold by private treaty 14 May 2021,20210514,27 Cane Avenue,ARDROSSAN,SA,5571,-34.42925,137.913589,3,1,7,House,House,False,681,m2,False
2016585483,listing,/17-diagonal-road-ardrossan-sa-5571-2016585483,168000,is-sold,Sold by private treaty 29 Jun 2021,20210629,17 Diagonal Road,ARDROSSAN,SA,5571,-34.41768,137.918015,,,,VacantLand,Vacant land,False,1604,m2,False
2016678164,listing,/70-hosking-road-tiddy-widdy-beach-sa-5571-2016678164,315000,is-sold,Sold by private treaty 31 May 2021,20210531,70 Hosking Road,TIDDY WIDDY BEACH,SA,5571,-34.402832,137.937912,3,2,4,House,House,False,700,m2,False
2016750597,listing,/737-outlook-road-black-point-sa-5571-2016750597,159000,is-sold,Sold by private treaty 01 Jul 2021,20210701,737 Outlook Road,BLACK POINT,SA,5571,-34.616375,137.903458,,,,VacantLand,Vacant land,False,798,m2,False
2016756462,listing,/25-grahn-road-james-well-sa-5571-2016756462,105000,is-sold,Sold by private treaty 04 May 2021,20210504,25 Grahn Road,JAMES WELL,SA,5571,-34.49033,137.895233,,,,VacantLand,Vacant land,False,923,m2,False
2016785807,listing,/site-11-highview-holiday-village-ardrossan-sa-5571-2016785807,120000,is-sold,Sold by private treaty 19 May 2021,20210519,Site 11 Highview Holiday Village,ARDROSSAN,SA,5571,-34.4133072,137.9181,2,1,3,House,House,False,0,m2,False
2016801570,listing,/15-barton-road-tiddy-widdy-beach-sa-5571-2016801570,250000,is-sold,Sold by private treaty 21 May 2021,20210521,15 Barton Road,TIDDY WIDDY BEACH,SA,5571,-34.401207,137.937454,2,1,4,House,House,False,738,m2,False
2016817093,listing,/31-tiddy-widdy-beach-road-tiddy-widdy-beach-sa-5571-2016817093,309500,is-sold,Sold by private treaty 22 Apr 2021,20210422,31 Tiddy Widdy Beach Road,TIDDY WIDDY BEACH,SA,5571,-34.40269,137.938736,3,2,3,House,House,False,707,m2,False
2016838385,listing,/29-fifth-street-ardrossan-sa-5571-2016838385,412500,is-sold,Sold at auction 17 May 2021,20210517,29 FIFTH STREET,ARDROSSAN,SA,5571,-34.4252625,137.917923,3,2,5,House,House,False,1278,m2,False
2016847256,listing,/21-main-coast-road-ardrossan-sa-5571-2016847256,342500,is-sold,Sold by private treaty 29 Jun 2021,20210629,21 MAIN COAST ROAD,ARDROSSAN,SA,5571,-34.423336,137.9104,4,1,4,House,House,False,1409,m2,False
2016856089,listing,/1-tiddy-widdy-beach-road-tiddy-widdy-beach-sa-5571-2016856089,315000,is-sold,Sold by private treaty 18 May 2021,20210518,1 Tiddy Widdy Beach Road,TIDDY WIDDY BEACH,SA,5571,-34.397934,137.942917,2,1,4,House,House,False,905,m2,False
2016875561,listing,/28-barton-road-tiddy-widdy-beach-sa-5571-2016875561,151375,is-sold,Sold by private treaty 21 May 2021,20210521,28 Barton Road,TIDDY WIDDY BEACH,SA,5571,-34.4016647,137.937683,3,1,2,House,House,False,701,m2,False
2016894671,listing,/22-esplanade-pine-point-sa-5571-2016894671,553000,is-sold,Sold at auction 20 May 2021,20210520,22 ESPLANADE,PINE POINT,SA,5571,-34.57079,137.881866,3,3,7,House,House,False,775,m2,False
2016906728,listing,/10-second-street-pine-point-sa-5571-2016906728,264500,is-sold,Sold by private treaty 03 Jun 2021,20210603,10 Second Street,PINE POINT,SA,5571,-34.5684,137.882584,3,1,4,House,House,False,0,m2,False
2016909307,listing,/9-park-terrace-ardrossan-sa-5571-2016909307,660000,is-sold,Sold by private treaty 13 May 2021,20210513,9 Park Terrace,ARDROSSAN,SA,5571,-34.4209175,137.922012,4,2,4,House,House,False,2025,m2,False
2016973707,listing,/54-bridge-road-ardrossan-sa-5571-2016973707,275000,is-sold,Sold by private treaty 03 Jun 2021,20210603,54 Bridge Road,ARDROSSAN,SA,5571,-34.41513,137.922226,3,1,4,House,House,False,950,m2,False
2016997994,listing,/4-bridge-road-ardrossan-sa-5571-2016997994,129000,is-sold,Sold by private treaty 23 Jun 2021,20210623,4 Bridge Road,ARDROSSAN,SA,5571,-34.41965,137.92041,2,1,4,House,House,False,1050,m2,False
2013764740,listing,/37-west-terrace-ardrossan-sa-5571-2013764740,159000,is-sold,Sold by private treaty 26 Feb 2021,20210226,37 West Terrace,ARDROSSAN,SA,5571,-34.427,137.913528,3,1,4,House,House,False,972,m2,False
2013764955,listing,/8-fourth-street-ardrossan-sa-5571-2013764955,305000,is-sold,Sold by private treaty 31 Mar 2021,20210331,8 Fourth Street,ARDROSSAN,SA,5571,-34.4235229,137.916458,3,1,3,House,House,False,785,m2,False
2014660923,listing,/5-winen-court-ardrossan-sa-5571-2014660923,277000,is-sold,Sold by private treaty 19 Mar 2021,20210319,5 Winen Court,ARDROSSAN,SA,5571,-34.42101,137.9121,3,1,3,House,House,False,745,m2,False
2014926445,listing,/29-31-first-street-ardrossan-sa-5571-2014926445,470000,is-sold,Sold by private treaty 26 Feb 2021,20210226,29-31 FIRST STREET,ARDROSSAN,SA,5571,-34.42342,137.918915,3,1,5,House,House,False,952,m2,False
2014962892,listing,/4-oval-terrace-ardrossan-sa-5571-2014962892,164500,is-sold,Sold by private treaty 01 Apr 2021,20210401,4 Oval Terrace,ARDROSSAN,SA,5571,-34.42146,137.9136,,,,VacantLand,Vacant land,False,1040,m2,False
2015545361,listing,/4-sailors-street-ardrossan-sa-5571-2015545361,99000,is-sold,Sold by private treaty 16 Apr 2021,20210416,4 Sailors Street,ARDROSSAN,SA,5571,-34.42655,137.910065,,,,VacantLand,Vacant land,False,754,m2,False
2015831918,listing,/1-burford-avenue-ardrossan-sa-5571-2015831918,220000,is-sold,Sold by private treaty 26 Mar 2021,20210326,1 BURFORD AVENUE,ARDROSSAN,SA,5571,-34.42086,137.913177,3,1,4,House,House,False,891,m2,False
2016399130,listing,/40-bridge-road-ardrossan-sa-5571-2016399130,200000,is-sold,Sold by private treaty 09 Mar 2021,20210309,40 BRIDGE ROAD,ARDROSSAN,SA,5571,-34.4165535,137.921524,3,1,4,House,House,False,941,m2,False
2016451719,listing,/42-bridge-road-ardrossan-sa-5571-2016451719,290000,is-sold,Sold by private treaty 15 Apr 2021,20210415,42 BRIDGE ROAD,ARDROSSAN,SA,5571,-34.4163551,137.92157,3,1,4,House,House,False,941,m2,False
2016462577,listing,/2-sailors-street-ardrossan-sa-5571-2016462577,458000,is-sold,Sold by private treaty 15 Mar 2021,20210315,2 Sailors Street,ARDROSSAN,SA,5571,-34.4265671,137.910278,3,2,6,House,House,False,828,m2,False
2016464101,listing,/lot-31-bullock-street-ardrossan-sa-5571-2016464101,72000,is-sold,Sold by private treaty 14 Apr 2021,20210414,Lot 31 Bullock Street,ARDROSSAN,SA,5571,-34.4272957,137.90947,,,,VacantLand,Vacant land,False,642,m2,False
2016492637,listing,/4-barton-road-tiddy-widdy-beach-sa-5571-2016492637,180000,is-sold,Sold by private treaty 12 Mar 2021,20210312,4 Barton Road,TIDDY WIDDY BEACH,SA,5571,-34.40015,137.938,2,1,5,House,House,False,804,m2,False
2016497795,listing,/66-james-well-road-james-well-sa-5571-2016497795,770000,is-sold,Sold by private treaty 15 Apr 2021,20210415,66 James Well Road,JAMES WELL,SA,5571,-34.48922,137.89679,4,2,4,House,House,False,610,m2,False
2016704287,listing,/38-east-terrace-ardrossan-sa-5571-2016704287,500000,is-sold,Sold by private treaty 31 Mar 2021,20210331,38 East Terrace,ARDROSSAN,SA,5571,-34.4276962,137.916061,5,2,5,House,House,False,2020,m2,False
2016709717,listing,/16-hosking-road-tiddy-widdy-beach-sa-5571-2016709717,325000,is-sold,Sold by private treaty 12 Mar 2021,20210312,16 Hosking Road,TIDDY WIDDY BEACH,SA,5571,-34.39911,137.941345,2,1,5,House,House,False,958,m2,False
2016729910,listing,/5-sanders-street-ardrossan-sa-5571-2016729910,270000,is-sold,Sold by private treaty 16 Apr 2021,20210416,5 Sanders Street,ARDROSSAN,SA,5571,-34.42194,137.913147,2,1,3,House,House,False,428,m2,False
2016807496,listing,/48-grahn-road-james-well-sa-5571-2016807496,321000,is-sold,Sold by private treaty 31 Mar 2021,20210331,48 Grahn Road,JAMES WELL,SA,5571,-34.4883537,137.895874,3,1,2,House,House,False,513,m2,False
2016822699,listing,/21-the-crescent-ardrossan-sa-5571-2016822699,245000,is-sold,Sold by private treaty 16 Apr 2021,20210416,21 The Crescent,ARDROSSAN,SA,5571,-34.4171448,137.918442,3,1,6,House,House,False,845,m2,False
2016863905,listing,/lot-801-outlook-road-black-point-sa-5571-2016863905,,is-sold,Sold by private treaty 17 Apr 2021,20210417,Lot 801 Outlook Road,BLACK POINT,SA,5571,-34.616375,137.903458,,,,VacantLand,Vacant land,False,1550,m2,False
2016908961,listing,/7-angus-road-tiddy-widdy-beach-sa-5571-2016908961,310000,is-sold,Sold by private treaty 06 Apr 2021,20210406,7 Angus Road,TIDDY WIDDY BEACH,SA,5571,-34.39774,137.942642,3,1,2,House,House,False,973,m2,False
2013763981,listing,/18-lot18-clift-road-ardrossan-sa-5571-2013763981,132000,is-sold,Sold by private treaty 15 Jan 2021,20210115,18 ( Lot18 ) Clift Road,ARDROSSAN,SA,5571,-34.433075,137.9087,,,,VacantLand,Vacant land,False,2315,m2,False
2013970807,listing,/50-esplanade-pine-point-sa-5571-2013970807,275000,is-sold,Sold by private treaty 10 Dec 2020,20201210,50 Esplanade,PINE POINT,SA,5571,-34.5673523,137.88327,3,1,3,House,House,False,481,m2,False
2014252670,listing,/720-outlook-road-black-point-sa-5571-2014252670,,is-sold,Sold by private treaty 21 Feb 2021,20210221,720 Outlook Road,BLACK POINT,SA,5571,-34.616375,137.903458,,,,VacantLand,Vacant land,False,754,m2,False
2014513447,listing,/lot-710-outlook-road-black-point-sa-5571-2014513447,,is-sold,Sold by private treaty 12 Feb 2021,20210212,Lot 710 Outlook Road,BLACK POINT,SA,5571,-34.616375,137.903458,,,,VacantLand,Vacant land,False,880,m2,False
2014919758,listing,/32-hosking-road-tiddy-widdy-beach-sa-5571-2014919758,320000,is-sold,Sold by private treaty 18 Nov 2020,20201118,32 Hosking Road,TIDDY WIDDY BEACH,SA,5571,-34.4002762,137.940277,4,2,4,House,House,False,700,m2,False
2015641390,listing,/63-main-coast-road-pine-point-sa-5571-2015641390,680000,is-sold,Sold by private treaty 09 Dec 2020,20201209,63 Main Coast Road,PINE POINT,SA,5571,-34.5758362,137.8781,4,2,7,House,House,False,928,m2,False
2015689736,listing,/92-james-well-road-james-well-sa-5571-2015689736,420000,is-sold,Sold by private treaty 05 Nov 2020,20201105,92 James Well Road,JAMES WELL,SA,5571,-34.4911728,137.896973,3,2,4,House,House,False,0,m2,False
2015781869,listing,/15-henderson-court-ardrossan-sa-5571-2015781869,495000,is-sold,Sold by private treaty 12 Feb 2021,20210212,15 Henderson Court,ARDROSSAN,SA,5571,-34.4285049,137.913376,4,2,3,House,House,False,806,m2,False
2016202497,listing,/6-bridge-road-ardrossan-sa-5571-2016202497,235000,is-sold,Sold by private treaty 27 Nov 2020,20201127,6 BRIDGE ROAD,ARDROSSAN,SA,5571,-34.41949,137.920456,3,2,6,House,House,False,976,m2,False
2016252185,listing,/718-outlook-road-black-point-sa-5571-2016252185,,is-sold,Sold by private treaty 12 Jan 2021,20210112,718 Outlook Road,BLACK POINT,SA,5571,-34.616375,137.903458,,,,VacantLand,Vacant land,False,725,m2,False
2016386534,listing,/92-hosking-road-tiddy-widdy-beach-sa-5571-2016386534,191000,is-sold,Sold by private treaty 11 Dec 2020,20201211,92 Hosking Road,TIDDY WIDDY BEACH,SA,5571,-34.4042435,137.936676,2,1,4,House,House,False,738,m2,False
2016422859,listing,/18-barton-road-tiddy-widdy-beach-sa-5571-2016422859,192500,is-sold,Sold by private treaty 11 Nov 2020,20201111,18 Barton Road,TIDDY WIDDY BEACH,SA,5571,-34.40103,137.938232,3,1,2,House,House,False,703,m2,False
2016461933,listing,/37-brown-road-james-well-sa-5571-2016461933,,is-sold,Sold by private treaty 27 Nov 2020,20201127,37 BROWN ROAD,JAMES WELL,SA,5571,-34.4847946,137.896988,,,,VacantLand,Vacant land,False,900,m2,False
2016482824,listing,/29-33-arthurton-road-ardrossan-sa-5571-2016482824,560000,is-sold,Sold by private treaty 15 Jan 2021,20210115,29-33 Arthurton Road,ARDROSSAN,SA,5571,-34.412487,137.909775,4,1,4,AcreageSemiRural,Acreage / Semi-Rural,True,2.13,ha,False
2016488458,listing,/29-tiddy-widdy-beach-road-tiddy-widdy-beach-sa-5571-2016488458,570000,is-sold,Sold by private treaty 19 Nov 2020,20201119,29 TIDDY WIDDY BEACH ROAD,TIDDY WIDDY BEACH,SA,5571,-34.40246,137.93895,6,3,7,House,House,False,708,m2,False
2016504200,listing,/20-tiddy-widdy-beach-road-tiddy-widdy-beach-sa-5571-2016504200,267000,is-sold,Sold by private treaty 27 Nov 2020,20201127,20 Tiddy Widdy Beach Road,TIDDY WIDDY BEACH,SA,5571,-34.401268,137.9399,2,1,4,House,House,False,692,m2,False
2016515119,listing,/43-hosking-road-tiddy-widdy-beach-sa-5571-2016515119,195000,is-sold,Sold by private treaty 15 Jan 2021,20210115,43 HOSKING ROAD,TIDDY WIDDY BEACH,SA,5571,-34.40073,137.939133,3,1,4,House,House,False,694,m2,False
2016652256,listing,/12-john-street-ardrossan-sa-5571-2016652256,195000,is-sold,Sold by private treaty 24 Dec 2020,20201224,12 John Street,ARDROSSAN,SA,5571,-34.4157639,137.920746,2,1,5,House,House,False,860,m2,False
2016704576,listing,/75-high-street-ardrossan-sa-5571-2016704576,255000,is-sold,Sold by private treaty 21 Jan 2021,20210121,75 High Street,ARDROSSAN,SA,5571,-34.4186821,137.924469,3,1,6,House,House,False,846,m2,False
2016888950,listing,/719-outlook-road-black-point-sa-5571-2016888950,,is-sold,Sold by private treaty 21 Jan 2021,20210121,719 Outlook Road,BLACK POINT,SA,5571,-34.616375,137.903458,,,,VacantLand,Vacant land,False,740,m2,False
2011400075,listing,/2-chapman-road-rogues-point-sa-5571-2011400075,141000,is-sold,Sold by private treaty 29 Jun 2020,20200629,2 Chapman Road,ROGUES POINT,SA,5571,-34.4943428,137.896317,2,1,3,House,House,False,378,m2,False
2014320853,listing,/1-cane-avenue-ardrossan-sa-5571-2014320853,175000,is-sold,Sold by private treaty 29 Jun 2020,20200629,1 Cane Avenue,ARDROSSAN,SA,5571,-34.42759,137.908661,3,1,3,House,House,False,726,m2,False
2014681026,listing,/19-west-terrace-ardrossan-sa-5571-2014681026,212000,is-sold,Sold by private treaty 16 Oct 2020,20201016,19 WEST TERRACE,ARDROSSAN,SA,5571,-34.4249229,137.914825,3,1,10,House,House,False,1610,m2,False
2015336695,listing,/3-lot-25-sailors-street-ardrossan-sa-5571-2015336695,55000,is-sold,Sold by private treaty 18 Jun 2020,20200618,3 (Lot 25) Sailors Street,ARDROSSAN,SA,5571,-34.4268265,137.910461,,,,VacantLand,Vacant land,False,490,m2,False
2015633001,listing,/55-james-well-road-james-well-sa-5571-2015633001,280000,is-sold,Sold by private treaty 02 Nov 2020,20201102,55 James Well Road,JAMES WELL,SA,5571,-34.4827461,137.897751,4,2,3,House,House,False,675,m2,False
2015884470,listing,/94-james-well-road-james-well-sa-5571-2015884470,435000,is-sold,Sold by private treaty 28 Jul 2020,20200728,94 James Well Road,JAMES WELL,SA,5571,-34.4913177,137.897,4,2,3,House,House,False,543,m2,False
2015944506,listing,/53-bridge-road-ardrossan-sa-5571-2015944506,295000,is-sold,Sold by private treaty 03 Jul 2020,20200703,53 Bridge Road,ARDROSSAN,SA,5571,-34.4139481,137.9223,2,2,8,House,House,False,960,m2,False
2015971482,listing,/25-allen-road-tiddy-widdy-beach-sa-5571-2015971482,182000,is-sold,Sold by private treaty 25 Jun 2020,20200625,25 Allen Road,TIDDY WIDDY BEACH,SA,5571,-34.4007225,137.936646,3,1,6,House,House,False,747,m2,False
2016029605,listing,/7-lot-23-sailors-street-ardrossan-sa-5571-2016029605,63000,is-sold,Sold by private treaty 28 Aug 2020,20200828,7 (Lot 23) Sailors Street,ARDROSSAN,SA,5571,-34.4268265,137.910461,,,,VacantLand,Vacant land,False,586,m2,False
2016143069,listing,/89-james-well-road-james-well-sa-5571-2016143069,169000,is-sold,Sold by private treaty 24 Jun 2020,20200624,89 JAMES WELL ROAD,JAMES WELL,SA,5571,-34.48998,137.896271,3,1,6,House,House,False,300,m2,False
2016186173,listing,/38-high-street-ardrossan-sa-5571-2016186173,230000,is-sold,Sold by private treaty 12 Aug 2020,20200812,38 High Street,ARDROSSAN,SA,5571,-34.4187279,137.923309,5,2,5,House,House,False,950,m2,False
2016205673,listing,/1-bowman-road-ardrossan-sa-5571-2016205673,423000,is-sold,Sold by private treaty 31 Aug 2020,20200831,1 Bowman Road,ARDROSSAN,SA,5571,-34.43008,137.914383,3,2,3,House,House,False,571,m2,False
2016245415,listing,/a177-yorke-highway-rogues-point-sa-5571-2016245415,328100,is-sold,Sold by private treaty 23 Jun 2020,20200623,A177 Yorke Highway,ROGUES POINT,SA,5571,-34.49522,137.886917,,,,Rural,Rural,True,26.76,ha,False
2016278913,listing,/24-main-coast-road-pine-point-sa-5571-2016278913,329000,is-sold,Sold by private treaty 23 Jun 2020,20200623,24 Main Coast Road,PINE POINT,SA,5571,-34.57004,137.879913,5,2,9,House,House,False,2002,m2,False
2016290513,listing,/46-hosking-road-tiddy-widdy-beach-sa-5571-2016290513,215000,is-sold,Sold by private treaty 20 Aug 2020,20200820,46 HOSKING ROAD,TIDDY WIDDY BEACH,SA,5571,-34.4011765,137.9395,2,1,4,House,House,False,700,m2,False
2016310733,listing,/18-tiddy-widdy-beach-road-tiddy-widdy-beach-sa-5571-2016310733,310000,is-sold,Sold by private treaty 10 Aug 2020,20200810,18 Tiddy Widdy Beach Road,TIDDY WIDDY BEACH,SA,5571,-34.40101,137.940125,3,1,3,House,House,False,725,m2,False
2016323384,listing,/5-lot-24-sailors-street-ardrossan-sa-5571-2016323384,60000,is-sold,Sold by private treaty 28 Aug 2020,20200828,5 (Lot 24) Sailors Street,ARDROSSAN,SA,5571,-34.4268265,137.910461,,,,VacantLand,Vacant land,False,616,m2,False
2016377521,listing,/13-15-grahn-road-james-well-sa-5571-2016377521,,is-sold,Sold by private treaty 13 Oct 2020,20201013,13-15 Grahn Road,JAMES WELL,SA,5571,-34.4914551,137.895264,5,2,6,House,House,False,900,m2,False
2016461570,listing,/15-tiddy-widdy-beach-road-tiddy-widdy-beach-sa-5571-2016461570,310000,is-sold,Sold by private treaty 21 Oct 2020,20201021,15 Tiddy Widdy Beach Road,TIDDY WIDDY BEACH,SA,5571,-34.4006,137.94043,3,1,4,House,House,False,0,m2,False
2016519307,listing,/black-point-drive-black-point-sa-5571-2016519307,,is-sold,Sold by private treaty 04 Nov 2020,20201104,BLACK POINT DRIVE,BLACK POINT,SA,5571,-34.61316,137.89296,3,1,6,House,House,False,1050,m2,False
2013768930,listing,/lot-729-outlook-road-black-point-sa-5571-2013768930,155000,is-sold,Sold by private treaty 05 May 2020,20200505,Lot 729 Outlook Road,BLACK POINT,SA,5571,-34.616375,137.903458,,,,VacantLand,Vacant land,False,1063,m2,False
2013769765,listing,/19-brown-road-james-well-sa-5571-2013769765,315000,is-sold,Sold by private treaty 05 Jun 2020,20200605,19 Brown Road,JAMES WELL,SA,5571,-34.4863777,137.8961,4,2,4,House,House,False,900,m2,False
2014452876,listing,/25-rose-court-highview-holiday-village-ardrossan-sa-5571-2014452876,135000,is-sold,Sold by private treaty 08 May 2020,20200508,25 Rose Court (Highview Holiday Village),ARDROSSAN,SA,5571,-34.4125938,137.917252,3,1,3,House,House,False,0,m2,False
2014507607,listing,/site-1-highview-holiday-village-ardrossan-sa-5571-2014507607,99000,is-sold,Sold by private treaty 14 Feb 2020,20200214,Site 1 Highview Holiday Village,ARDROSSAN,SA,5571,-34.4125938,137.917252,2,1,4,House,House,False,0,m2,False
2014753286,listing,/8-park-terrace-ardrossan-sa-5571-2014753286,550000,is-sold,Sold by private treaty 02 Feb 2020,20200202,8 Park Terrace,ARDROSSAN,SA,5571,-34.4206734,137.921814,3,2,6,House,House,False,2027,m2,False
2014753359,listing,/16-allen-road-tiddy-widdy-beach-sa-5571-2014753359,250000,is-sold,Sold by private treaty 20 Mar 2020,20200320,16 Allen Road,TIDDY WIDDY BEACH,SA,5571,-34.4007,137.937256,3,1,5,House,House,False,738,m2,False
2015340650,listing,/15-james-well-road-james-well-sa-5571-2015340650,200000,is-sold,Sold by private treaty 27 Feb 2020,20200227,15 JAMES WELL ROAD,JAMES WELL,SA,5571,-34.4794,137.8981,3,1,4,House,House,False,923,m2,False
2015340746,listing,/9-fourth-street-ardrossan-sa-5571-2015340746,299000,is-sold,Sold by private treaty 27 Mar 2020,20200327,9 Fourth Street,ARDROSSAN,SA,5571,-34.42366,137.917236,3,1,3,House,House,False,978,m2,False
2015475376,listing,/28-barton-road-tiddy-widdy-beach-sa-5571-2015475376,115000,is-sold,Sold by private treaty 20 Dec 2019,20191220,28 Barton Road,TIDDY WIDDY BEACH,SA,5571,-34.4016647,137.937683,3,1,3,House,House,False,701,m2,False
2015544110,listing,/pt-section-158-hundred-of-cunningham-petersville-sa-5571-2015544110,,is-sold,Sold by private treaty 22 Apr 2020,20200422,Pt Section 158 Hundred of Cunningham,PETERSVILLE,SA,5571,-34.39702,137.808167,,,,VacantLand,Vacant land,True,108,ha,False
2015626953,listing,/43-allen-road-tiddy-widdy-beach-sa-5571-2015626953,170000,is-sold,Sold by private treaty 09 Jun 2020,20200609,43 Allen Road,TIDDY WIDDY BEACH,SA,5571,-34.40229,137.936371,2,1,5,House,House,False,774,m2,False
2015681763,listing,/21-west-terrace-ardrossan-sa-5571-2015681763,180000,is-sold,Sold by private treaty 18 Feb 2020,20200218,21 West Terrace,ARDROSSAN,SA,5571,-34.4250946,137.914749,3,1,5,House,House,False,1010,m2,False
2015696201,listing,/16-highview-holiday-village-ardrossan-sa-5571-2015696201,80000,is-sold,Sold by private treaty 18 Mar 2020,20200318,16 Highview Holiday Village,ARDROSSAN,SA,5571,-34.4125938,137.917252,2,1,3,House,House,False,0,m2,False
2015706389,listing,/58-east-terrace-ardrossan-sa-5571-2015706389,415000,is-sold,Sold by private treaty 16 Jan 2020,20200116,58 East Terrace,ARDROSSAN,SA,5571,-34.4295464,137.914261,3,1,5,House,House,False,762,m2,False
2015934766,listing,/21-john-street-ardrossan-sa-5571-2015934766,205000,is-sold,Sold by private treaty 18 Feb 2020,20200218,21 John Street,ARDROSSAN,SA,5571,-34.41491,137.920609,3,1,4,House,House,False,884,m2,False
2016015241,listing,/21-james-well-road-james-well-sa-5571-2016015241,175000,is-sold,Sold by private treaty 06 Mar 2020,20200306,21 James Well Road,JAMES WELL,SA,5571,-34.4797821,137.897888,4,1,1,House,House,False,500,m2,False
2016024680,listing,/2-angus-road-tiddy-widdy-beach-sa-5571-2016024680,392000,is-sold,Sold by private treaty 01 Apr 2020,20200401,2 Angus Road,TIDDY WIDDY BEACH,SA,5571,-34.396698,137.942047,4,2,7,House,House,False,989,m2,False
2016063673,listing,/site-2-highview-holiday-village-ardrossan-sa-5571-2016063673,,is-sold,Sold by private treaty 14 Feb 2020,20200214,Site 2 Highview Holiday Village,ARDROSSAN,SA,5571,-34.4125938,137.917252,3,1,2,House,House,False,0,m2,False
2016172678,listing,/13a-tiddy-widdy-road-ardrossan-sa-5571-2016172678,215000,is-sold,Sold by private treaty 05 Jun 2020,20200605,13A Tiddy Widdy Road,ARDROSSAN,SA,5571,-34.4189453,137.9228,3,1,8,House,House,False,1485,m2,False
2016202612,listing,/46-bridge-road-ardrossan-sa-5571-2016202612,389000,is-sold,Sold by private treaty 03 Jun 2020,20200603,46 Bridge Road,ARDROSSAN,SA,5571,-34.4159927,137.92186,4,2,6,House,House,False,900,m2,False
2013764783,listing,/31-west-terrace-ardrossan-sa-5571-2013764783,220000,is-sold,Sold by private treaty 16 Dec 2019,20191216,31 West Terrace,ARDROSSAN,SA,5571,-34.42648,137.913788,3,1,7,House,House,False,1176,m2,False
2013764843,listing,/unit-5-2-8-rowe-terrace-ardrossan-sa-5571-2013764843,229000,is-sold,Sold by private treaty 02 Oct 2019,20191002,Unit 5/2-8 Rowe Terrace,ARDROSSAN,SA,5571,-34.43088,137.914566,2,1,2,ApartmentUnitFlat,Apartment / Unit / Flat,False,0,m2,False
2013769811,listing,/24-grahn-road-james-well-sa-5571-2013769811,350000,is-sold,Sold by private treaty 15 Jul 2019,20190715,24 Grahn Road,JAMES WELL,SA,5571,-34.4907265,137.895859,3,1,4,House,House,False,692,m2,False
2013770797,listing,/62-esplanade-pine-point-sa-5571-2013770797,220000,is-sold,Sold by private treaty 23 Aug 2019,20190823,62 Esplanade,PINE POINT,SA,5571,-34.565567,137.882645,2,1,4,House,House,False,719,m2,False
2013770800,listing,/37-main-street-pine-point-sa-5571-2013770800,240000,is-sold,Sold by private treaty 27 Jun 2019,20190627,37 Main Street,PINE POINT,SA,5571,-34.5702477,137.881653,3,1,1,House,House,False,930,m2,False
2013965337,listing,/38-esplanade-pine-point-sa-5571-2013965337,285000,is-sold,Sold by private treaty 30 Sep 2019,20190930,38 Esplanade,PINE POINT,SA,5571,-34.5693626,137.882156,3,2,4,House,House,False,700,m2,False
2014229660,listing,/21-tiddy-widdy-beach-road-tiddy-widdy-beach-sa-5571-2014229660,320000,is-sold,Sold by private treaty 30 Oct 2019,20191030,21 Tiddy Widdy Beach Road,TIDDY WIDDY BEACH,SA,5571,-34.4013824,137.93985,2,2,5,House,House,False,704,m2,False
2014252663,listing,/lot-800-outlook-road-black-point-sa-5571-2014252663,,is-sold,Sold by private treaty 14 Nov 2019,20191114,Lot 800 Outlook Road,BLACK POINT,SA,5571,-34.616375,137.903458,,,,VacantLand,Vacant land,False,2051,m2,False
2014270405,listing,/34-high-street-ardrossan-sa-5571-2014270405,168000,is-sold,Sold by private treaty 02 Oct 2019,20191002,34 High Street,ARDROSSAN,SA,5571,-34.4186172,137.922852,2,1,4,House,House,False,950,m2,False
2014533749,listing,/93-james-well-road-james-well-sa-5571-2014533749,175000,is-sold,Sold by private treaty 15 Oct 2019,20191015,93 James Well Road,JAMES WELL,SA,5571,-34.49044,137.896362,3,2,5,House,House,False,576,m2,False
2014879972,listing,/lot-701-black-point-road-black-point-sa-5571-2014879972,,is-sold,Sold by private treaty 09 Jul 2019,20190709,Lot/701 Black Point Road,BLACK POINT,SA,5571,-34.59901,137.875137,,,,VacantLand,Vacant land,False,0,m2,False
2015232128,listing,/24-barton-road-tiddy-widdy-beach-sa-5571-2015232128,190000,is-sold,Sold by private treaty 20 Dec 2019,20191220,24 Barton Road,TIDDY WIDDY BEACH,SA,5571,-34.4014244,137.938019,3,1,4,House,House,False,703,m2,False
2015359506,listing,/33-hosking-road-tiddy-widdy-beach-sa-5571-2015359506,215000,is-sold,Sold by private treaty 10 Dec 2019,20191210,33 Hosking Road,TIDDY WIDDY BEACH,SA,5571,-34.400135,137.939651,2,1,3,House,House,False,688,m2,False
2015391012,listing,/1-lot-24-henderson-court-ardrossan-sa-5571-2015391012,127000,is-sold,Sold by private treaty 15 Aug 2019,20190815,1 (Lot 24) Henderson Court,ARDROSSAN,SA,5571,-34.4285049,137.913376,,,,VacantLand,Vacant land,False,0,m2,False
2015579712,listing,/89-main-coast-road-pine-point-sa-5571-2015579712,300000,is-sold,Sold by private treaty 25 Nov 2019,20191125,89 MAIN COAST ROAD,PINE POINT,SA,5571,-34.5788231,137.876617,3,1,7,House,House,False,3643,m2,False
2015603640,listing,/35a-main-coast-road-pine-point-sa-5571-2015603640,120000,is-sold,Sold by private treaty 29 Oct 2019,20191029,35A Main Coast Road,PINE POINT,SA,5571,-34.57302,137.8796,,,,VacantLand,Vacant land,False,0,m2,False
2015630546,listing,/64-black-point-drive-black-point-sa-5571-2015630546,,is-sold,Sold at auction 28 Sep 2019,20190928,64 BLACK POINT DRIVE,BLACK POINT,SA,5571,-34.6127052,137.891846,5,2,7,House,House,False,851,m2,False
2015636363,listing,/151a-harvey-cres-black-point-sa-5571-2015636363,,is-sold,Sold prior to auction 11 Oct 2019,20191011,151A Harvey Cres,BLACK POINT,SA,5571,-34.607,137.882721,5,3,4,House,House,False,302,m2,False
2015686395,listing,/23-black-point-drive-black-point-sa-5571-2015686395,1045000,is-sold,Sold by private treaty 05 Oct 2019,20191005,23 Black Point Drive,BLACK POINT,SA,5571,-34.60933,137.886276,3,2,4,House,House,False,739,m2,False
2015793324,listing,/102-black-point-drive-black-point-sa-5571-2015793324,,is-sold,Sold at auction 18 Dec 2019,20191218,102 Black Point Drive,BLACK POINT,SA,5571,-34.6137276,137.898,3,2,3,House,House,False,857,m2,False
2013873274,listing,/3-fourth-street-ardrossan-sa-5571-2013873274,190000,is-sold,Sold by private treaty 19 Jun 2019,20190619,3 Fourth Street,ARDROSSAN,SA,5571,-34.4224052,137.917679,3,1,6,House,House,False,751,m2,False
2013933383,listing,/25-main-street-pine-point-sa-5571-2013933383,170000,is-sold,Sold by private treaty 09 May 2019,20190509,25 Main Street,PINE POINT,SA,5571,-34.5712852,137.881241,2,1,3,House,House,False,675,m2,False
2013982310,listing,/33-chapman-road-rogues-point-sa-5571-2013982310,263000,is-sold,Sold by private treaty 05 Jun 2019,20190605,33 Chapman Road,ROGUES POINT,SA,5571,-34.49689,137.893539,3,2,4,House,House,False,742,m2,False
2014123365,listing,/42-east-terrace-ardrossan-sa-5571-2014123365,695000,is-sold,Sold by private treaty 17 May 2019,20190517,42 East Terrace,ARDROSSAN,SA,5571,-34.4282265,137.916077,4,3,3,House,House,False,533,m2,False
2014207756,listing,/lot-402-black-point-drive-black-point-sa-5571-2014207756,,is-sold,Sold by private treaty 05 Apr 2019,20190405,Lot 402 Black Point Drive,BLACK POINT,SA,5571,-34.61316,137.89296,5,2,,House,House,False,1086,m2,False
2014444594,listing,/4-highview-holiday-village-15a-highview-rd-ardrossan-sa-5571-2014444594,,is-sold,Sold by private treaty 15 Mar 2019,20190315,"4 Highview Holiday Village, 15A Highview Rd",ARDROSSAN,SA,5571,-34.4125938,137.917252,2,1,1,House,House,False,0,m2,False
2014657874,listing,/6-angus-road-tiddy-widdy-beach-sa-5571-2014657874,169500,is-sold,Sold by private treaty 04 Jun 2019,20190604,6 Angus Road,TIDDY WIDDY BEACH,SA,5571,-34.39756,137.942673,2,1,6,House,House,False,973,m2,False
2014695621,listing,/18-hogarth-street-ardrossan-sa-5571-2014695621,55000,is-sold,Sold by private treaty 28 Mar 2019,20190328,18 Hogarth Street,ARDROSSAN,SA,5571,-34.4320831,137.913132,,,,VacantLand,Vacant land,False,1285,m2,False
2014712246,listing,/6-barton-road-tiddy-widdy-beach-sa-5571-2014712246,287000,is-sold,Sold by private treaty 15 Apr 2019,20190415,6 Barton Road,TIDDY WIDDY BEACH,SA,5571,-34.40022,137.9384,4,2,4,House,House,False,969,m2,False
2014763938,listing,/1-douglas-court-tiddy-widdy-beach-sa-5571-2014763938,405000,is-sold,Sold by private treaty 30 Apr 2019,20190430,1 Douglas Court,TIDDY WIDDY BEACH,SA,5571,-34.4016876,137.935791,4,2,,House,House,False,0,m2,False
2014840417,listing,/5-park-terrace-ardrossan-sa-5571-2014840417,385000,is-sold,Sold by private treaty 01 Apr 2019,20190401,5 Park Terrace,ARDROSSAN,SA,5571,-34.4204559,137.921021,3,1,5,House,House,False,1810,m2,False
2014853269,listing,/56-bridge-road-ardrossan-sa-5571-2014853269,295000,is-sold,Sold by private treaty 28 Feb 2019,20190228,56 Bridge Road,ARDROSSAN,SA,5571,-34.4149742,137.922318,3,1,4,House,House,False,950,m2,False
2014896853,listing,/34-cane-avenue-ardrossan-sa-5571-2014896853,225000,is-sold,Sold by private treaty 17 May 2019,20190517,34 Cane Avenue,ARDROSSAN,SA,5571,-34.4295,137.912338,3,1,3,House,House,False,960,m2,False
2014936875,listing,/33-tiddy-widdy-beach-road-tiddy-widdy-beach-sa-5571-2014936875,215000,is-sold,Sold by private treaty 18 Apr 2019,20190418,33 Tiddy Widdy Beach Road,TIDDY WIDDY BEACH,SA,5571,-34.4030457,137.938431,2,1,3,House,House,False,705,m2,False
2014946322,listing,/22-24-rowe-terrace-ardrossan-sa-5571-2014946322,525000,is-sold,Sold by private treaty 07 May 2019,20190507,22-24 Rowe Terrace,ARDROSSAN,SA,5571,-34.4323578,137.914658,4,2,7,House,House,False,907,m2,False
2014959167,listing,/75-main-street-pine-point-sa-5571-2014959167,360000,is-sold,Sold by private treaty 07 May 2019,20190507,75 Main Street,PINE POINT,SA,5571,-34.56499,137.882019,1,1,2,House,House,False,561,m2,False
2014962659,listing,/lot-731-outlook-road-black-point-sa-5571-2014962659,566666,is-sold,Sold by private treaty 29 Apr 2019,20190429,Lot 731 Outlook Road,BLACK POINT,SA,5571,-34.616375,137.903458,4,2,8,House,House,False,1187,m2,False
2014993382,listing,/37-john-street-ardrossan-sa-5571-2014993382,250000,is-sold,Sold by private treaty 07 Jun 2019,20190607,37 John Street,ARDROSSAN,SA,5571,-34.4135246,137.9213,3,1,4,House,House,False,875,m2,False
2015019503,listing,/28-grahn-road-james-well-sa-5571-2015019503,180000,is-sold,Sold by private treaty 30 May 2019,20190530,28 Grahn Road,JAMES WELL,SA,5571,-34.49045,137.895859,3,1,3,House,House,False,653,m2,False
2015211804,listing,/site-7-15a-highview-road-highview-holiday-village-ardrossan-sa-5571-2015211804,,is-sold,Sold by private treaty 30 Apr 2019,20190430,"Site 7 15A Highview Road, Highview Holiday Village",ARDROSSAN,SA,5571,-34.4125938,137.917252,1,1,2,House,House,False,0,m2,False
2012342709,listing,/14-grahn-road-james-well-sa-5571-2012342709,270000,is-sold,Sold by private treaty 14 Dec 2018,20181214,14 Grahn Road,JAMES WELL,SA,5571,-34.49147,137.895782,3,1,3,House,House,False,541,m2,False
2013303799,listing,/35-chapman-road-rogues-point-sa-5571-2013303799,330000,is-sold,Sold by private treaty 21 Nov 2018,20181121,35 Chapman Road,ROGUES POINT,SA,5571,-34.4971,137.893417,3,1,4,House,House,False,901,m2,False
2013764070,listing,/8-lot-4-blue-crab-court-ardrossan-sa-5571-2013764070,120000,is-sold,Sold by private treaty 30 Nov 2018,20181130,8 (Lot 4) Blue Crab Court,ARDROSSAN,SA,5571,-34.4277344,137.910172,,,,VacantLand,Vacant land,False,688,m2,False
2013764848,listing,/unit-1-6-8-rowe-terrace-ardrossan-sa-5571-2013764848,250000,is-sold,Sold by private treaty 27 Feb 2019,20190227,Unit 1/6-8 Rowe Terrace,ARDROSSAN,SA,5571,-34.4305229,137.914536,3,2,1,House,House,False,0,m2,False
2013768928,listing,/4367-yorke-highway-ardrossan-sa-5571-2013768928,785000,is-sold,Sold by private treaty 07 Feb 2019,20190207,4367 Yorke Highway,ARDROSSAN,SA,5571,-34.4307365,137.907623,4,2,16,House,House,True,4.86,ha,False
2013960700,listing,/49-grahn-road-james-well-sa-5571-2013960700,275000,is-sold,Sold by private treaty 05 Nov 2018,20181105,49 Grahn Road,JAMES WELL,SA,5571,-34.48829,137.89534,3,1,5,House,House,False,903,m2,False
2014056855,listing,/19-21-diagonal-road-ardrossan-sa-5571-2014056855,190000,is-sold,Sold by private treaty 25 Feb 2019,20190225,19-21 Diagonal Road,ARDROSSAN,SA,5571,-34.4178925,137.918167,3,1,2,House,House,False,2481,m2,False
2014074247,listing,/14-high-street-ardrossan-sa-5571-2014074247,194000,is-sold,Sold by private treaty 18 Dec 2018,20181218,14 High Street,ARDROSSAN,SA,5571,-34.4175453,137.919937,3,1,3,House,House,False,0,m2,False
2014113602,listing,/11-lot-12-blue-crab-court-ardrossan-sa-5571-2014113602,87000,is-sold,Sold by private treaty 13 Nov 2018,20181113,11 (Lot 12) Blue Crab Court,ARDROSSAN,SA,5571,-34.42721,137.910583,,,,VacantLand,Vacant land,False,658,m2,False
2014120285,listing,/2-harvey-crescent-black-point-sa-5571-2014120285,,is-sold,Sold by private treaty 12 Dec 2018,20181212,2 Harvey Crescent,BLACK POINT,SA,5571,-34.608017,137.883255,3,1,2,House,House,False,643,m2,False
2014463984,listing,/5-pepper-road-ardrossan-sa-5571-2014463984,225000,is-sold,Sold by private treaty 16 Nov 2018,20181116,5 Pepper Road,ARDROSSAN,SA,5571,-34.4176025,137.9112,,,,VacantLand,Vacant land,False,0,m2,False
2014581642,listing,/8-douglas-court-tiddy-widdy-beach-sa-5571-2014581642,305000,is-sold,Sold by private treaty 25 Oct 2018,20181025,8 Douglas Court,TIDDY WIDDY BEACH,SA,5571,-34.40228,137.935623,3,2,7,House,House,False,1212,m2,False
2014598897,listing,/51-barton-road-tiddy-widdy-beach-sa-5571-2014598897,224000,is-sold,Sold by private treaty 10 Jan 2019,20190110,51 BARTON ROAD,TIDDY WIDDY BEACH,SA,5571,-34.4027023,137.937057,3,1,4,House,House,False,860,m2,False
2014615531,listing,/9-blue-crab-court-ardrossan-sa-5571-2014615531,69000,is-sold,Sold by private treaty 22 Jan 2019,20190122,9 Blue Crab Court,ARDROSSAN,SA,5571,-34.4265327,137.910538,,,,VacantLand,Vacant land,False,603,m2,False
2014631943,listing,/48-james-well-road-james-well-sa-5571-2014631943,315000,is-sold,Sold by private treaty 06 Nov 2018,20181106,48 James Well Road,JAMES WELL,SA,5571,-34.4878464,137.897125,3,1,2,House,House,False,442,m2,False
2014658040,listing,/site-32-highview-holiday-village-15a-highview-road-ardrossan-sa-5571-2014658040,22000,is-sold,Sold by private treaty 11 Dec 2018,20181211,"Site 32 Highview Holiday Village, 15A Highview Road",ARDROSSAN,SA,5571,-34.4125938,137.917252,1,1,1,House,House,False,0,m2,False
2014658997,listing,/19-lot-102-grahn-road-james-well-sa-5571-2014658997,90000,is-sold,Sold by private treaty 26 Oct 2018,20181026,19 (Lot 102) Grahn Road,JAMES WELL,SA,5571,-34.4907951,137.895554,,,,VacantLand,Vacant land,False,950,m2,False
2014788689,listing,/24-rose-court-highview-holiday-village-ardrossan-sa-5571-2014788689,,is-sold,Sold by private treaty 30 Jan 2019,20190130,24 Rose Court (Highview Holiday Village),ARDROSSAN,SA,5571,-34.4125938,137.917252,1,1,2,House,House,False,0,m2,False
2014839864,listing,/35-bowman-road-ardrossan-sa-5571-2014839864,257000,is-sold,Sold by private treaty 27 Feb 2019,20190227,35 Bowman Road,ARDROSSAN,SA,5571,-34.43256,137.911362,3,2,4,House,House,False,1020,m2,False
2014840141,listing,/2-allen-road-tiddy-widdy-beach-sa-5571-2014840141,250000,is-sold,Sold by private treaty 19 Feb 2019,20190219,2 Allen Road,TIDDY WIDDY BEACH,SA,5571,-34.4000435,137.93927,3,1,4,House,House,False,961,m2,False
2013764921,listing,/unit-2-11-second-street-ardrossan-sa-5571-2013764921,296000,is-sold,Sold by private treaty 01 Aug 2018,20180801,Unit 2/11 Second Street,ARDROSSAN,SA,5571,-34.4242554,137.91539,2,2,2,House,House,False,361,m2,False
2013768648,listing,/605-black-point-drive-black-point-sa-5571-2013768648,575000,is-sold,Sold by private treaty 04 Apr 2018,20180404,605 Black Point Drive,BLACK POINT,SA,5571,-34.6133575,137.893433,4,2,7,House,House,False,1172,m2,False
2013768920,listing,/33-john-street-ardrossan-sa-5571-2013768920,320000,is-sold,Sold by private treaty 27 Apr 2018,20180427,33 John Street,ARDROSSAN,SA,5571,-34.413868,137.9211,3,1,8,House,House,False,884,m2,False
2013768925,listing,/15-tiddy-widdy-road-ardrossan-sa-5571-2013768925,390000,is-sold,Sold by private treaty 26 Apr 2018,20180426,15 Tiddy Widdy Road,ARDROSSAN,SA,5571,-34.4188652,137.923462,4,3,12,House,House,False,932,m2,False
2013769928,listing,/42-main-coast-road-pine-point-sa-5571-2013769928,178000,is-sold,Sold by private treaty 15 May 2018,20180515,42 Main Coast Road,PINE POINT,SA,5571,-34.573494,137.8783,3,1,5,House,House,False,1011,m2,False
2013949867,listing,/705-outlook-road-black-point-sa-5571-2013949867,120000,is-sold,Sold by private treaty 11 Apr 2018,20180411,705 Outlook Road,BLACK POINT,SA,5571,-34.616375,137.903458,,,,VacantLand,Vacant land,False,780,m2,False
2014022072,listing,/13-allen-road-tiddy-widdy-beach-sa-5571-2014022072,230000,is-sold,Sold by private treaty 27 Jun 2018,20180627,13 Allen Road,TIDDY WIDDY BEACH,SA,5571,-34.3998566,137.937363,4,2,3,House,House,False,740,m2,False
2014058961,listing,/8-barton-road-tiddy-widdy-beach-sa-5571-2014058961,290000,is-sold,Sold by private treaty 11 Oct 2018,20181011,8 Barton Road,TIDDY WIDDY BEACH,SA,5571,-34.4003,137.938568,4,2,2,House,House,False,1102,m2,False
2014076868,listing,/8-esplanade-pine-point-sa-5571-2014076868,472000,is-sold,Sold by private treaty 27 Sep 2018,20180927,8 Esplanade,PINE POINT,SA,5571,-34.57197,137.8812,5,2,2,House,House,False,0,m2,False
2014228870,listing,/6-third-street-ardrossan-sa-5571-2014228870,450000,is-sold,Sold by private treaty 26 Sep 2018,20180926,6 Third Street,ARDROSSAN,SA,5571,-34.42619,137.914429,3,2,3,House,House,False,923,m2,False
2014251325,listing,/95-hosking-road-tiddy-widdy-beach-sa-5571-2014251325,180000,is-sold,Sold by private treaty 11 May 2018,20180511,95 Hosking Road,TIDDY WIDDY BEACH,SA,5571,-34.40419,137.936142,3,2,3,House,House,False,787,m2,False
2014251543,listing,/72-hosking-road-tiddy-widdy-beach-sa-5571-2014251543,180000,is-sold,Sold by private treaty 12 Sep 2018,20180912,72 Hosking Road,TIDDY WIDDY BEACH,SA,5571,-34.40297,137.937958,3,1,1,House,House,False,719,m2,False
2014270653,listing,/33-lot-104-main-coast-road-pine-point-sa-5571-2014270653,,is-sold,Sold by private treaty 04 Jul 2018,20180704,33 (Lot 104) Main Coast Road,PINE POINT,SA,5571,-34.57264,137.87973,,,,House,House,False,1229,m2,False
2014271151,listing,/10-park-terrace-ardrossan-sa-5571-2014271151,495000,is-sold,Sold by private treaty 24 Oct 2018,20181024,10 Park Terrace,ARDROSSAN,SA,5571,-34.42092,137.92247,4,1,6,House,House,False,2121,m2,False
2014379375,listing,/lot-92-slant-road-dowlingville-sa-5571-2014379375,,is-sold,Sold at auction 22 Jun 2018,20180622,Lot 92 Slant Road,DOWLINGVILLE,SA,5571,-34.3341637,137.931473,,,,VacantLand,Vacant land,True,106,ha,False
2014412190,listing,/85-hosking-road-tiddy-widdy-beach-sa-5571-2014412190,375000,is-sold,Sold by private treaty 16 Oct 2018,20181016,85 Hosking Road,TIDDY WIDDY BEACH,SA,5571,-34.40354,137.936722,3,2,4,House,House,False,696,m2,False
2014423862,listing,/11-fourth-street-ardrossan-sa-5571-2014423862,148000,is-sold,Sold by private treaty 04 Oct 2018,20181004,11 Fourth Street,ARDROSSAN,SA,5571,-34.423687,137.916931,2,1,,House,House,False,845,m2,False
2014444375,listing,/43-grahn-road-james-well-sa-5571-2014444375,432000,is-sold,Sold by private treaty 22 Oct 2018,20181022,43 Grahn Road,JAMES WELL,SA,5571,-34.4888077,137.895187,5,2,5,House,House,False,904,m2,False
2014458937,listing,/13-the-crescent-ardrossan-sa-5571-2014458937,178000,is-sold,Sold by private treaty 16 Oct 2018,20181016,13 The Crescent,ARDROSSAN,SA,5571,-34.41779,137.9188,3,1,3,House,House,False,779,m2,False
2014513215,listing,/13-henderson-court-ardrossan-sa-5571-2014513215,120500,is-sold,Sold by private treaty 28 Sep 2018,20180928,13 Henderson Court,ARDROSSAN,SA,5571,-34.4285049,137.913376,,,,VacantLand,Vacant land,False,693,m2,False
2011231461,listing,/lot-411-black-point-drive-black-point-sa-5571-2011231461,,is-sold,Sold by private treaty 26 Oct 2017,20171026,Lot/411 Black Point Drive,BLACK POINT,SA,5571,-34.6133575,137.893433,,,,VacantLand,Vacant land,False,1284,m2,False
2012819783,listing,/12-james-well-road-james-well-sa-5571-2012819783,320000,is-sold,Sold by private treaty 09 Mar 2018,20180309,12 James Well Road,JAMES WELL,SA,5571,-34.4786377,137.897919,3,2,2,House,House,False,0,m2,False
2013764733,listing,/4-highview-holiday-village-15a-highview-rd-ardrossan-sa-5571-2013764733,137000,is-sold,Sold by private treaty 16 Jan 2018,20180116,"4 Highview Holiday Village, 15A Highview Rd",ARDROSSAN,SA,5571,-34.41342,137.918808,2,1,1,House,House,False,0,m2,False
2013764790,listing,/25-west-terrace-ardrossan-sa-5571-2013764790,250000,is-sold,Sold by private treaty 16 Oct 2017,20171016,25 West Terrace,ARDROSSAN,SA,5571,-34.4253769,137.9146,3,1,2,House,House,False,1113,m2,False
2013768927,listing,/11-gloria-street-ardrossan-sa-5571-2013768927,390000,is-sold,Sold by private treaty 21 Nov 2017,20171121,11 Gloria Street,ARDROSSAN,SA,5571,-34.4134674,137.921661,3,2,14,House,House,True,1.76,ha,False
2013769749,listing,/11-james-well-road-james-well-sa-5571-2013769749,,is-sold,Sold by private treaty 08 Jan 2018,20180108,11 James Well Road,JAMES WELL,SA,5571,-34.47884,137.897781,3,1,4,House,House,False,748,m2,False
2013769772,listing,/27-grahn-road-james-well-sa-5571-2013769772,375000,is-sold,Sold by private treaty 29 Mar 2018,20180329,27 Grahn Road,JAMES WELL,SA,5571,-34.4901466,137.895248,4,2,5,House,House,False,900,m2,False
2013771055,listing,/7-tiddy-widdy-beach-road-tiddy-widdy-beach-sa-5571-2013771055,295000,is-sold,Sold by private treaty 08 Feb 2018,20180208,7 Tiddy Widdy Beach Road,TIDDY WIDDY BEACH,SA,5571,-34.39952,137.941513,3,1,2,House,House,False,969,m2,False
2013771100,listing,/79-hosking-road-tiddy-widdy-beach-sa-5571-2013771100,,is-sold,Sold by private treaty 16 Jan 2018,20180116,79 Hosking Road,TIDDY WIDDY BEACH,SA,5571,-34.403183,137.937,4,2,4,House,House,False,696,m2,False
2013771111,listing,/91-hosking-road-tiddy-widdy-beach-sa-5571-2013771111,176000,is-sold,Sold by private treaty 19 Mar 2018,20180319,91 Hosking Road,TIDDY WIDDY BEACH,SA,5571,-34.4039345,137.9364,2,2,5,House,House,False,696,m2,False
2013771150,listing,/19-chapman-road-rogues-point-sa-5571-2013771150,317000,is-sold,Sold by private treaty 30 Oct 2017,20171030,19 Chapman Road,ROGUES POINT,SA,5571,-34.4957542,137.894226,3,1,4,House,House,False,722,m2,False
2013825683,listing,/5-james-well-road-james-well-sa-5571-2013825683,314000,is-sold,Sold by private treaty 01 Dec 2017,20171201,5 James Well Road,JAMES WELL,SA,5571,-34.47971,137.89711,3,2,4,House,House,False,623,m2,False
2013860283,listing,/2-fourth-street-ardrossan-sa-5571-2013860283,222000,is-sold,Sold by private treaty 03 Apr 2018,20180403,2 Fourth Street,ARDROSSAN,SA,5571,-34.42209,137.917236,3,1,2,House,House,False,730,m2,False
2013875163,listing,/124-black-point-drive-black-point-sa-5571-2013875163,,is-sold,Sold by private treaty 30 Nov 2017,20171130,124 Black Point Drive,BLACK POINT,SA,5571,-34.6143646,137.90152,3,1,4,House,House,False,0,m2,False
2013875397,listing,/lot-1-harvey-crescent-black-point-sa-5571-2013875397,,is-sold,Sold by private treaty 01 Dec 2017,20171201,Lot 1 Harvey Crescent,BLACK POINT,SA,5571,-34.6080055,137.88327,2,1,3,House,House,False,0,m2,False
2013911506,listing,/47-hosking-road-tiddy-widdy-beach-sa-5571-2013911506,195000,is-sold,Sold by private treaty 19 Dec 2017,20171219,47 Hosking Road,TIDDY WIDDY BEACH,SA,5571,-34.4010277,137.938889,2,1,3,House,House,False,0,m2,False
2014013580,listing,/31-main-coast-road-pine-point-sa-5571-2014013580,490000,is-sold,Sold by private treaty 21 Dec 2017,20171221,31 Main Coast Road,PINE POINT,SA,5571,-34.572258,137.879623,5,2,2,House,House,False,916,m2,False
2014021970,listing,/43-bridge-road-ardrossan-sa-5571-2014021970,255000,is-sold,Sold by private treaty 01 Feb 2018,20180201,43 Bridge Road,ARDROSSAN,SA,5571,-34.41484,137.921829,3,1,4,House,House,False,970,m2,False
2014059488,listing,/14-barton-road-tiddy-widdy-beach-sa-5571-2014059488,210000,is-sold,Sold by private treaty 21 Mar 2018,20180321,14 Barton Road,TIDDY WIDDY BEACH,SA,5571,-34.4007874,137.938583,3,1,2,House,House,False,652,m2,False
2014060381,listing,/86-james-well-road-james-well-sa-5571-2014060381,279000,is-sold,Sold at auction 19 Jan 2018,20180119,86 James Well Road,JAMES WELL,SA,5571,-34.4907265,137.896866,3,2,2,House,House,False,466,m2,False
2008777281,listing,/53-main-street-pine-point-sa-5571-2008777281,255000,is-sold,Sold by private treaty 27 Jul 2017,20170727,53 Main Street,PINE POINT,SA,5571,-34.56783,137.881622,5,2,,House,House,False,0,m2,False
2011231466,listing,/lot-726-outlook-road-black-point-sa-5571-2011231466,141500,is-sold,Sold by private treaty 31 Jul 2017,20170731,Lot/726 Outlook Road,BLACK POINT,SA,5571,-34.616375,137.903458,,,,VacantLand,Vacant land,False,1060,m2,False
2011911926,listing,/44-sanders-street-ardrossan-sa-5571-2011911926,,is-sold,Sold by private treaty 12 May 2017,20170512,44 Sanders Street,ARDROSSAN,SA,5571,-34.421627,137.9129,,,,VacantLand,Vacant land,False,376,m2,False
2012939458,listing,/23-hosking-road-tiddy-widdy-beach-sa-5571-2012939458,160000,is-sold,Sold by private treaty 13 Jun 2017,20170613,23 Hosking Road,TIDDY WIDDY BEACH,SA,5571,-34.399334,137.940338,3,1,1,House,House,False,690,m2,False
2012987964,listing,/18-blue-crab-court-ardrossan-sa-5571-2012987964,372000,is-sold,Sold by private treaty 01 May 2017,20170501,18 Blue Crab Court,ARDROSSAN,SA,5571,-34.4266663,137.91095,3,2,3,House,House,False,754,m2,False
2013070109,listing,/43-allen-road-tiddy-widdy-beach-sa-5571-2013070109,,is-sold,Sold by private treaty 16 May 2017,20170516,43 Allen Road,TIDDY WIDDY BEACH,SA,5571,-34.4023056,137.936417,2,1,5,House,House,False,774,m2,False
2013219246,listing,/9-west-terrace-ardrossan-sa-5571-2013219246,447000,is-sold,Sold by private treaty 08 Aug 2017,20170808,9 West Terrace,ARDROSSAN,SA,5571,-34.42418,137.9151,3,2,6,House,House,False,1077,m2,False
2013228747,listing,/13-douglas-court-tiddy-widdy-beach-sa-5571-2013228747,,is-sold,Sold by private treaty 08 May 2017,20170508,13 Douglas Court,TIDDY WIDDY BEACH,SA,5571,-34.40265,137.935455,3,1,4,House,House,False,866,m2,False
2013361581,listing,/62-hosking-road-tiddy-widdy-beach-sa-5571-2013361581,170000,is-sold,Sold by private treaty 06 Jul 2017,20170706,62 Hosking Road,TIDDY WIDDY BEACH,SA,5571,-34.40221,137.938614,3,1,7,House,House,False,700,m2,False
2013452034,listing,/39-bowman-road-ardrossan-sa-5571-2013452034,,is-sold,Sold by private treaty 16 May 2017,20170516,39 Bowman Road,ARDROSSAN,SA,5571,-34.4329872,137.910873,3,1,7,House,House,False,0,m2,False
2013555633,listing,/3-black-point-drive-black-point-sa-5571-2013555633,,is-sold,Sold by private treaty 08 Aug 2017,20170808,3 Black Point Drive,BLACK POINT,SA,5571,-34.6133575,137.893433,,,,VacantLand,Vacant land,False,2125,m2,False
2013637136,listing,/51-high-street-ardrossan-sa-5571-2013637136,,is-sold,Sold by private treaty 31 Jul 2017,20170731,51 High Street,ARDROSSAN,SA,5571,-34.41775,137.921936,3,2,3,House,House,False,833,m2,False
2013684065,listing,/11-allen-road-tiddy-widdy-beach-sa-5571-2013684065,,is-sold,Sold by private treaty 13 Jul 2017,20170713,11 Allen Road,TIDDY WIDDY BEACH,SA,5571,-34.39972,137.937485,3,2,4,House,House,False,740,m2,False
2013764201,listing,/16-lot-11-maitland-road-ardrossan-sa-5571-2013764201,,is-sold,Sold by private treaty 11 Aug 2017,20170811,16 (Lot 11) Maitland Road,ARDROSSAN,SA,5571,-34.4254,137.911591,,,,VacantLand,Vacant land,False,623,m2,False
2013765002,listing,/35-john-street-ardrossan-sa-5571-2013765002,532500,is-sold,Sold by private treaty 18 Aug 2017,20170818,35 John Street,ARDROSSAN,SA,5571,-34.4137573,137.921158,5,3,9,House,House,False,884,m2,False
2013769747,listing,/40-brown-road-james-well-sa-5571-2013769747,,is-sold,Sold by private treaty 11 Aug 2017,20170811,40 Brown Road,JAMES WELL,SA,5571,-34.48505,137.897247,3,1,5,House,House,False,704,m2,False
2013771049,listing,/4-hosking-road-tiddy-widdy-beach-sa-5571-2013771049,330000,is-sold,Sold by private treaty 09 Oct 2017,20171009,4 Hosking Road,TIDDY WIDDY BEACH,SA,5571,-34.39779,137.942139,3,1,4,House,House,False,949,m2,False
2013771082,listing,/7-allen-road-tiddy-widdy-beach-sa-5571-2013771082,255000,is-sold,Sold by private treaty 22 Aug 2017,20170822,7 Allen Road,TIDDY WIDDY BEACH,SA,5571,-34.399395,137.937759,3,2,4,House,House,False,1049,m2,False
2013825007,listing,/17-tiddy-widdy-road-ardrossan-sa-5571-2013825007,335500,is-sold,Sold by private treaty 25 Sep 2017,20170925,17 Tiddy Widdy Road,ARDROSSAN,SA,5571,-34.4188652,137.9238,2,2,3,House,House,False,1011,m2,False
2013840097,listing,/12-black-point-drive-black-point-sa-5571-2013840097,,is-sold,Sold by private treaty 13 Sep 2017,20170913,12 Black Point Drive,BLACK POINT,SA,5571,-34.6133575,137.893433,,,,VacantLand,Vacant land,False,2102,m2,False
2010893604,listing,/12-rogues-point-road-rogues-point-sa-5571-2010893604,290000,is-sold,Sold by private treaty 18 Jan 2017,20170118,12 Rogues Point Road,ROGUES POINT,SA,5571,-34.4941177,137.895554,3,1,6,House,House,False,700,m2,False
2010998602,listing,/20-rowe-terrace-ardrossan-sa-5571-2010998602,395000,is-sold,Sold by private treaty 25 Jan 2017,20170125,20 Rowe Terrace,ARDROSSAN,SA,5571,-34.43207,137.9144,3,2,6,House,House,False,1012,m2,False
2011405256,listing,/5-diagonal-road-ardrossan-sa-5571-2011405256,214500,is-sold,Sold by private treaty 06 Feb 2017,20170206,5 Diagonal Road,ARDROSSAN,SA,5571,-34.4167824,137.917267,3,1,6,House,House,False,0,m2,False
2011888203,listing,/46-east-terrace-ardrossan-sa-5571-2011888203,305000,is-sold,Sold by private treaty 24 Mar 2017,20170324,46 East Terrace,ARDROSSAN,SA,5571,-34.4285927,137.914886,3,1,4,House,House,False,958,m2,False
2012061952,listing,/19-black-point-road-black-point-sa-5571-2012061952,,is-sold,Sold by private treaty 28 Apr 2017,20170428,19 Black Point Road,BLACK POINT,SA,5571,-34.6096077,137.885071,3,1,,House,House,False,0,m2,False
2012648049,listing,/site-24-highview-holiday-village-ardrossan-sa-5571-2012648049,,is-sold,Sold by private treaty 16 Feb 2017,20170216,Site 24 Highview Holiday Village,ARDROSSAN,SA,5571,-34.42307,137.917435,1,1,1,House,House,False,0,m2,False
2012703512,listing,/site-18-highview-holiday-village-ardrossan-sa-5571-2012703512,,is-sold,Sold by private treaty 23 Dec 2016,20161223,SITE 18 Highview Holiday Village,ARDROSSAN,SA,5571,-34.42307,137.917435,1,1,1,House,House,False,0,m2,False
2012833172,listing,/30-barton-road-tiddy-widdy-beach-sa-5571-2012833172,210000,is-sold,Sold by private treaty 16 Feb 2017,20170216,30 Barton Road,TIDDY WIDDY BEACH,SA,5571,-34.40181,137.937683,3,1,3,House,House,False,700,m2,False
2013036940,listing,/15-allen-road-tiddy-widdy-beach-sa-5571-2013036940,295000,is-sold,Sold by private treaty 27 Feb 2017,20170227,15 Allen Road,TIDDY WIDDY BEACH,SA,5571,-34.39999,137.937256,3,1,4,House,House,False,740,m2,False
2013229031,listing,/26-northterrace-ardrossan-sa-5571-2013229031,,is-sold,Sold by private treaty 28 Apr 2017,20170428,26 NorthTerrace,ARDROSSAN,SA,5571,-34.4224739,137.918884,3,1,1,House,House,False,568,m2,False
2013246066,listing,/3-sanders-street-ardrossan-sa-5571-2013246066,395000,is-sold,Sold by private treaty 28 Feb 2017,20170228,3 Sanders Street,ARDROSSAN,SA,5571,-34.42201,137.913391,4,2,5,House,House,False,910,m2,False
2013252158,listing,/site-25-highview-holiday-village-ardrossan-sa-5571-2013252158,,is-sold,Sold by private treaty 14 Feb 2017,20170214,Site 25 Highview Holiday Village,ARDROSSAN,SA,5571,-34.4191055,137.9178,2,1,1,House,House,False,0,m2,False
2013254865,listing,/17-burford-avenue-ardrossan-sa-5571-2013254865,,is-sold,Sold by private treaty 07 Feb 2017,20170207,17 Burford Avenue,ARDROSSAN,SA,5571,-34.42238,137.912537,3,1,5,House,House,False,1047,m2,False
2013267060,listing,/19-tiddy-widdy-road-ardrossan-sa-5571-2013267060,,is-sold,Sold by private treaty 31 Jan 2017,20170131,19 Tiddy Widdy Road,ARDROSSAN,SA,5571,-34.4186,137.9247,2,1,3,House,House,False,860,m2,False
2013275340,listing,/18-john-street-ardrossan-sa-5571-2013275340,,is-sold,Sold by private treaty 12 Jan 2017,20170112,18 John Street,ARDROSSAN,SA,5571,-34.41522,137.921036,3,2,4,House,House,False,824,m2,False
2013279353,listing,/5-maitland-road-ardrossan-sa-5571-2013279353,375000,is-sold,Sold by private treaty 22 Mar 2017,20170322,5 Maitland Road,ARDROSSAN,SA,5571,-34.42535,137.910263,4,2,5,House,House,False,0,m2,False
2013295058,listing,/70-hosking-road-tiddy-widdy-beach-sa-5571-2013295058,,is-sold,Sold by private treaty 21 Feb 2017,20170221,70 Hosking Road,TIDDY WIDDY BEACH,SA,5571,-34.40284,137.938065,3,2,4,House,House,False,700,m2,False
2013323829,listing,/27-west-terrace-ardrossan-sa-5571-2013323829,500000,is-sold,Sold by private treaty 27 Apr 2017,20170427,27 West Terrace,ARDROSSAN,SA,5571,-34.425518,137.914352,4,3,7,House,House,False,0,m2,False
2013470733,listing,/site-22-highview-holiday-village-ardrossan-sa-5571-2013470733,,is-sold,Sold by private treaty 01 May 2017,20170501,Site 22 Highview Holiday Village,ARDROSSAN,SA,5571,-34.423,137.917,1,1,2,House,House,False,0,m2,False
2013471218,listing,/54-bridge-road-ardrossan-sa-5571-2013471218,,is-sold,Sold by private treaty 13 Apr 2017,20170413,54 Bridge Road,ARDROSSAN,SA,5571,-34.4151764,137.922333,3,1,4,House,House,False,950,m2,False
2010690140,listing,/33-brown-road-james-well-sa-5571-2010690140,,is-sold,Sold by private treaty 21 Jul 2016,20160721,33 Brown Road,JAMES WELL,SA,5571,-34.4863434,137.896133,,,,VacantLand,Vacant land,False,900,m2,False
2011072848,listing,/63-james-well-road-james-well-sa-5571-2011072848,303000,is-sold,Sold by private treaty 28 Sep 2016,20160928,63 James Well Road,JAMES WELL,SA,5571,-34.4865723,137.896957,3,1,5,House,House,False,532,m2,False
2011887261,listing,/10-james-well-road-james-well-sa-5571-2011887261,182500,is-sold,Sold by private treaty 02 Jun 2016,20160602,10 James Well Road,JAMES WELL,SA,5571,-34.4783478,137.897614,3,1,3,House,House,False,679,m2,False
2011967702,listing,/lot-101-main-coast-road-pine-point-sa-5571-2011967702,129500,is-sold,Sold by private treaty 26 May 2016,20160526,Lot 101 Main Coast Road,PINE POINT,SA,5571,-34.57976,137.8754,,,,VacantLand,Vacant land,False,1286,m2,False
2012004022,listing,/10-sanders-street-ardrossan-sa-5571-2012004022,250000,is-sold,Sold by private treaty 17 Aug 2016,20160817,10 Sanders Street,ARDROSSAN,SA,5571,-34.4215736,137.912613,3,1,3,House,House,False,376,m2,False
2012037097,listing,/9-bullock-street-ardrossan-sa-5571-2012037097,366000,is-sold,Sold by private treaty 18 Aug 2016,20160818,9 Bullock Street,ARDROSSAN,SA,5571,-34.42307,137.917435,3,2,5,House,House,False,693,m2,False
2012181794,listing,/2-henderson-court-ardrossan-sa-5571-2012181794,,is-sold,Sold by private treaty 31 Oct 2016,20161031,2 Henderson Court,ARDROSSAN,SA,5571,-34.4285049,137.913376,4,2,3,House,House,False,705,m2,False
2012210912,listing,/unit-7-lot-7-adam-street-ardrossan-sa-5571-2012210912,,is-sold,Sold by private treaty 09 Sep 2016,20160909,Unit 7 / Lot 7 Adam Street,ARDROSSAN,SA,5571,-34.4303932,137.914063,3,1,2,Townhouse,Townhouse,False,222,m2,False
2012424588,listing,/11-beach-road-pine-point-sa-5571-2012424588,375000,is-sold,Sold by private treaty 28 Jul 2016,20160728,11 Beach Road,PINE POINT,SA,5571,-34.5679665,137.882217,4,2,5,House,House,False,600,m2,False
2012501964,listing,/site-21-highview-holiday-village-ardrossan-sa-5571-2012501964,,is-sold,Sold by private treaty 10 Jun 2016,20160610,Site 21 Highview Holiday Village,ARDROSSAN,SA,5571,-34.42307,137.917435,1,1,1,House,House,False,0,m2,False
2012531196,listing,/18-tiddy-widdy-beach-road-tiddy-widdy-beach-sa-5571-2012531196,,is-sold,Sold by private treaty 12 Dec 2016,20161212,18 Tiddy Widdy Beach Road,TIDDY WIDDY BEACH,SA,5571,-34.4009933,137.940186,3,1,3,House,House,False,725,m2,False
2012573879,listing,/20-esplanade-pine-point-sa-5571-2012573879,270000,is-sold,Sold by private treaty 29 Jul 2016,20160729,20 Esplanade,PINE POINT,SA,5571,-34.5708733,137.8816,3,1,1,House,House,False,0,m2,False
2012598686,listing,/39-tiddy-widdy-beach-road-tiddy-widdy-beach-sa-5571-2012598686,363000,is-sold,Sold by private treaty 29 Jun 2016,20160629,39 Tiddy Widdy Beach Road,TIDDY WIDDY BEACH,SA,5571,-34.4038239,137.937759,3,2,8,House,House,False,713,m2,False
2012624528,listing,/site-27-highview-holiday-village-ardrossan-sa-5571-2012624528,,is-sold,Sold by private treaty 01 Jul 2016,20160701,Site 27 Highview Holiday Village,ARDROSSAN,SA,5571,-34.42307,137.917435,1,1,1,House,House,False,0,m2,False
2012626976,listing,/23b-main-coast-road-ardrossan-sa-5571-2012626976,250000,is-sold,Sold by private treaty 18 May 2016,20160518,23B Main Coast Road,ARDROSSAN,SA,5571,-34.4242325,137.909821,2,1,4,House,House,False,900,m2,False
2012879325,listing,/30-arthurton-road-ardrossan-sa-5571-2012879325,,is-sold,Sold at auction 24 Aug 2016,20160824,30 Arthurton Road,ARDROSSAN,SA,5571,-34.4095573,137.9129,4,1,,AcreageSemiRural,Acreage / Semi-Rural,True,1.36,ha,False
2012906672,listing,/1-burford-avenue-ardrossan-sa-5571-2012906672,215000,is-sold,Sold by private treaty 11 Nov 2016,20161111,1 Burford Avenue,ARDROSSAN,SA,5571,-34.42088,137.913254,3,1,1,House,House,False,891,m2,False
2013040946,listing,/1-bridge-road-ardrossan-sa-5571-2013040946,332000,is-sold,Sold by private treaty 29 Nov 2016,20161129,1 Bridge Road,ARDROSSAN,SA,5571,-34.4195938,137.919876,3,2,6,House,House,False,0,m2,False
2013068550,listing,/21-main-coast-road-ardrossan-sa-5571-2013068550,,is-sold,Sold by private treaty 14 Oct 2016,20161014,21 Main Coast Road,ARDROSSAN,SA,5571,-34.4233932,137.910538,4,1,6,House,House,False,1409,m2,False
2013127245,listing,/site-15-highview-holiday-village-15-highview-road-ardrossan-sa-5571-2013127245,,is-sold,Sold by private treaty 11 Nov 2016,20161111,"Site 15 Highview Holiday Village, 15 Highview Road",ARDROSSAN,SA,5571,-30.00023,136.209152,2,1,1,House,House,False,0,m2,False
2011082433,listing,/19-hosking-road-tiddy-widdy-beach-sa-5571-2011082433,245000,is-sold,Sold by private treaty 23 Dec 2015,20151223,19 Hosking Road,TIDDY WIDDY BEACH,SA,5571,-34.39908,137.940567,4,1,4,House,House,False,693,m2,False
2011230468,listing,/22-allen-road-tiddy-widdy-beach-sa-5571-2011230468,150000,is-sold,Sold by private treaty 21 Mar 2016,20160321,22 Allen Road,TIDDY WIDDY BEACH,SA,5571,-34.4011154,137.937012,2,1,6,House,House,False,748,m2,False
2011231467,listing,/712-outlook-road-black-point-sa-5571-2011231467,,is-sold,Sold by private treaty 28 Oct 2015,20151028,712 Outlook Road,BLACK POINT,SA,5571,-34.6169968,137.9041,,,,VacantLand,Vacant land,False,960,m2,False
2011572239,listing,/31-high-street-ardrossan-sa-5571-2011572239,,is-sold,Sold at auction 27 Feb 2016,20160227,31 High Street,ARDROSSAN,SA,5571,-34.41644,137.919128,4,1,5,House,House,False,990,m2,False
2011646519,listing,/16a-rowe-terrace-ardrossan-sa-5571-2011646519,325000,is-sold,Sold by private treaty 09 Nov 2015,20151109,16a Rowe Terrace,ARDROSSAN,SA,5571,-34.4316978,137.914383,3,1,2,House,House,False,0,m2,False
2011650274,listing,/71-main-coast-road-pine-point-sa-5571-2011650274,400000,is-sold,Sold by private treaty 07 Apr 2016,20160407,71 Main Coast Road,PINE POINT,SA,5571,-34.5764275,137.87767,3,2,2,House,House,False,900,m2,False
2011665249,listing,/31-highview-road-ardrossan-sa-5571-2011665249,395000,is-sold,Sold by private treaty 08 Mar 2016,20160308,31 Highview Road,ARDROSSAN,SA,5571,-34.4154778,137.916718,3,2,5,House,House,False,1060,m2,False
2011672549,listing,/41-grahn-road-james-well-sa-5571-2011672549,400000,is-sold,Sold by private treaty 10 Mar 2016,20160310,41 Grahn Road,JAMES WELL,SA,5571,-34.4890366,137.89476,4,2,5,House,House,False,902,m2,False
2012041894,listing,/5-main-street-pine-point-sa-5571-2012041894,260000,is-sold,Sold by private treaty 12 Feb 2016,20160212,5 Main Street,PINE POINT,SA,5571,-34.57285,137.880386,2,1,2,House,House,False,0,m2,False
2012060867,listing,/lot-142-black-point-drive-black-point-sa-5571-2012060867,,is-sold,Sold by private treaty 10 Feb 2016,20160210,Lot/142 Black Point Drive,BLACK POINT,SA,5571,-34.6152954,137.904175,1,1,,House,House,False,0,m2,False
2012080109,listing,/34-tiddy-widdy-beach-road-tiddy-widdy-beach-sa-5571-2012080109,329000,is-sold,Sold by private treaty 22 Mar 2016,20160322,34 Tiddy Widdy Beach Road,TIDDY WIDDY BEACH,SA,5571,-34.4031754,137.938309,2,1,6,House,House,False,711,m2,False
2012252058,listing,/99-103-main-coast-road-pine-point-sa-5571-2012252058,447500,is-sold,Sold at auction 10 Nov 2015,20151110,99-103 Main Coast Road,PINE POINT,SA,5571,-34.5797844,137.875854,,,,VacantLand,Vacant land,False,3842,m2,False
2012343949,listing,/33-tiddy-widdy-road-ardrossan-sa-5571-2012343949,295000,is-sold,Sold by private treaty 29 Mar 2016,20160329,33 Tiddy Widdy Road,ARDROSSAN,SA,5571,-34.4174042,137.925415,3,1,6,House,House,False,0,m2,False
2012362314,listing,/6-davey-road-rogues-point-sa-5571-2012362314,485000,is-sold,Sold by private treaty 10 Dec 2015,20151210,6 Davey Road,ROGUES POINT,SA,5571,-34.49469,137.89711,3,2,2,House,House,False,428,m2,False
2012371703,listing,/5-earle-street-pine-point-sa-5571-2012371703,295000,is-sold,Sold by private treaty 21 Mar 2016,20160321,5 Earle Street,PINE POINT,SA,5571,-34.5666733,137.882813,4,1,4,House,House,False,702,m2,False
2012373414,listing,/21-barton-road-tiddy-widdy-beach-sa-5571-2012373414,238000,is-sold,Sold by private treaty 22 Dec 2015,20151222,21 Barton Road,TIDDY WIDDY BEACH,SA,5571,-34.4015923,137.937134,3,1,3,House,House,False,738,m2,False
2012404030,listing,/1-highview-road-ardrossan-sa-5571-2012404030,220000,is-sold,Sold by private treaty 01 Apr 2016,20160401,1 Highview Road,ARDROSSAN,SA,5571,-34.41181,137.915833,3,1,3,House,House,False,713,m2,False
2012409996,listing,/20-east-terrace-ardrossan-sa-5571-2012409996,680000,is-sold,Sold prior to auction 15 Jan 2016,20160115,20 East Terrace,ARDROSSAN,SA,5571,-34.4245644,137.918808,4,3,5,House,House,False,1643,m2,False
2012467268,listing,/710-standpipe-road-cunningham-sa-5571-2012467268,425000,is-sold,Sold by private treaty 12 Jan 2016,20160112,710 Standpipe Road,CUNNINGHAM,SA,5571,-34.41815,137.83873,4,1,13,House,House,True,10000,m2,False
2012501993,listing,/site-14-highview-holiday-village-ardrossan-sa-5571-2012501993,,is-sold,Sold by private treaty 11 Mar 2016,20160311,Site 14 Highview Holiday Village,ARDROSSAN,SA,5571,-34.42307,137.917435,1,1,1,House,House,False,0,m2,False
2010966556,listing,/711-outlook-road-black-point-sa-5571-2010966556,505000,is-sold,Sold by private treaty 09 Aug 2015,20150809,711 Outlook Road,BLACK POINT,SA,5571,-34.6005363,137.875488,4,2,2,House,House,False,863,m2,False
2011049464,listing,/9-highview-holiday-village-ardrossan-sa-5571-2011049464,,is-sold,Sold by private treaty 12 Mar 2015,20150312,9 Highview Holiday Village,ARDROSSAN,SA,5571,-34.42307,137.917435,1,1,2,House,House,False,0,m2,False
2011231464,listing,/lot-732-outlook-road-black-point-sa-5571-2011231464,,is-sold,Sold by private treaty 17 Aug 2015,20150817,Lot 732 Outlook Road,BLACK POINT,SA,5571,-34.6155777,137.903625,,,,VacantLand,Vacant land,False,1062,m2,False
2011326483,listing,/23-bridge-road-ardrossan-sa-5571-2011326483,177000,is-sold,Sold by private treaty 13 Apr 2015,20150413,23 Bridge Road,ARDROSSAN,SA,5571,-34.41646,137.920563,3,1,2,House,House,False,858,m2,False
2011393964,listing,/7-main-street-pine-point-sa-5571-2011393964,260000,is-sold,Sold by private treaty 25 Mar 2015,20150325,7 Main Street,PINE POINT,SA,5571,-34.5727234,137.880447,1,1,3,House,House,False,474,m2,False
2011609947,listing,/14-south-terrace-ardrossan-sa-5571-2011609947,255000,is-sold,Sold by private treaty 20 Aug 2015,20150820,14 South Terrace,ARDROSSAN,SA,5571,-34.4282,137.914322,3,1,6,House,House,False,1060,m2,False
2011626578,listing,/14-davey-road-rogues-point-sa-5571-2011626578,435000,is-sold,Sold by private treaty 19 Mar 2015,20150319,14 Davey Road,ROGUES POINT,SA,5571,-34.495224,137.896515,3,1,1,House,House,False,369,m2,False
2011668201,listing,/13-bowman-road-ardrossan-sa-5571-2011668201,165000,is-sold,Sold by private treaty 15 May 2015,20150515,13 Bowman Road,ARDROSSAN,SA,5571,-34.43092,137.91304,2,1,5,House,House,False,787,m2,False
2011671358,listing,/2-third-street-ardrossan-sa-5571-2011671358,197500,is-sold,Sold by private treaty 07 Jul 2015,20150707,2 Third Street,ARDROSSAN,SA,5571,-34.42593,137.913742,3,1,,House,House,False,914,m2,False
2011724540,listing,/10-rowe-terrace-ardrossan-sa-5571-2011724540,465000,is-sold,Sold by private treaty 20 Aug 2015,20150820,10 Rowe Terrace,ARDROSSAN,SA,5571,-34.4309578,137.914261,3,2,7,House,House,False,1160,m2,False
2011730407,listing,/29-31-first-street-ardrossan-sa-5571-2011730407,,is-sold,Sold by private treaty 29 Apr 2015,20150429,29-31 First Street,ARDROSSAN,SA,5571,-34.42371,137.919067,3,1,3,House,House,False,959,m2,False
2011735195,listing,/28-davey-road-rogues-point-sa-5571-2011735195,700000,is-sold,Sold by private treaty 14 Apr 2015,20150414,28 Davey Road,ROGUES POINT,SA,5571,-34.4959259,137.89566,3,2,2,House,House,False,363,m2,False
2011737323,listing,/13-james-well-road-james-well-sa-5571-2011737323,,is-sold,Sold by private treaty 17 Aug 2015,20150817,13 James Well Road,JAMES WELL,SA,5571,-34.4782372,137.89859,,,,VacantLand,Vacant land,False,748,m2,False
2011768971,listing,/site-11-highview-holiday-village-ardrossan-sa-5571-2011768971,,is-sold,Sold by private treaty 26 Jun 2015,20150626,Site 11 Highview Holiday Village,ARDROSSAN,SA,5571,-34.42307,137.917435,2,1,3,House,House,False,0,m2,False
2011871082,listing,/18-highview-holiday-village-ardrossan-sa-5571-2011871082,,is-sold,Sold by private treaty 15 Apr 2015,20150415,18 Highview Holiday Village,ARDROSSAN,SA,5571,-34.42307,137.917435,1,1,1,House,House,False,0,m2,False
2011884784,listing,/2-north-terrace-ardrossan-sa-5571-2011884784,275000,is-sold,Sold at auction 30 Jun 2015,20150630,2 North Terrace,ARDROSSAN,SA,5571,-34.42148,137.916153,3,2,3,House,House,False,1010,m2,False
2011943368,listing,/19-rose-court-highview-holiday-village-ardrossan-sa-5571-2011943368,,is-sold,Sold by private treaty 07 Jul 2015,20150707,19 Rose Court Highview Holiday Village,ARDROSSAN,SA,5571,-34.42307,137.917435,3,1,3,House,House,False,0,m2,False
2011989329,listing,/10a-john-street-ardrossan-sa-5571-2011989329,290000,is-sold,Sold by private treaty 18 Aug 2015,20150818,10A JOHN STREET,ARDROSSAN,SA,5571,-34.4158134,137.9204,3,1,4,House,House,False,860,m2,False
2012093851,listing,/37-bridge-road-ardrossan-sa-5571-2012093851,192500,is-sold,Sold by private treaty 22 Oct 2015,20151022,37 Bridge Road,ARDROSSAN,SA,5571,-34.4152756,137.921188,3,1,3,House,House,False,950,m2,False
2012225471,listing,/41-chapman-road-rogues-point-sa-5571-2012225471,630000,is-sold,Sold by private treaty 15 Oct 2015,20151015,41 Chapman Road,ROGUES POINT,SA,5571,-34.4975967,137.8933,3,2,4,House,House,False,658,m2,False
2010257700,listing,/14-maitland-road-ardrossan-sa-5571-2010257700,355000,is-sold,Sold by private treaty 28 Jan 2015,20150128,14 Maitland Road,ARDROSSAN,SA,5571,-34.4261551,137.910767,3,3,2,House,House,False,792,m2,False
