id,listingType,url,price,tagClassName,tagText,date,street,suburb,state,postcode,lat,lng,beds,baths,parking,propertyType,propertyTypeFormatted,isRural,landSize,landUnit,isRetirement
2018187035,listing,/169-gregory-street-wembley-wa-6014-2018187035,,is-sold,Sold by private treaty 28 Feb 2023,20230228,169 Gregory Street,WEMBLEY,WA,6014,-31.9280357,115.820923,4,4,4,House,House,False,645,m2,False
2018222763,listing,/39-holland-street-wembley-wa-6014-2018222763,,is-sold,Sold by private treaty 28 Feb 2023,20230228,39 Holland Street,WEMBLEY,WA,6014,-31.9372959,115.813774,4,4,4,House,House,False,688,m2,False
2018272499,listing,/42-stadium-drive-floreat-wa-6014-2018272499,,is-sold,Sold by private treaty 28 Feb 2023,20230228,42 Stadium Drive,FLOREAT,WA,6014,-31.946209,115.789978,3,3,3,House,House,False,256,m2,False
2017690871,listing,/260-selby-street-wembley-wa-6014-2017690871,,is-sold,Sold by private treaty 06 Feb 2023,20230206,260 Selby Street,WEMBLEY,WA,6014,-31.9340553,115.804367,4,2,5,House,House,False,602,m2,False
2018047354,listing,/6-13-jersey-street-jolimont-wa-6014-2018047354,,is-sold,Sold by private treaty 17 Feb 2023,20230217,6/13 Jersey Street,JOLIMONT,WA,6014,-31.9484482,115.811348,3,1,2,Townhouse,Townhouse,False,163,m2,False
2018120268,listing,/5-reserve-street-wembley-wa-6014-2018120268,2080000,is-sold,Sold by private treaty 06 Feb 2023,20230206,5 Reserve Street,WEMBLEY,WA,6014,-31.93986,115.806259,5,2,2,House,House,False,1088,m2,False
2018126471,listing,/12a-19-herdsman-parade-wembley-wa-6014-2018126471,,is-sold,Sold by private treaty 06 Mar 2023,20230306,12A/19 Herdsman Parade,WEMBLEY,WA,6014,-31.9253635,115.815109,2,1,1,ApartmentUnitFlat,Apartment / Unit / Flat,False,56,m2,False
2018222584,listing,/7-916-hay-st-jolimont-wa-6014-2018222584,615000,is-sold,Sold by private treaty 24 Feb 2023,20230224,7/916 Hay St,JOLIMONT,WA,6014,-31.95205,115.854279,3,1,2,Townhouse,Townhouse,False,0,m2,False
2018231653,listing,/318-1-finishline-view-floreat-wa-6014-2018231653,1410000,is-sold,Sold by private treaty 17 Feb 2023,20230217,318/1 Finishline View,FLOREAT,WA,6014,-31.9466267,115.787949,3,2,2,ApartmentUnitFlat,Apartment / Unit / Flat,False,0,m2,False
2018244889,listing,/18-shannon-street-floreat-wa-6014-2018244889,3425000,is-sold,Sold by private treaty 10 Feb 2023,20230210,18 Shannon Street,FLOREAT,WA,6014,-31.9356,115.784447,4,2,2,House,House,False,0,m2,False
2018245534,listing,/17-nanson-street-wembley-wa-6014-2018245534,1975000,is-sold,Sold by private treaty 20 Feb 2023,20230220,17 Nanson Street,WEMBLEY,WA,6014,-31.9390278,115.814873,4,3,3,House,House,False,670,m2,False
2018251236,listing,/14-645-hay-street-jolimont-wa-6014-2018251236,,is-sold,Sold by private treaty 17 Feb 2023,20230217,14/645 Hay Street,JOLIMONT,WA,6014,-31.9480019,115.810257,2,1,1,ApartmentUnitFlat,Apartment / Unit / Flat,False,0,m2,True
2018257336,listing,/326-1-finishline-view-floreat-wa-6014-2018257336,1035000,is-sold,Sold by private treaty 17 Feb 2023,20230217,326/1 Finishline View,FLOREAT,WA,6014,-31.9466267,115.787949,2,2,2,ApartmentUnitFlat,Apartment / Unit / Flat,False,0,m2,False
2018257496,listing,/11-211-213-cambridge-street-wembley-wa-6014-2018257496,,is-sold,Sold by private treaty 10 Feb 2023,20230210,11/211-213 Cambridge Street,WEMBLEY,WA,6014,-31.9410973,115.822021,2,1,1,ApartmentUnitFlat,Apartment / Unit / Flat,False,55,m2,False
2018264573,listing,/155a-jersey-street-wembley-wa-6014-2018264573,1200000,is-sold,Sold by private treaty 21 Feb 2023,20230221,155A Jersey Street,WEMBLEY,WA,6014,-31.93979,115.811241,3,1,2,House,House,False,516,m2,False
2018280657,listing,/unit-45-93-herdsman-parade-wembley-wa-6014-2018280657,,is-sold,Sold 11 Feb 2023,20230211,UNIT 45/93 HERDSMAN PARADE,WEMBLEY,WA,6014,-31.930069,115.810432,1,1,1,ApartmentUnitFlat,Apartment / Unit / Flat,False,47,m2,False
2018289381,listing,/1-75-herdsman-parade-wembley-wa-6014-2018289381,270135,is-sold,Sold by private treaty 07 Feb 2023,20230207,1/75 Herdsman Parade,WEMBLEY,WA,6014,-31.9299641,115.812668,2,1,1,ApartmentUnitFlat,Apartment / Unit / Flat,False,0,m2,False
2018310024,listing,/6-fox-green-floreat-wa-6014-2018310024,1390000,is-sold,Sold by private treaty 03 Feb 2023,20230203,6 Fox Green,FLOREAT,WA,6014,-31.9469833,115.796227,3,2,2,House,House,False,481,m2,False
2018311917,listing,/9-89-herdsman-parade-wembley-wa-6014-2018311917,798500,is-sold,Sold by private treaty 09 Feb 2023,20230209,9/89 Herdsman Parade,WEMBLEY,WA,6014,-31.9304142,115.811165,3,2,2,Townhouse,Townhouse,False,0,m2,False
2018329071,listing,/75-newry-street-floreat-wa-6014-2018329071,1685000,is-sold,Sold by private treaty 13 Feb 2023,20230213,75 Newry Street,FLOREAT,WA,6014,-31.9400063,115.795563,3,2,2,House,House,False,837,m2,False
2017792006,listing,/19-1-herdsman-parade-wembley-wa-6014-2017792006,,is-sold,Sold by private treaty 27 Jan 2023,20230127,19/1 Herdsman Parade,WEMBLEY,WA,6014,-31.92482,115.81646,2,1,1,ApartmentUnitFlat,Apartment / Unit / Flat,False,61,m2,False
2017792007,listing,/19-1-herdsman-parade-wembley-wa-6014-2017792007,,is-sold,Sold by private treaty 27 Jan 2023,20230127,19/1 Herdsman Parade,WEMBLEY,WA,6014,-31.92482,115.81646,2,1,1,ApartmentUnitFlat,Apartment / Unit / Flat,False,61,m2,False
2017915255,listing,/137-6-tighe-street-jolimont-wa-6014-2017915255,663000,is-sold,Sold by private treaty 25 Dec 2022,20221225,137/6 Tighe Street,JOLIMONT,WA,6014,-31.9453812,115.813354,2,2,1,House,House,False,0,m2,True
2018008297,listing,/17-hortus-way-jolimont-wa-6014-2018008297,,is-sold,Sold by private treaty 21 Dec 2022,20221221,17 Hortus Way,JOLIMONT,WA,6014,-31.9430714,115.808159,4,3,2,House,House,False,312,m2,False
2018044237,listing,/2-2-dynevor-rise-floreat-wa-6014-2018044237,675000,is-sold,Sold by private treaty 20 Jan 2023,20230120,2/2 Dynevor Rise,FLOREAT,WA,6014,-31.94773,115.790642,2,2,2,ApartmentUnitFlat,Apartment / Unit / Flat,False,129,m2,False
2018106746,listing,/9-howson-approach-floreat-wa-6014-2018106746,2050000,is-sold,Sold by private treaty 20 Jan 2023,20230120,9 Howson Approach,FLOREAT,WA,6014,-31.9444141,115.788513,4,3,2,House,House,False,400,m2,False
2018119516,listing,/9-370-376-cambridge-street-wembley-wa-6014-2018119516,340000,is-sold,Sold by private treaty 06 Jan 2023,20230106,9/370-376 Cambridge Street,WEMBLEY,WA,6014,-31.9404526,115.807053,2,1,1,ApartmentUnitFlat,Apartment / Unit / Flat,False,0,m2,False
2018136455,listing,/2-1-jersey-street-jolimont-wa-6014-2018136455,295000,is-sold,Sold by private treaty 09 Jan 2023,20230109,2/1 Jersey Street,JOLIMONT,WA,6014,-31.9495,115.811226,1,1,1,ApartmentUnitFlat,Apartment / Unit / Flat,False,52,m2,False
2018159080,listing,/25-2-dynevor-rise-floreat-wa-6014-2018159080,700000,is-sold,Sold by private treaty 29 Dec 2022,20221229,25/2 Dynevor Rise,FLOREAT,WA,6014,-31.9477272,115.790634,2,2,2,ApartmentUnitFlat,Apartment / Unit / Flat,False,0,m2,False
2018165691,listing,/162-grantham-street-floreat-wa-6014-2018165691,2125000,is-sold,Sold by private treaty 31 Jan 2023,20230131,162 Grantham Street,FLOREAT,WA,6014,-31.9338837,115.791977,4,2,4,House,House,False,835,m2,False
2018204271,listing,/28-50-moondine-drive-wembley-wa-6014-2018204271,296000,is-sold,Sold by private treaty 13 Jan 2023,20230113,28/50 Moondine Drive,WEMBLEY,WA,6014,-31.9291649,115.811447,2,1,1,House,House,False,0,m2,False
2018205518,listing,/103-nanson-street-wembley-wa-6014-2018205518,1499000,is-sold,Sold by private treaty 19 Jan 2023,20230119,103 Nanson Street,WEMBLEY,WA,6014,-31.93269,115.815041,4,1,1,House,House,False,645,m2,False
2018208202,listing,/45b-keane-street-wembley-wa-6014-2018208202,1368000,is-sold,Sold by private treaty 31 Jan 2023,20230131,45B Keane Street,WEMBLEY,WA,6014,-31.93569,115.805031,4,2,2,House,House,False,542,m2,False
2018213809,listing,/35-409-cambridge-street-wembley-wa-6014-2018213809,,is-sold,Sold by private treaty 23 Jan 2023,20230123,35/409 Cambridge Street,WEMBLEY,WA,6014,-31.9411221,115.804642,1,1,2,ApartmentUnitFlat,Apartment / Unit / Flat,False,46,m2,False
2018216089,listing,/116-harborne-street-wembley-wa-6014-2018216089,1325000,is-sold,Sold by private treaty 11 Jan 2023,20230111,116 Harborne Street,WEMBLEY,WA,6014,-31.9323845,115.820267,3,2,4,House,House,False,645,m2,False
2018229955,listing,/18-2-burvill-drive-floreat-wa-6014-2018229955,480000,is-sold,Sold by private treaty 30 Jan 2023,20230130,18/2 Burvill Drive,FLOREAT,WA,6014,-31.9472618,115.789047,1,1,1,House,House,False,0,m2,False
2018230577,listing,/15-nanson-street-wembley-wa-6014-2018230577,1830000,is-sold,Sold by private treaty 04 Jan 2023,20230104,15 Nanson Street,WEMBLEY,WA,6014,-31.93917,115.814896,4,2,1,House,House,False,670,m2,False
2018232356,listing,/174-harborne-street-wembley-wa-6014-2018232356,,is-sold,Sold by private treaty 17 Jan 2023,20230117,174 Harborne Street,WEMBLEY,WA,6014,-31.9283047,115.820358,3,1,5,House,House,False,645,m2,False
2018235452,listing,/52-berkeley-crescent-floreat-wa-6014-2018235452,2400000,is-sold,Sold by private treaty 31 Jan 2023,20230131,52 Berkeley Crescent,FLOREAT,WA,6014,-31.9350376,115.79258,4,2,2,House,House,False,880,m2,False
2018238508,listing,/3b-49-herdsman-parade-wembley-wa-6014-2018238508,275000,is-sold,Sold by private treaty 22 Dec 2022,20221222,3B/49 Herdsman Parade,WEMBLEY,WA,6014,-31.9280262,115.81395,2,1,2,ApartmentUnitFlat,Apartment / Unit / Flat,False,151,m2,False
2017950145,listing,/7-2-dynevor-rise-floreat-wa-6014-2017950145,630000,is-sold,Sold by private treaty 28 Nov 2022,20221128,7/2 Dynevor Rise,FLOREAT,WA,6014,-31.9477272,115.790634,2,2,2,ApartmentUnitFlat,Apartment / Unit / Flat,False,0,m2,False
2017953146,listing,/2-53-59-stadium-drive-floreat-wa-6014-2017953146,,is-sold,Sold by private treaty 02 Dec 2022,20221202,2/53-59 Stadium Drive,FLOREAT,WA,6014,-31.9455376,115.79039,3,3,2,Townhouse,Townhouse,False,90,m2,False
2018049913,listing,/54-moray-avenue-floreat-wa-6014-2018049913,1780000,is-sold,Sold by private treaty 05 Dec 2022,20221205,54 Moray Avenue,FLOREAT,WA,6014,-31.929863,115.796638,4,3,2,House,House,False,809,m2,False
2018107682,listing,/18-shann-street-floreat-wa-6014-2018107682,2150000,is-sold,Sold by private treaty 30 Nov 2022,20221130,18 Shann Street,FLOREAT,WA,6014,-31.9461365,115.796051,4,3,2,House,House,False,875,m2,False
2018116243,listing,/27-linden-gardens-floreat-wa-6014-2018116243,,is-sold,Sold by private treaty 12 Dec 2022,20221212,27 Linden Gardens,FLOREAT,WA,6014,-31.9356918,115.79702,6,4,2,House,House,False,830,m2,False
2018119195,listing,/63-donegal-road-floreat-wa-6014-2018119195,2135000,is-sold,Sold by private treaty 05 Dec 2022,20221205,63 Donegal Road,FLOREAT,WA,6014,-31.9322815,115.781029,4,2,2,House,House,False,850,m2,False
2018131602,listing,/412-1-finishline-view-floreat-wa-6014-2018131602,,is-sold,Sold by private treaty 28 Nov 2022,20221128,412/1 Finishline View,FLOREAT,WA,6014,-31.9466267,115.787949,3,3,2,ApartmentUnitFlat,Apartment / Unit / Flat,False,0,m2,False
2018145321,listing,/12-307-cambridge-street-wembley-wa-6014-2018145321,410000,is-sold,Sold by private treaty 08 Dec 2022,20221208,12/307 Cambridge Street,WEMBLEY,WA,6014,-31.9411964,115.814026,2,1,1,ApartmentUnitFlat,Apartment / Unit / Flat,False,60,m2,False
2018145327,listing,/12-307-cambridge-street-wembley-wa-6014-2018145327,410000,is-sold,Sold by private treaty 08 Dec 2022,20221208,12/307 Cambridge Street,WEMBLEY,WA,6014,-31.9411964,115.814026,2,1,1,ApartmentUnitFlat,Apartment / Unit / Flat,False,60,m2,False
2018145468,listing,/10-grasby-street-floreat-wa-6014-2018145468,,is-sold,Sold by private treaty 14 Dec 2022,20221214,10 Grasby Street,FLOREAT,WA,6014,-31.94673,115.799423,3,2,3,House,House,False,835,m2,False
2018151485,listing,/69-holland-street-wembley-wa-6014-2018151485,1750000,is-sold,Sold by private treaty 14 Dec 2022,20221214,69 Holland Street,WEMBLEY,WA,6014,-31.9351673,115.813751,4,3,5,House,House,False,653,m2,False
2018174983,listing,/1-1-jersey-street-jolimont-wa-6014-2018174983,,is-sold,Sold by private treaty 28 Nov 2022,20221128,1/1 Jersey Street,JOLIMONT,WA,6014,-31.9495068,115.811211,1,1,1,ApartmentUnitFlat,Apartment / Unit / Flat,False,51,m2,False
2018175635,listing,/40-kirkdale-avenue-floreat-wa-6014-2018175635,1500000,is-sold,Sold by private treaty 16 Dec 2022,20221216,40 Kirkdale Avenue,FLOREAT,WA,6014,-31.9326019,115.793694,3,1,2,House,House,False,837,m2,False
2018207389,listing,/9-kinross-crescent-floreat-wa-6014-2018207389,,is-sold,Sold by private treaty 29 Nov 2022,20221129,9 Kinross Crescent,FLOREAT,WA,6014,-31.9320869,115.791954,4,2,2,House,House,False,809,m2,False
2018211841,listing,/12-ferndale-street-floreat-wa-6014-2018211841,3051000,is-sold,Sold by private treaty 02 Dec 2022,20221202,12 Ferndale Street,FLOREAT,WA,6014,-31.9429722,115.790962,5,2,2,House,House,False,809,m2,False
2018216609,listing,/480-cambridge-street-floreat-wa-6014-2018216609,,is-sold,Sold by private treaty 03 Dec 2022,20221203,480 Cambridge Street,FLOREAT,WA,6014,-31.9405117,115.797523,3,1,1,House,House,False,921,m2,False
2018227410,listing,/217-jersey-street-wembley-wa-6014-2018227410,1640000,is-sold,Sold at auction 15 Dec 2022,20221215,217 Jersey Street,WEMBLEY,WA,6014,-31.9339237,115.811371,4,2,4,House,House,False,721,m2,False
2018228111,listing,/198-jersey-street-wembley-wa-6014-2018228111,,is-sold,Sold by private treaty 07 Dec 2022,20221207,198 Jersey Street,WEMBLEY,WA,6014,-31.9358177,115.812088,5,3,1,House,House,False,941,m2,False
2018235501,listing,/2-303-cambridge-street-wembley-wa-6014-2018235501,,is-sold,Sold by private treaty 06 Dec 2022,20221206,2/303 Cambridge Street,WEMBLEY,WA,6014,-31.94105,115.814423,1,1,1,ApartmentUnitFlat,Apartment / Unit / Flat,False,41,m2,False
2018235504,listing,/2-303-cambridge-street-wembley-wa-6014-2018235504,,is-sold,Sold by private treaty 06 Dec 2022,20221206,2/303 Cambridge Street,WEMBLEY,WA,6014,-31.94105,115.814423,1,1,1,ApartmentUnitFlat,Apartment / Unit / Flat,False,41,m2,False
2018028651,listing,/33e-47-herdsman-parade-wembley-wa-6014-2018028651,,is-sold,Sold by private treaty 11 Nov 2022,20221111,33E/47 Herdsman Parade,WEMBLEY,WA,6014,-31.92716,115.814163,2,1,1,ApartmentUnitFlat,Apartment / Unit / Flat,False,0,m2,False
2018033163,listing,/20-highbury-street-floreat-wa-6014-2018033163,2530000,is-sold,Sold at auction 16 Nov 2022,20221116,20 Highbury Street,FLOREAT,WA,6014,-31.9357529,115.800644,4,2,2,House,House,False,1019,m2,False
2018033792,listing,/111-71-ruislip-street-wembley-wa-6014-2018033792,840000,is-sold,Sold by private treaty 10 Nov 2022,20221110,111/71 Ruislip Street,WEMBLEY,WA,6014,-31.9380035,115.82415,3,1,2,House,House,False,0,m2,True
2018084205,listing,/28-linden-gardens-floreat-wa-6014-2018084205,,is-sold,Sold by private treaty 14 Nov 2022,20221114,28 Linden Gardens,FLOREAT,WA,6014,-31.9358826,115.797668,4,2,4,House,House,False,756,m2,False
2018084803,listing,/29-kinross-crescent-floreat-wa-6014-2018084803,,is-sold,Sold by private treaty 18 Nov 2022,20221118,29 Kinross Crescent,FLOREAT,WA,6014,-31.92998,115.792023,4,2,2,House,House,False,809,m2,False
2018103055,listing,/36-216-cambridge-street-wembley-wa-6014-2018103055,238000,is-sold,Sold by private treaty 28 Nov 2022,20221128,36/216 Cambridge Street,WEMBLEY,WA,6014,-31.9405251,115.8217,1,1,1,ApartmentUnitFlat,Apartment / Unit / Flat,False,0,m2,False
2018107069,listing,/14d-49-herdsman-parade-wembley-wa-6014-2018107069,211000,is-sold,Sold by private treaty 10 Nov 2022,20221110,14D/49 Herdsman Parade,WEMBLEY,WA,6014,-31.9280262,115.81395,2,1,1,ApartmentUnitFlat,Apartment / Unit / Flat,False,0,m2,False
2018108735,listing,/77-ruislip-street-wembley-wa-6014-2018108735,,is-sold,Sold by private treaty 23 Nov 2022,20221123,77 Ruislip Street,WEMBLEY,WA,6014,-31.9374886,115.821556,3,1,3,House,House,False,683,m2,False
2018117764,listing,/105a-19-herdsman-parade-wembley-wa-6014-2018117764,240000,is-sold,Sold by private treaty 26 Nov 2022,20221126,105A/19 Herdsman Parade,WEMBLEY,WA,6014,-31.9253635,115.815109,2,1,1,ApartmentUnitFlat,Apartment / Unit / Flat,False,0,m2,False
2018130455,listing,/44-harborne-street-wembley-wa-6014-2018130455,1175000,is-sold,Sold by private treaty 14 Nov 2022,20221114,44 Harborne Street,WEMBLEY,WA,6014,-31.9376984,115.820221,4,1,1,House,House,False,670,m2,False
2018130889,listing,/6-10-athletes-parade-floreat-wa-6014-2018130889,,is-sold,Sold by private treaty 10 Nov 2022,20221110,6/10 Athletes Parade,FLOREAT,WA,6014,-31.94531,115.789871,3,3,2,Townhouse,Townhouse,False,0,m2,False
2018162183,listing,/2-4-currie-street-jolimont-wa-6014-2018162183,625000,is-sold,Sold by private treaty 14 Nov 2022,20221114,2/4 Currie Street,JOLIMONT,WA,6014,-31.9489174,115.813194,2,1,1,Townhouse,Townhouse,False,0,m2,False
2018163921,listing,/6-shann-street-floreat-wa-6014-2018163921,,is-sold,Sold by private treaty 11 Nov 2022,20221111,6 Shann Street,FLOREAT,WA,6014,-31.9460869,115.797318,5,2,3,House,House,False,926,m2,False
2018171128,listing,/20b-grantham-street-wembley-wa-6014-2018171128,1050000,is-sold,Sold by private treaty 11 Nov 2022,20221111,20b Grantham Street,WEMBLEY,WA,6014,-31.9340038,115.81945,3,2,2,House,House,False,350,m2,False
2018172254,listing,/249b-salvado-road-floreat-wa-6014-2018172254,,is-sold,Sold at auction 11 Nov 2022,20221111,249B Salvado Road,FLOREAT,WA,6014,-31.942379,115.80098,4,3,2,House,House,False,551,m2,False
2018185499,listing,/10-373-cambridge-street-wembley-wa-6014-2018185499,315000,is-sold,Sold by private treaty 19 Nov 2022,20221119,10/373 Cambridge Street,WEMBLEY,WA,6014,-31.9410648,115.808525,1,1,1,ApartmentUnitFlat,Apartment / Unit / Flat,False,0,m2,False
2018188967,listing,/wembley-wa-6014-2018188967,,is-sold,Sold by private treaty 28 Nov 2022,20221128,,WEMBLEY,WA,6014,-31.9343624,115.811714,3,2,2,NewHouseLand,New House & Land,False,0,m2,False
2018190733,listing,/wembley-wa-6014-2018190733,,is-sold,Sold by private treaty 28 Nov 2022,20221128,,WEMBLEY,WA,6014,-31.9343624,115.811714,4,2,2,NewHouseLand,New House & Land,False,425,m2,False
2018204161,listing,/5d-25-herdsman-parade-wembley-wa-6014-2018204161,,is-sold,Sold by private treaty 19 Nov 2022,20221119,5D/25 Herdsman Parade,WEMBLEY,WA,6014,-31.9261913,115.815781,2,1,1,ApartmentUnitFlat,Apartment / Unit / Flat,False,0,m2,False
2018206894,listing,/36-85-herdsman-parade-wembley-wa-6014-2018206894,,is-sold,Sold by private treaty 26 Nov 2022,20221126,36/85 Herdsman Parade,WEMBLEY,WA,6014,-31.9296341,115.811432,2,1,1,ApartmentUnitFlat,Apartment / Unit / Flat,False,0,m2,False
2017460767,listing,/1-58-meagher-drive-floreat-wa-6014-2017460767,950000,is-sold,Sold by private treaty 08 Nov 2022,20221108,1/58 Meagher Drive,FLOREAT,WA,6014,-31.945425,115.787758,3,2,2,ApartmentUnitFlat,Apartment / Unit / Flat,False,229,m2,False
2017781067,listing,/13a-49-herdsman-parade-wembley-wa-6014-2017781067,223000,is-sold,Sold by private treaty 21 Oct 2022,20221021,13a/49 Herdsman Parade,WEMBLEY,WA,6014,-31.9280262,115.81395,2,1,1,ApartmentUnitFlat,Apartment / Unit / Flat,False,0,m2,False
2017868993,listing,/wembley-wa-6014-2017868993,,is-sold,Sold by private treaty 01 Nov 2022,20221101,,WEMBLEY,WA,6014,-31.9343624,115.811714,4,2,2,NewHouseLand,New House & Land,False,0,m2,False
2017869037,listing,/wembley-wa-6014-2017869037,,is-sold,Sold by private treaty 01 Nov 2022,20221101,,WEMBLEY,WA,6014,-31.9343624,115.811714,4,2,2,NewHouseLand,New House & Land,False,0,m2,False
2018003214,listing,/21-honeyeater-circle-wembley-wa-6014-2018003214,1700000,is-sold,Sold by private treaty 26 Oct 2022,20221026,21 Honeyeater Circle,WEMBLEY,WA,6014,-31.9297371,115.805939,4,3,4,House,House,False,519,m2,False
2018011904,listing,/20-caithness-road-floreat-wa-6014-2018011904,2250000,is-sold,Sold by private treaty 28 Oct 2022,20221028,20 Caithness Road,FLOREAT,WA,6014,-31.9317455,115.790474,4,2,2,House,House,False,807,m2,False
2018035849,listing,/36-peebles-road-floreat-wa-6014-2018035849,2850000,is-sold,Sold by private treaty 09 Nov 2022,20221109,36 Peebles Road,FLOREAT,WA,6014,-31.9329166,115.795006,6,4,3,House,House,False,918,m2,False
2018038162,listing,/20-collier-street-wembley-wa-6014-2018038162,1620000,is-sold,Sold by private treaty 07 Nov 2022,20221107,20 Collier Street,WEMBLEY,WA,6014,-31.9293613,115.816727,3,2,1,House,House,False,635,m2,False
2018047899,listing,/10-destiny-lane-floreat-wa-6014-2018047899,2365000,is-sold,Sold by private treaty 24 Oct 2022,20221024,10 Destiny Lane,FLOREAT,WA,6014,-31.946928,115.791054,5,4,3,House,House,False,450,m2,False
2018049539,listing,/93-glengariff-drive-floreat-wa-6014-2018049539,3100000,is-sold,Sold by private treaty 03 Nov 2022,20221103,93 Glengariff Drive,FLOREAT,WA,6014,-31.9336815,115.779732,5,2,4,House,House,False,969,m2,False
2018058529,listing,/77-99-herdsman-parade-wembley-wa-6014-2018058529,180000,is-sold,Sold by private treaty 24 Oct 2022,20221024,77/99 Herdsman Parade,WEMBLEY,WA,6014,-31.9298725,115.8098,1,1,1,ApartmentUnitFlat,Apartment / Unit / Flat,False,53,m2,False
2018063697,listing,/289a-cambridge-street-wembley-wa-6014-2018063697,,is-sold,Sold by private treaty 04 Nov 2022,20221104,289A Cambridge Street,WEMBLEY,WA,6014,-31.9411087,115.815872,2,2,2,House,House,False,303,m2,False
2018070630,listing,/14-307-cambridge-street-wembley-wa-6014-2018070630,,is-sold,Sold by private treaty 01 Nov 2022,20221101,14/307 Cambridge Street,WEMBLEY,WA,6014,-31.9411964,115.814026,1,1,1,ApartmentUnitFlat,Apartment / Unit / Flat,False,54,m2,False
2018077337,listing,/212-18-hortus-way-jolimont-wa-6014-2018077337,760000,is-sold,Sold by private treaty 25 Oct 2022,20221025,212/18 Hortus Way,JOLIMONT,WA,6014,-31.9433,115.808159,2,2,2,ApartmentUnitFlat,Apartment / Unit / Flat,False,0,m2,False
2018078228,listing,/46-orrel-avenue-floreat-wa-6014-2018078228,1710000,is-sold,Sold by private treaty 02 Nov 2022,20221102,46 Orrel Avenue,FLOREAT,WA,6014,-31.9385681,115.795029,4,2,3,House,House,False,961,m2,False
2018109732,listing,/212b-19-herdsman-parade-wembley-wa-6014-2018109732,,is-sold,Sold by private treaty 09 Nov 2022,20221109,212B/19 Herdsman Parade,WEMBLEY,WA,6014,-31.9253635,115.815109,2,1,1,ApartmentUnitFlat,Apartment / Unit / Flat,False,0,m2,False
2018122744,listing,/32-essex-street-wembley-wa-6014-2018122744,,is-sold,Sold by private treaty 05 Nov 2022,20221105,32 Essex Street,WEMBLEY,WA,6014,-31.9385853,115.8167,4,2,2,House,House,False,670,m2,False
2018126469,listing,/11-highbury-street-floreat-wa-6014-2018126469,,is-sold,Sold by private treaty 28 Oct 2022,20221028,11 Highbury Street,FLOREAT,WA,6014,-31.9369869,115.801544,4,2,3,House,House,False,809,m2,False
2018139345,listing,/64-donegal-road-floreat-wa-6014-2018139345,,is-sold,Sold by private treaty 04 Nov 2022,20221104,64 Donegal Road,FLOREAT,WA,6014,-31.9319267,115.781906,5,4,2,House,House,False,989,m2,False
2018183482,listing,/floreat-wa-6014-2018183482,1750000,is-sold,Sold by private treaty 07 Nov 2022,20221107,,FLOREAT,WA,6014,-31.9466267,115.787949,3,2,2,ApartmentUnitFlat,Apartment / Unit / Flat,False,0,m2,False
2017751079,listing,/77-gregory-street-wembley-wa-6014-2017751079,1890000,is-sold,Sold by private treaty 17 Oct 2022,20221017,77 Gregory Street,WEMBLEY,WA,6014,-31.9346352,115.820778,4,2,1,House,House,False,653,m2,False
2017840742,listing,/150a-jersey-street-jolimont-wa-6014-2017840742,1500000,is-sold,Sold by private treaty 17 Oct 2022,20221017,150A Jersey Street,JOLIMONT,WA,6014,-31.9421768,115.812,3,3,2,House,House,False,354,m2,False
2017902831,listing,/112c-25-herdsman-parade-wembley-wa-6014-2017902831,218250,is-sold,Sold by private treaty 13 Oct 2022,20221013,112C/25 Herdsman Parade,WEMBLEY,WA,6014,-31.9261913,115.815781,2,1,1,ApartmentUnitFlat,Apartment / Unit / Flat,False,0,m2,False
2017910442,listing,/16-391-393-cambridge-street-wembley-wa-6014-2017910442,,is-sold,Sold by private treaty 04 Oct 2022,20221004,16/391-393 Cambridge Street,WEMBLEY,WA,6014,-31.9411354,115.806587,2,1,1,ApartmentUnitFlat,Apartment / Unit / Flat,False,76,m2,False
2017949436,listing,/14-1-stadium-drive-floreat-wa-6014-2017949436,689000,is-sold,Sold by private treaty 12 Oct 2022,20221012,14/1 Stadium Drive,FLOREAT,WA,6014,-31.947628,115.790039,2,2,2,ApartmentUnitFlat,Apartment / Unit / Flat,False,0,m2,False
2017974834,listing,/34-shann-street-floreat-wa-6014-2017974834,1315000,is-sold,Sold by private treaty 05 Oct 2022,20221005,34 Shann Street,FLOREAT,WA,6014,-31.9461536,115.793846,3,2,2,House,House,False,491,m2,False
2017992499,listing,/1-257-cambridge-street-wembley-wa-6014-2017992499,630000,is-sold,Sold by private treaty 21 Oct 2022,20221021,1/257 Cambridge Street,WEMBLEY,WA,6014,-31.9411125,115.81823,3,1,1,Townhouse,Townhouse,False,107,m2,False
2018000541,listing,/377a-cambridge-street-wembley-wa-6014-2018000541,920000,is-sold,Sold by private treaty 14 Oct 2022,20221014,377A Cambridge Street,WEMBLEY,WA,6014,-31.94112,115.808128,3,2,2,House,House,False,315,m2,False
2018010226,listing,/5-destiny-lane-floreat-wa-6014-2018010226,2500000,is-sold,Sold by private treaty 19 Oct 2022,20221019,5 Destiny Lane,FLOREAT,WA,6014,-31.94705,115.790504,4,4,2,House,House,False,390,m2,False
2018029695,listing,/6-1-stadium-drive-floreat-wa-6014-2018029695,717000,is-sold,Sold by private treaty 13 Oct 2022,20221013,6/1 Stadium Drive,FLOREAT,WA,6014,-31.947628,115.790039,2,2,2,ApartmentUnitFlat,Apartment / Unit / Flat,False,139,m2,False
2018029745,listing,/113-334-cambridge-street-wembley-wa-6014-2018029745,,is-sold,Sold by private treaty 12 Oct 2022,20221012,113/334 Cambridge Street,WEMBLEY,WA,6014,-31.94046,115.81118,2,2,1,ApartmentUnitFlat,Apartment / Unit / Flat,False,133,m2,False
2018029748,listing,/113-334-cambridge-street-wembley-wa-6014-2018029748,,is-sold,Sold by private treaty 12 Oct 2022,20221012,113/334 Cambridge Street,WEMBLEY,WA,6014,-31.94046,115.81118,2,2,1,ApartmentUnitFlat,Apartment / Unit / Flat,False,133,m2,False
2018032207,listing,/59a-simper-street-wembley-wa-6014-2018032207,1377888,is-sold,Sold by private treaty 13 Oct 2022,20221013,59A Simper Street,WEMBLEY,WA,6014,-31.93471,115.808838,4,2,2,House,House,False,561,m2,False
2018037809,listing,/41-54-moondine-drive-wembley-wa-6014-2018037809,385000,is-sold,Sold by private treaty 08 Oct 2022,20221008,41/54 Moondine Drive,WEMBLEY,WA,6014,-31.9282074,115.812408,2,1,1,ApartmentUnitFlat,Apartment / Unit / Flat,False,75,m2,True
2018046760,listing,/17-281-cambridge-street-wembley-wa-6014-2018046760,255000,is-sold,Sold by private treaty 08 Oct 2022,20221008,17/281 Cambridge Street,WEMBLEY,WA,6014,-31.9409771,115.816193,1,1,1,ApartmentUnitFlat,Apartment / Unit / Flat,False,0,m2,False
2018057895,listing,/56-stadium-drive-floreat-wa-6014-2018057895,,is-sold,Sold by private treaty 01 Oct 2022,20221001,56 Stadium Drive,FLOREAT,WA,6014,-31.94619,115.790451,4,3,2,House,House,False,270,m2,False
2018064579,listing,/75-evandale-street-floreat-wa-6014-2018064579,,is-sold,Sold by private treaty 10 Oct 2022,20221010,75 Evandale Street,FLOREAT,WA,6014,-31.9432888,115.796188,4,1,3,House,House,False,1378,m2,False
2018075398,listing,/38-50-moondine-drive-wembley-wa-6014-2018075398,390888,is-sold,Sold by private treaty 06 Oct 2022,20221006,38/50 Moondine Drive,WEMBLEY,WA,6014,-31.92918,115.811462,2,1,1,ApartmentUnitFlat,Apartment / Unit / Flat,False,0,m2,False
2018099253,listing,/61-99-herdsman-parade-wembley-wa-6014-2018099253,180000,is-sold,Sold by private treaty 11 Oct 2022,20221011,61/99 Herdsman Parade,WEMBLEY,WA,6014,-31.9298725,115.8098,1,1,,ApartmentUnitFlat,Apartment / Unit / Flat,False,0,m2,False
2018112566,listing,/108a-19-herdsman-pde-wembley-wa-6014-2018112566,206000,is-sold,Sold by private treaty 17 Oct 2022,20221017,108A/19 Herdsman Pde,WEMBLEY,WA,6014,-31.9253635,115.815109,2,1,1,ApartmentUnitFlat,Apartment / Unit / Flat,False,0,m2,False
2017664660,listing,/i23-125-herdsman-parade-wembley-wa-6014-2017664660,285000,is-sold,Sold by private treaty 21 Sep 2022,20220921,I23/125 Herdsman Parade,WEMBLEY,WA,6014,-31.929924,115.807983,2,1,1,ApartmentUnitFlat,Apartment / Unit / Flat,False,0,m2,False
2017702144,listing,/i6-125-herdsman-parade-wembley-wa-6014-2017702144,292000,is-sold,Sold by private treaty 14 Sep 2022,20220914,I6/125 Herdsman Parade,WEMBLEY,WA,6014,-31.929924,115.807983,2,1,1,ApartmentUnitFlat,Apartment / Unit / Flat,False,0,m2,False
2017922702,listing,/86-brookdale-street-floreat-wa-6014-2017922702,1851000,is-sold,Sold by private treaty 19 Sep 2022,20220919,86 Brookdale Street,FLOREAT,WA,6014,-31.9456234,115.792145,4,2,3,House,House,False,860,m2,False
2017932215,listing,/278-salvado-road-floreat-wa-6014-2017932215,2675000,is-sold,Sold by private treaty 12 Sep 2022,20220912,278 Salvado Road,FLOREAT,WA,6014,-31.9417267,115.798035,4,2,2,House,House,False,1004,m2,False
2017958265,listing,/8-1-moondine-drive-wembley-wa-6014-2017958265,475000,is-sold,Sold by private treaty 29 Sep 2022,20220929,8/1 Moondine Drive,WEMBLEY,WA,6014,-31.93038,115.809189,3,1,2,ApartmentUnitFlat,Apartment / Unit / Flat,False,85,m2,False
2017960144,listing,/161b-jersey-street-wembley-wa-6014-2017960144,1450000,is-sold,Sold by private treaty 30 Sep 2022,20220930,161B Jersey Street,WEMBLEY,WA,6014,-31.9392471,115.811249,3,2,2,House,House,False,500,m2,False
2017966313,listing,/1-223-harborne-street-wembley-wa-6014-2017966313,331500,is-sold,Sold by private treaty 12 Sep 2022,20220912,1/223 Harborne Street,WEMBLEY,WA,6014,-31.92441,115.819687,1,1,1,ApartmentUnitFlat,Apartment / Unit / Flat,False,0,m2,False
2017967492,listing,/4-158-salvado-road-wembley-wa-6014-2017967492,530000,is-sold,Sold by private treaty 27 Sep 2022,20220927,4/158 Salvado Road,WEMBLEY,WA,6014,-31.9417858,115.810928,2,1,2,Villa,Villa,False,0,m2,False
2017977579,listing,/5-389-cambridge-street-wembley-wa-6014-2017977579,285000,is-sold,Sold by private treaty 28 Sep 2022,20220928,5/389 Cambridge Street,WEMBLEY,WA,6014,-31.9412,115.806953,1,1,1,ApartmentUnitFlat,Apartment / Unit / Flat,False,0,m2,False
2017995679,listing,/26-11-herdsman-parade-wembley-wa-6014-2017995679,215000,is-sold,Sold by private treaty 15 Sep 2022,20220915,26/11 Herdsman Parade,WEMBLEY,WA,6014,-31.9251976,115.815971,2,1,1,ApartmentUnitFlat,Apartment / Unit / Flat,False,0,m2,False
2018028268,listing,/101-18-hortus-way-jolimont-wa-6014-2018028268,500000,is-sold,Sold by private treaty 28 Sep 2022,20220928,101/18 Hortus Way,JOLIMONT,WA,6014,-31.9433,115.808159,1,1,1,ApartmentUnitFlat,Apartment / Unit / Flat,False,0,m2,False
2018038452,listing,/26-holland-street-wembley-wa-6014-2018038452,1937500,is-sold,Sold by private treaty 13 Sep 2022,20220913,26 Holland Street,WEMBLEY,WA,6014,-31.9384651,115.8144,4,2,3,House,House,False,670,m2,False
2018040225,listing,/10-kincardine-crescent-floreat-wa-6014-2018040225,1575000,is-sold,Sold by private treaty 21 Sep 2022,20220921,10 Kincardine Crescent,FLOREAT,WA,6014,-31.93208,115.791519,3,2,2,House,House,False,809,m2,False
2018044188,listing,/3-champion-crescent-floreat-wa-6014-2018044188,,is-sold,Sold by private treaty 22 Sep 2022,20220922,3 Champion Crescent,FLOREAT,WA,6014,-31.9450111,115.788048,3,2,2,House,House,False,397,m2,False
2018045782,listing,/404-334-cambridge-street-wembley-wa-6014-2018045782,610000,is-sold,Sold by private treaty 20 Sep 2022,20220920,404/334 Cambridge Street,WEMBLEY,WA,6014,-31.94046,115.81118,2,2,1,ApartmentUnitFlat,Apartment / Unit / Flat,False,0,m2,False
2018048761,listing,/699-hay-street-jolimont-wa-6014-2018048761,795000,is-sold,Sold by private treaty 23 Sep 2022,20220923,699 Hay Street,JOLIMONT,WA,6014,-31.94824,115.804749,2,1,1,House,House,False,421,m2,False
2018049562,listing,/73-the-boulevard-floreat-wa-6014-2018049562,,is-sold,Sold by private treaty 11 Sep 2022,20220911,73 The Boulevard,FLOREAT,WA,6014,-31.9367085,115.7951,4,1,2,House,House,False,978,m2,False
2018056193,listing,/1-62-salvado-road-wembley-wa-6014-2018056193,,is-sold,Sold by private treaty 21 Sep 2022,20220921,1/62 Salvado Road,WEMBLEY,WA,6014,-31.94177,115.819206,3,2,2,House,House,False,0,m2,False
2018060244,listing,/18-213-cambridge-street-wembley-wa-6014-2018060244,231000,is-sold,Sold by private treaty 21 Sep 2022,20220921,18/213 Cambridge Street,WEMBLEY,WA,6014,-31.9411011,115.822021,1,1,1,ApartmentUnitFlat,Apartment / Unit / Flat,False,0,m2,False
2018065855,listing,/4-4-currie-street-jolimont-wa-6014-2018065855,625000,is-sold,Sold by private treaty 18 Sep 2022,20220918,4/4 Currie Street,JOLIMONT,WA,6014,-31.9489174,115.813194,2,1,1,Townhouse,Townhouse,False,0,m2,False
2017476773,listing,/4b-dodd-street-wembley-wa-6014-2017476773,1540000,is-sold,Sold by private treaty 07 Sep 2022,20220907,4B Dodd street,WEMBLEY,WA,6014,-31.92443,115.818146,4,3,2,House,House,False,384,m2,False
2017597040,listing,/119-rosedale-street-floreat-wa-6014-2017597040,,is-sold,Sold by private treaty 30 Aug 2022,20220830,119 Rosedale Street,FLOREAT,WA,6014,-31.9423923,115.792671,4,2,,House,House,False,782,m2,False
2017654111,listing,/59b-lake-monger-drive-wembley-wa-6014-2017654111,,is-sold,Sold by private treaty 29 Aug 2022,20220829,59B Lake Monger Drive,WEMBLEY,WA,6014,-31.9338474,115.827362,6,6,2,House,House,False,681,m2,False
2017786630,listing,/7-53-stadium-drive-floreat-wa-6014-2017786630,1135000,is-sold,Sold by private treaty 31 Aug 2022,20220831,7/53 Stadium Drive,FLOREAT,WA,6014,-31.9455376,115.79039,3,3,2,House,House,False,0,m2,False
2017810696,listing,/55-71-ruislip-street-wembley-wa-6014-2017810696,845000,is-sold,Sold by private treaty 25 Aug 2022,20220825,55/71 Ruislip Street,WEMBLEY,WA,6014,-31.9380035,115.82415,3,2,2,House,House,False,0,m2,True
2017826176,listing,/10-231-cambridge-street-wembley-wa-6014-2017826176,760000,is-sold,Sold by private treaty 07 Sep 2022,20220907,10/231 Cambridge Street,WEMBLEY,WA,6014,-31.9411011,115.820618,3,2,2,Townhouse,Townhouse,False,0,m2,False
2017869714,listing,/4-51-troy-terrace-jolimont-wa-6014-2017869714,750000,is-sold,Sold by private treaty 22 Aug 2022,20220822,4/51 Troy Terrace,JOLIMONT,WA,6014,-31.9493446,115.812515,3,1,1,Townhouse,Townhouse,False,134,m2,False
2017875763,listing,/243-selby-street-floreat-wa-6014-2017875763,1480000,is-sold,Sold by private treaty 19 Aug 2022,20220819,243 Selby Street,FLOREAT,WA,6014,-31.9360657,115.803787,4,2,2,House,House,False,736,m2,False
2017903328,listing,/82-herdsman-parade-wembley-wa-6014-2017903328,1050000,is-sold,Sold by private treaty 02 Sep 2022,20220902,82 Herdsman Parade,WEMBLEY,WA,6014,-31.9307232,115.812271,3,2,2,House,House,False,718,m2,False
2017904626,listing,/4-57-troy-terrace-jolimont-wa-6014-2017904626,314000,is-sold,Sold by private treaty 29 Aug 2022,20220829,4/57 Troy Terrace,JOLIMONT,WA,6014,-31.9487762,115.813843,1,1,1,ApartmentUnitFlat,Apartment / Unit / Flat,False,52,m2,False
2017908093,listing,/40-1-moondine-drive-wembley-wa-6014-2017908093,,is-sold,Sold 04 Sep 2022,20220904,40/1 Moondine Drive,WEMBLEY,WA,6014,-31.93038,115.809189,2,1,,ApartmentUnitFlat,Apartment / Unit / Flat,False,0,m2,False
2017914470,listing,/26-peebles-road-floreat-wa-6014-2017914470,,is-sold,Sold by private treaty 07 Sep 2022,20220907,26 Peebles Road,FLOREAT,WA,6014,-31.9328918,115.797409,4,2,2,House,House,False,764,m2,False
2017929817,listing,/23b-destiny-lane-floreat-wa-6014-2017929817,1550000,is-sold,Sold by private treaty 08 Sep 2022,20220908,23B Destiny Lane,FLOREAT,WA,6014,-31.946209,115.791031,3,3,2,House,House,False,0,m2,False
2017931823,listing,/30-kirwan-street-floreat-wa-6014-2017931823,1700000,is-sold,Sold by private treaty 31 Aug 2022,20220831,30 Kirwan Street,FLOREAT,WA,6014,-31.9449749,115.800438,3,2,2,House,House,False,905,m2,False
2017950296,listing,/53-newry-street-floreat-wa-6014-2017950296,1730000,is-sold,Sold by private treaty 05 Sep 2022,20220905,53 Newry Street,FLOREAT,WA,6014,-31.9399815,115.797966,4,2,2,House,House,False,921,m2,False
2017980769,listing,/47b-connolly-street-wembley-wa-6014-2017980769,,is-sold,Sold by private treaty 22 Aug 2022,20220822,47b Connolly Street,WEMBLEY,WA,6014,-31.93765,115.824852,2,1,2,House,House,False,364,m2,False
2017997436,listing,/3-19-currie-street-jolimont-wa-6014-2017997436,,is-sold,Sold by private treaty 24 Aug 2022,20220824,3/19 Currie Street,JOLIMONT,WA,6014,-31.9485321,115.812225,1,1,1,ApartmentUnitFlat,Apartment / Unit / Flat,False,0,m2,False
2017998704,listing,/42-halesworth-road-jolimont-wa-6014-2017998704,,is-sold,Sold by private treaty 24 Aug 2022,20220824,42 Halesworth Road,JOLIMONT,WA,6014,-31.9446945,115.807648,4,2,2,House,House,False,522,m2,False
2018014799,listing,/33-evandale-street-floreat-wa-6014-2018014799,1950000,is-sold,Sold by private treaty 02 Sep 2022,20220902,33 Evandale Street,FLOREAT,WA,6014,-31.9433289,115.800575,5,2,1,House,House,False,999,m2,False
2018021064,listing,/54a-connolly-street-wembley-wa-6014-2018021064,,is-sold,Sold by private treaty 31 Aug 2022,20220831,54A Connolly Street,WEMBLEY,WA,6014,-31.93705,115.825531,3,2,2,House,House,False,373,m2,False
2017734003,listing,/70-meagher-drive-floreat-wa-6014-2017734003,,is-sold,Sold by private treaty 08 Aug 2022,20220808,70 Meagher Drive,FLOREAT,WA,6014,-31.94463,115.787811,4,4,2,House,House,False,450,m2,False
2017754479,listing,/8-269-271-cambridge-street-wembley-wa-6014-2017754479,390000,is-sold,Sold by private treaty 18 Aug 2022,20220818,8/269-271 Cambridge Street,WEMBLEY,WA,6014,-31.94112,115.817329,2,1,1,Villa,Villa,False,80,m2,False
2017782855,listing,/46-645-hay-street-jolimont-wa-6014-2017782855,355000,is-sold,Sold by private treaty 15 Aug 2022,20220815,46/645 Hay Street,JOLIMONT,WA,6014,-31.9480019,115.810257,2,1,1,ApartmentUnitFlat,Apartment / Unit / Flat,False,0,m2,True
2017840659,listing,/15-essex-street-wembley-wa-6014-2017840659,1522500,is-sold,Sold by private treaty 15 Aug 2022,20220815,15 Essex Street,WEMBLEY,WA,6014,-31.9396935,115.816086,4,1,2,House,House,False,670,m2,False
2017875014,listing,/74-newry-street-floreat-wa-6014-2017875014,2100000,is-sold,Sold by private treaty 01 Aug 2022,20220801,74 Newry Street,FLOREAT,WA,6014,-31.9395161,115.796,4,2,2,House,House,False,827,m2,False
2017876060,listing,/5d-49-herdsman-parade-wembley-wa-6014-2017876060,,is-sold,Sold by private treaty 01 Aug 2022,20220801,5D/49 Herdsman Parade,WEMBLEY,WA,6014,-31.9280262,115.81395,2,1,1,ApartmentUnitFlat,Apartment / Unit / Flat,False,0,m2,False
2017884479,listing,/170-jersey-street-wembley-wa-6014-2017884479,1025000,is-sold,Sold by private treaty 29 Jul 2022,20220729,170 Jersey Street,WEMBLEY,WA,6014,-31.9385319,115.811981,3,1,1,House,House,False,331,m2,False
2017888583,listing,/57-daglish-street-wembley-wa-6014-2017888583,2075000,is-sold,Sold by private treaty 08 Aug 2022,20220808,57 Daglish Street,WEMBLEY,WA,6014,-31.9360428,115.8184,4,2,3,House,House,False,653,m2,False
2017889361,listing,/34b-gregory-street-wembley-wa-6014-2017889361,1790000,is-sold,Sold by private treaty 08 Aug 2022,20220808,34B Gregory Street,WEMBLEY,WA,6014,-31.9378223,115.821434,4,3,3,House,House,False,346,m2,False
2017890912,listing,/4-hurdles-drive-floreat-wa-6014-2017890912,3000000,is-sold,Sold by private treaty 29 Jul 2022,20220729,4 Hurdles Drive,FLOREAT,WA,6014,-31.9440289,115.788193,3,3,2,House,House,False,434,m2,False
2017917500,listing,/9-267-cambridge-street-wembley-wa-6014-2017917500,320000,is-sold,Sold by private treaty 29 Jul 2022,20220729,9/267 Cambridge Street,WEMBLEY,WA,6014,-31.9409847,115.81768,2,1,1,ApartmentUnitFlat,Apartment / Unit / Flat,False,0,m2,False
2017938434,listing,/54-kirwan-street-floreat-wa-6014-2017938434,,is-sold,Sold by private treaty 09 Aug 2022,20220809,54 Kirwan Street,FLOREAT,WA,6014,-31.9450054,115.797432,4,2,2,House,House,False,380,m2,False
2017938855,listing,/36-1-moondine-drive-wembley-wa-6014-2017938855,,is-sold,Sold 12 Aug 2022,20220812,36/1 Moondine Drive,WEMBLEY,WA,6014,-31.93038,115.809189,2,1,1,ApartmentUnitFlat,Apartment / Unit / Flat,False,0,m2,False
2017948911,listing,/28-2-burvill-drive-floreat-wa-6014-2017948911,617000,is-sold,Sold by private treaty 01 Aug 2022,20220801,28/2 Burvill Drive,FLOREAT,WA,6014,-31.9472618,115.789047,2,2,2,ApartmentUnitFlat,Apartment / Unit / Flat,False,0,m2,False
2017956270,listing,/97-glengariff-drive-floreat-wa-6014-2017956270,1950000,is-sold,Sold by private treaty 04 Aug 2022,20220804,97 Glengariff Drive,FLOREAT,WA,6014,-31.9332466,115.779823,4,2,2,House,House,False,850,m2,False
2017960138,listing,/38-oceanic-drive-floreat-wa-6014-2017960138,,is-sold,Sold by private treaty 18 Aug 2022,20220818,38 Oceanic Drive,FLOREAT,WA,6014,-31.9387245,115.786667,3,1,4,House,House,False,809,m2,False
2017990778,listing,/203-334-cambridge-street-wembley-wa-6014-2017990778,,is-sold,Sold by private treaty 14 Aug 2022,20220814,203/334 Cambridge Street,WEMBLEY,WA,6014,-31.94046,115.81118,1,1,1,ApartmentUnitFlat,Apartment / Unit / Flat,False,0,m2,False
2017991057,listing,/19-the-grove-wembley-wa-6014-2017991057,3020000,is-sold,Sold by private treaty 15 Aug 2022,20220815,19 The Grove,WEMBLEY,WA,6014,-31.9357052,115.822716,5,3,2,House,House,False,736,m2,False
2017995365,listing,/21-48-moondine-drive-wembley-wa-6014-2017995365,455000,is-sold,Sold by private treaty 12 Aug 2022,20220812,21/48 Moondine Drive,WEMBLEY,WA,6014,-31.9290752,115.810516,3,1,1,ApartmentUnitFlat,Apartment / Unit / Flat,False,0,m2,False
2017996516,listing,/4-365-cambridge-st-wembley-wa-6014-2017996516,295000,is-sold,Sold by private treaty 14 Aug 2022,20220814,4/365 Cambridge St,WEMBLEY,WA,6014,-31.9411087,115.8089,1,1,1,ApartmentUnitFlat,Apartment / Unit / Flat,False,0,m2,False
2017707322,listing,/98-grovedale-road-floreat-wa-6014-2017707322,1460000,is-sold,Sold by private treaty 24 Jun 2022,20220624,98 Grovedale Road,FLOREAT,WA,6014,-31.9445,115.795776,3,2,2,House,House,False,525,m2,False
2017735000,listing,/2-5-denton-street-wembley-wa-6014-2017735000,725000,is-sold,Sold by private treaty 07 Jul 2022,20220707,2/5 Denton Street,WEMBLEY,WA,6014,-31.9411259,115.816711,3,1,2,Townhouse,Townhouse,False,215,m2,False
2017754594,listing,/3-291-cambridge-street-wembley-wa-6014-2017754594,405000,is-sold,Sold by private treaty 12 Jul 2022,20220712,3/291 Cambridge Street,WEMBLEY,WA,6014,-31.9411144,115.815552,2,1,1,Villa,Villa,False,75,m2,False
2017788768,listing,/4a-dodd-street-wembley-wa-6014-2017788768,,is-sold,Sold by private treaty 26 Jul 2022,20220726,4A Dodd Street,WEMBLEY,WA,6014,-31.9244156,115.818047,4,2,2,House,House,False,384,m2,False
2017793851,listing,/48-bronzewing-loop-wembley-wa-6014-2017793851,1440000,is-sold,Sold by private treaty 27 Jul 2022,20220727,48 Bronzewing Loop,WEMBLEY,WA,6014,-31.9299183,115.806633,4,2,2,House,House,False,408,m2,False
2017801533,listing,/54-1-herdsman-parade-wembley-wa-6014-2017801533,250000,is-sold,Sold by private treaty 01 Jul 2022,20220701,54/1 Herdsman Parade,WEMBLEY,WA,6014,-31.92482,115.81646,2,1,1,ApartmentUnitFlat,Apartment / Unit / Flat,False,61,m2,False
2017801535,listing,/54-1-herdsman-parade-wembley-wa-6014-2017801535,250000,is-sold,Sold by private treaty 01 Jul 2022,20220701,54/1 Herdsman Parade,WEMBLEY,WA,6014,-31.92482,115.81646,2,1,1,ApartmentUnitFlat,Apartment / Unit / Flat,False,61,m2,False
2017840684,listing,/104-harborne-street-wembley-wa-6014-2017840684,1060250,is-sold,Sold at auction 25 Jun 2022,20220625,104 Harborne Street,WEMBLEY,WA,6014,-31.9332142,115.820267,4,2,1,House,House,False,645,m2,False
2017856008,listing,/16-370-cambridge-street-wembley-wa-6014-2017856008,305000,is-sold,Sold by private treaty 13 Jul 2022,20220713,16/370 Cambridge Street,WEMBLEY,WA,6014,-31.94063,115.806908,2,1,1,ApartmentUnitFlat,Apartment / Unit / Flat,False,0,m2,False
2017857530,listing,/177-harborne-street-wembley-wa-6014-2017857530,1300000,is-sold,Sold by private treaty 07 Jul 2022,20220707,177 Harborne Street,WEMBLEY,WA,6014,-31.9280529,115.8198,3,2,2,House,House,False,645,m2,False
2017859055,listing,/11-645-hay-street-jolimont-wa-6014-2017859055,485000,is-sold,Sold by private treaty 29 Jun 2022,20220629,11/645 Hay Street,JOLIMONT,WA,6014,-31.9480019,115.810257,2,1,1,ApartmentUnitFlat,Apartment / Unit / Flat,False,0,m2,True
2017871748,listing,/264b-cambridge-st-wembley-wa-6014-2017871748,,is-sold,Sold by private treaty 01 Jul 2022,20220701,264B Cambridge St,WEMBLEY,WA,6014,-31.940464,115.818275,3,1,1,Villa,Villa,False,0,m2,False
2017882076,listing,/106-harborne-street-wembley-wa-6014-2017882076,1095000,is-sold,Sold by private treaty 19 Jul 2022,20220719,106 Harborne Street,WEMBLEY,WA,6014,-31.9330883,115.820267,2,1,2,House,House,False,645,m2,False
2017885312,listing,/28-alyth-road-floreat-wa-6014-2017885312,,is-sold,Sold by private treaty 26 Jun 2022,20220626,28 Alyth Road,FLOREAT,WA,6014,-31.9288425,115.789436,5,3,3,House,House,False,779,m2,False
2017892893,listing,/20-75-herdsman-parade-wembley-wa-6014-2017892893,229000,is-sold,Sold by private treaty 24 Jun 2022,20220624,20/75 Herdsman Parade,WEMBLEY,WA,6014,-31.9299526,115.81263,2,2,1,ApartmentUnitFlat,Apartment / Unit / Flat,False,0,m2,False
2017903269,listing,/21b-alexander-street-wembley-wa-6014-2017903269,1350000,is-sold,Sold by private treaty 28 Jul 2022,20220728,21B Alexander Street,WEMBLEY,WA,6014,-31.9382687,115.809959,3,2,2,House,House,False,503,m2,False
2017905579,listing,/18-roscommon-road-floreat-wa-6014-2017905579,,is-sold,Sold by private treaty 11 Jul 2022,20220711,18 Roscommon Road,FLOREAT,WA,6014,-31.93475,115.787033,5,3,6,House,House,False,1009,m2,False
2017924147,listing,/408-18-hortus-way-jolimont-wa-6014-2017924147,870000,is-sold,Sold by private treaty 19 Jul 2022,20220719,408 / 18 Hortus Way,JOLIMONT,WA,6014,-31.9433,115.808159,2,2,2,ApartmentUnitFlat,Apartment / Unit / Flat,False,0,m2,False
2017934528,listing,/23-59-herdsman-parade-wembley-wa-6014-2017934528,160000,is-sold,Sold by private treaty 26 Jul 2022,20220726,23/59 Herdsman Parade,WEMBLEY,WA,6014,-31.9295845,115.813705,,1,1,ApartmentUnitFlat,Apartment / Unit / Flat,False,0,m2,False
2017936481,listing,/45a-keane-street-wembley-wa-6014-2017936481,1391000,is-sold,Sold by private treaty 28 Jul 2022,20220728,45A Keane Street,WEMBLEY,WA,6014,-31.9357929,115.805031,4,2,2,House,House,False,542,m2,False
2017583837,listing,/114-334-cambridge-street-wembley-wa-6014-2017583837,540000,is-sold,Sold by private treaty 24 Jun 2022,20220624,114/334 Cambridge Street,WEMBLEY,WA,6014,-31.94046,115.81118,2,2,1,ApartmentUnitFlat,Apartment / Unit / Flat,False,0,m2,False
2017641375,listing,/8-373-375-cambridge-street-wembley-wa-6014-2017641375,335000,is-sold,Sold by private treaty 18 Jun 2022,20220618,8/373-375 Cambridge Street,WEMBLEY,WA,6014,-31.94112,115.80838,1,1,1,ApartmentUnitFlat,Apartment / Unit / Flat,False,117,m2,False
2017707949,listing,/2-turriff-road-floreat-wa-6014-2017707949,1870000,is-sold,Sold by private treaty 16 Jun 2022,20220616,2 Turriff Road,FLOREAT,WA,6014,-31.9304886,115.799423,4,3,2,House,House,False,956,m2,False
2017720454,listing,/wembley-wa-6014-2017720454,,is-sold,Sold by private treaty 14 Jun 2022,20220614,,WEMBLEY,WA,6014,-31.9343624,115.811714,4,2,2,NewHouseLand,New House & Land,False,0,m2,False
2017720522,listing,/wembley-wa-6014-2017720522,,is-sold,Sold by private treaty 14 Jun 2022,20220614,,WEMBLEY,WA,6014,-31.9343624,115.811714,4,2,2,NewHouseLand,New House & Land,False,0,m2,False
2017724413,listing,/35d-49-herdsman-parade-wembley-wa-6014-2017724413,220000,is-sold,Sold by private treaty 13 Jun 2022,20220613,35D/49 Herdsman Parade,WEMBLEY,WA,6014,-31.9280262,115.81395,2,1,1,ApartmentUnitFlat,Apartment / Unit / Flat,False,66,m2,False
2017744083,listing,/10-303-cambridge-street-wembley-wa-6014-2017744083,235000,is-sold,Sold by private treaty 24 Jun 2022,20220624,10/303 Cambridge Street,WEMBLEY,WA,6014,-31.9410954,115.8143,,1,1,ApartmentUnitFlat,Apartment / Unit / Flat,False,0,m2,False
2017800928,listing,/15-9-jersey-street-jolimont-wa-6014-2017800928,355000,is-sold,Sold by private treaty 15 Jun 2022,20220615,15/9 Jersey Street,JOLIMONT,WA,6014,-31.9486771,115.811172,2,1,1,ApartmentUnitFlat,Apartment / Unit / Flat,False,87,m2,False
2017802484,listing,/45-daglish-street-wembley-wa-6014-2017802484,1650000,is-sold,Sold by private treaty 22 Jun 2022,20220622,45 Daglish Street,WEMBLEY,WA,6014,-31.9368362,115.818466,4,2,2,House,House,False,653,m2,False
2017808944,listing,/floreat-wa-6014-2017808944,,is-sold,Sold by private treaty 17 Jun 2022,20220617,,FLOREAT,WA,6014,-31.9404411,115.792183,4,2,2,NewHouseLand,New House & Land,False,0,m2,False
2017809215,listing,/floreat-wa-6014-2017809215,,is-sold,Sold by private treaty 17 Jun 2022,20220617,,FLOREAT,WA,6014,-31.9404411,115.792183,4,2,2,NewHouseLand,New House & Land,False,0,m2,False
2017810747,listing,/92-mckenzie-street-wembley-wa-6014-2017810747,3275000,is-sold,Sold by private treaty 24 Jun 2022,20220624,92 McKenzie Street,WEMBLEY,WA,6014,-31.9334774,115.817909,5,4,4,House,House,False,645,m2,False
2017824853,listing,/25-1-moondine-drive-wembley-wa-6014-2017824853,,is-sold,Sold 15 Jun 2022,20220615,25/1 Moondine Drive,WEMBLEY,WA,6014,-31.93038,115.809189,3,1,1,ApartmentUnitFlat,Apartment / Unit / Flat,False,0,m2,False
2017827028,listing,/40-newry-street-floreat-wa-6014-2017827028,1790000,is-sold,Sold by private treaty 21 Jun 2022,20220621,40 Newry Street,FLOREAT,WA,6014,-31.939518,115.799721,3,2,1,House,House,False,819,m2,False
2017837114,listing,/120-brookdale-street-floreat-wa-6014-2017837114,,is-sold,Sold by private treaty 20 Jun 2022,20220620,120 Brookdale Street,FLOREAT,WA,6014,-31.9424877,115.792145,3,2,2,House,House,False,782,m2,False
2017842030,listing,/82-holland-street-wembley-wa-6014-2017842030,,is-sold,Sold by private treaty 22 Jun 2022,20220622,82 Holland Street,WEMBLEY,WA,6014,-31.9341984,115.8144,4,1,2,House,House,False,645,m2,False
2017843427,listing,/2-59-troy-terrace-jolimont-wa-6014-2017843427,450000,is-sold,Sold by private treaty 13 Jun 2022,20220613,2/59 Troy Terrace,JOLIMONT,WA,6014,-31.9485321,115.814064,2,1,2,ApartmentUnitFlat,Apartment / Unit / Flat,False,0,m2,False
2017859277,listing,/10-moray-avenue-floreat-wa-6014-2017859277,,is-sold,Sold by private treaty 16 Jun 2022,20220616,10 Moray Avenue,FLOREAT,WA,6014,-31.9337749,115.799927,5,3,2,House,House,False,817,m2,False
2017861842,listing,/61-keane-street-wembley-wa-6014-2017861842,,is-sold,Sold by private treaty 15 Jun 2022,20220615,61 Keane Street,WEMBLEY,WA,6014,-31.93411,115.805038,2,1,2,House,House,False,590,m2,False
2017870467,listing,/29-85-herdsman-parade-wembley-wa-6014-2017870467,200000,is-sold,Sold by private treaty 23 Jun 2022,20220623,29/85 Herdsman Parade,WEMBLEY,WA,6014,-31.9296341,115.811432,1,1,1,ApartmentUnitFlat,Apartment / Unit / Flat,False,59,m2,False
2015955332,listing,/131-6-tighe-street-jolimont-wa-6014-2015955332,512000,is-sold,Sold by private treaty 01 Jun 2022,20220601,131/6 Tighe Street,JOLIMONT,WA,6014,-31.9453812,115.813354,2,1,1,House,House,False,0,m2,True
2017705202,listing,/99-6-tighe-street-jolimont-wa-6014-2017705202,725000,is-sold,Sold by private treaty 01 Jun 2022,20220601,99/6 Tighe Street,JOLIMONT,WA,6014,-31.9453812,115.813354,3,2,1,House,House,False,0,m2,True
2017707780,listing,/17-64-moondine-drive-wembley-wa-6014-2017707780,,is-sold,Sold 09 Jun 2022,20220609,17/64 Moondine Drive,WEMBLEY,WA,6014,-31.92614,115.814491,3,1,,ApartmentUnitFlat,Apartment / Unit / Flat,False,0,m2,False
2017748115,listing,/5-61-stadium-drive-floreat-wa-6014-2017748115,,is-sold,Sold by private treaty 05 Jun 2022,20220605,5/61 Stadium Drive,FLOREAT,WA,6014,-31.94576,115.79081,3,3,2,Townhouse,Townhouse,False,0,m2,False
2017749956,listing,/2-615-hay-street-jolimont-wa-6014-2017749956,,is-sold,Sold by private treaty 07 Jun 2022,20220607,2/615 Hay Street,JOLIMONT,WA,6014,-31.94783,115.813408,3,2,1,Townhouse,Townhouse,False,169,m2,False
2017751497,listing,/42-11-herdsman-parade-wembley-wa-6014-2017751497,290000,is-sold,Sold by private treaty 02 Jun 2022,20220602,42/11 Herdsman Parade,WEMBLEY,WA,6014,-31.9251976,115.815971,2,1,1,ApartmentUnitFlat,Apartment / Unit / Flat,False,0,m2,False
2017763565,listing,/2-51-jersey-street-jolimont-wa-6014-2017763565,992000,is-sold,Sold by private treaty 01 Jun 2022,20220601,2/51 Jersey Street,JOLIMONT,WA,6014,-31.945713,115.811356,3,1,1,House,House,False,230,m2,False
2017780017,listing,/33b-pangbourne-street-wembley-wa-6014-2017780017,1300000,is-sold,Sold by private treaty 07 Jun 2022,20220607,33B Pangbourne Street,WEMBLEY,WA,6014,-31.93708,115.812477,3,2,2,House,House,False,559,m2,False
2017790914,listing,/19-49-flynn-street-wembley-wa-6014-2017790914,865000,is-sold,Sold by private treaty 09 Jun 2022,20220609,19/49 Flynn Street,WEMBLEY,WA,6014,-31.9313068,115.80584,3,2,3,Townhouse,Townhouse,False,0,m2,False
2017796704,listing,/53-11-herdsman-parade-wembley-wa-6014-2017796704,,is-sold,Sold by private treaty 30 May 2022,20220530,53/11 Herdsman Parade,WEMBLEY,WA,6014,-31.9251976,115.815971,2,1,1,Townhouse,Townhouse,False,0,m2,False
2017802479,listing,/215-334-cambridge-street-wembley-wa-6014-2017802479,380000,is-sold,Sold by private treaty 07 Jun 2022,20220607,215/334 Cambridge Street,WEMBLEY,WA,6014,-31.94046,115.81118,1,1,1,ApartmentUnitFlat,Apartment / Unit / Flat,False,75,m2,False
2017809923,listing,/250-selby-street-wembley-wa-6014-2017809923,1520000,is-sold,Sold by private treaty 31 May 2022,20220531,250 Selby Street,WEMBLEY,WA,6014,-31.9351959,115.804459,4,2,1,House,House,False,774,m2,False
2017814111,listing,/401-1-finishline-view-floreat-wa-6014-2017814111,,is-sold,Sold by private treaty 09 Jun 2022,20220609,401/1 Finishline View,FLOREAT,WA,6014,-31.9466267,115.787949,4,3,3,ApartmentUnitFlat,Apartment / Unit / Flat,False,0,m2,False
2017815280,listing,/52-stadium-drive-floreat-wa-6014-2017815280,1700000,is-sold,Sold by private treaty 06 Jun 2022,20220606,52 Stadium Drive,FLOREAT,WA,6014,-31.9459915,115.790405,4,3,2,House,House,False,374,m2,False
2017818322,listing,/21b-newry-street-floreat-wa-6014-2017818322,,is-sold,Sold by private treaty 02 Jun 2022,20220602,21B Newry Street,FLOREAT,WA,6014,-31.9400673,115.801796,3,2,2,House,House,False,0,m2,False
2017820579,listing,/3-48-moondine-drive-wembley-wa-6014-2017820579,439000,is-sold,Sold by private treaty 01 Jun 2022,20220601,3/48 Moondine Drive,WEMBLEY,WA,6014,-31.9290752,115.810516,3,1,1,ApartmentUnitFlat,Apartment / Unit / Flat,False,0,m2,False
2017823217,listing,/6-glenties-road-floreat-wa-6014-2017823217,,is-sold,Sold by private treaty 01 Jun 2022,20220601,6 Glenties Road,FLOREAT,WA,6014,-31.9334335,115.7826,4,3,3,House,House,False,809,m2,False
2017826395,listing,/46-elphin-street-floreat-wa-6014-2017826395,,is-sold,Sold by private treaty 02 Jun 2022,20220602,46 Elphin Street,FLOREAT,WA,6014,-31.9322662,115.779663,3,1,2,House,House,False,726,m2,False
2017834031,listing,/92-rosedale-street-floreat-wa-6014-2017834031,,is-sold,Sold by private treaty 12 Jun 2022,20220612,92 Rosedale Street,FLOREAT,WA,6014,-31.9450436,115.793343,4,3,5,House,House,False,943,m2,False
2017849705,listing,/115-mckenzie-street-wembley-wa-6014-2017849705,1400000,is-sold,Sold by private treaty 06 Jun 2022,20220606,115 McKenzie Street,WEMBLEY,WA,6014,-31.9318676,115.817307,3,2,2,House,House,False,645,m2,False
2017581461,listing,/5-59-troy-terrace-jolimont-wa-6014-2017581461,415000,is-sold,Sold by private treaty 26 May 2022,20220526,5/59 Troy Terrace,JOLIMONT,WA,6014,-31.94853,115.814049,2,1,2,ApartmentUnitFlat,Apartment / Unit / Flat,False,0,m2,False
2017613855,listing,/34-st-vincents-avenue-wembley-wa-6014-2017613855,3000000,is-sold,Sold by private treaty 12 May 2022,20220512,34 St Vincents Avenue,WEMBLEY,WA,6014,-31.9343243,115.8244,5,3,3,House,House,False,706,m2,False
2017648076,listing,/6-kintyre-crescent-floreat-wa-6014-2017648076,1820000,is-sold,Sold by private treaty 11 May 2022,20220511,6 Kintyre Crescent,FLOREAT,WA,6014,-31.9324436,115.7948,3,1,2,House,House,False,809,m2,False
2017670180,listing,/3-dunkeld-street-floreat-wa-6014-2017670180,1510000,is-sold,Sold by private treaty 23 May 2022,20220523,3 Dunkeld Street,FLOREAT,WA,6014,-31.9304771,115.790688,3,2,1,House,House,False,830,m2,False
2017707365,listing,/20-11-herdsman-pde-wembley-wa-6014-2017707365,165000,is-sold,Sold by private treaty 20 May 2022,20220520,20/11 Herdsman Pde,WEMBLEY,WA,6014,-31.9251976,115.815971,1,1,1,ApartmentUnitFlat,Apartment / Unit / Flat,False,0,m2,False
2017720520,listing,/3-turriff-road-floreat-wa-6014-2017720520,,is-sold,Sold by private treaty 12 May 2022,20220512,3 Turriff Road,FLOREAT,WA,6014,-31.9310379,115.799561,3,1,2,House,House,False,852,m2,False
2017746411,listing,/477-cambridge-street-floreat-wa-6014-2017746411,1575000,is-sold,Sold by private treaty 27 May 2022,20220527,477 Cambridge Street,FLOREAT,WA,6014,-31.9410229,115.798035,4,1,3,House,House,False,971,m2,False
2017752753,listing,/1-2-essex-street-wembley-wa-6014-2017752753,815000,is-sold,Sold by private treaty 24 May 2022,20220524,1/2 Essex Street,WEMBLEY,WA,6014,-31.9402981,115.816635,3,1,1,House,House,False,223,m2,False
2017759666,listing,/7-75-herdsman-parade-wembley-wa-6014-2017759666,220000,is-sold,Sold by private treaty 24 May 2022,20220524,7/75 Herdsman Parade,WEMBLEY,WA,6014,-31.9299526,115.81263,2,1,1,ApartmentUnitFlat,Apartment / Unit / Flat,False,0,m2,False
2017765014,listing,/7-3-currie-street-jolimont-wa-6014-2017765014,,is-sold,Sold by private treaty 13 May 2022,20220513,7/3 Currie Street,JOLIMONT,WA,6014,-31.94846,115.813446,1,1,1,ApartmentUnitFlat,Apartment / Unit / Flat,False,67,m2,False
2017767974,listing,/9-61-troy-terrace-jolimont-wa-6014-2017767974,700000,is-sold,Sold by private treaty 19 May 2022,20220519,9/61 Troy Terrace,JOLIMONT,WA,6014,-31.9480915,115.813995,3,1,2,Villa,Villa,False,0,m2,False
2017781882,listing,/329-salvado-road-floreat-wa-6014-2017781882,,is-sold,Sold by private treaty 11 May 2022,20220511,329 Salvado Road,FLOREAT,WA,6014,-31.9421349,115.791191,4,3,2,House,House,False,840,m2,False
2017791690,listing,/9-berkeley-crescent-floreat-wa-6014-2017791690,,is-sold,Sold by private treaty 19 May 2022,20220519,9 Berkeley Crescent,FLOREAT,WA,6014,-31.9351139,115.798912,5,3,2,House,House,False,822,m2,False
2017794630,listing,/2-261-cambridge-street-wembley-wa-6014-2017794630,864000,is-sold,Sold by private treaty 20 May 2022,20220520,2/261 Cambridge Street,WEMBLEY,WA,6014,-31.9411221,115.818062,3,1,2,Villa,Villa,False,275,m2,False
2017801599,listing,/4-2-dynevor-rise-floreat-wa-6014-2017801599,665000,is-sold,Sold by private treaty 17 May 2022,20220517,4/2 Dynevor Rise,FLOREAT,WA,6014,-31.9477272,115.790634,2,1,1,ApartmentUnitFlat,Apartment / Unit / Flat,False,0,m2,False
2017802520,listing,/17-howson-approach-floreat-wa-6014-2017802520,,is-sold,Sold by private treaty 17 May 2022,20220517,17 Howson Approach,FLOREAT,WA,6014,-31.9444752,115.789093,4,3,2,House,House,False,423,m2,False
2017804724,listing,/284-salvado-road-floreat-wa-6014-2017804724,,is-sold,Sold by private treaty 26 May 2022,20220526,284 Salvado Road,FLOREAT,WA,6014,-31.9416924,115.797432,4,3,2,House,House,False,596,m2,False
2017807582,listing,/130-harborne-street-wembley-wa-6014-2017807582,,is-sold,Sold by private treaty 25 May 2022,20220525,130 Harborne Street,WEMBLEY,WA,6014,-31.9314213,115.820313,4,2,3,House,House,False,645,m2,False
2017816138,listing,/22-pangbourne-street-wembley-wa-6014-2017816138,1390000,is-sold,Sold by private treaty 26 May 2022,20220526,22 Pangbourne Street,WEMBLEY,WA,6014,-31.93835,115.8132,3,2,2,House,House,False,398,m2,False
2017822185,listing,/29-mckenzie-street-wembley-wa-6014-2017822185,,is-sold,Sold by private treaty 28 May 2022,20220528,29 McKenzie Street,WEMBLEY,WA,6014,-31.93819,115.817039,4,2,3,House,House,False,670,m2,False
2015657325,listing,/123-6-tighe-street-jolimont-wa-6014-2015657325,499000,is-sold,Sold by private treaty 01 May 2022,20220501,123/6 Tighe Street,JOLIMONT,WA,6014,-31.9453812,115.813354,2,1,1,House,House,False,0,m2,True
2017593336,listing,/83-essex-street-wembley-wa-6014-2017593336,1700000,is-sold,Sold by private treaty 27 Apr 2022,20220427,83 Essex Street,WEMBLEY,WA,6014,-31.9348011,115.8162,3,2,2,House,House,False,653,m2,False
2017651568,listing,/51a-pangbourne-street-wembley-wa-6014-2017651568,1320000,is-sold,Sold by private treaty 29 Apr 2022,20220429,51A Pangbourne Street,WEMBLEY,WA,6014,-31.93545,115.812508,3,1,2,House,House,False,552,m2,False
2017664177,listing,/30-48-moondine-drive-wembley-wa-6014-2017664177,,is-sold,Sold by private treaty 03 May 2022,20220503,30/48 Moondine Drive,WEMBLEY,WA,6014,-31.9290752,115.810516,2,1,2,ApartmentUnitFlat,Apartment / Unit / Flat,False,81,m2,False
2017664179,listing,/30-48-moondine-drive-wembley-wa-6014-2017664179,,is-sold,Sold by private treaty 03 May 2022,20220503,30/48 Moondine Drive,WEMBLEY,WA,6014,-31.9290752,115.810516,2,1,2,ApartmentUnitFlat,Apartment / Unit / Flat,False,81,m2,False
2017678928,listing,/floreat-wa-6014-2017678928,,is-sold,Sold by private treaty 03 May 2022,20220503,,FLOREAT,WA,6014,-31.9404411,115.792183,4,2,2,NewHouseLand,New House & Land,False,0,m2,False
2017679963,listing,/floreat-wa-6014-2017679963,,is-sold,Sold by private treaty 03 May 2022,20220503,,FLOREAT,WA,6014,-31.9404411,115.792183,4,2,2,NewHouseLand,New House & Land,False,0,m2,False
2017681877,listing,/86-herdsman-parade-wembley-wa-6014-2017681877,1200000,is-sold,Sold by private treaty 11 May 2022,20220511,86 Herdsman Parade,WEMBLEY,WA,6014,-31.93093,115.8119,3,3,2,House,House,False,420,m2,False
2017688697,listing,/5-623-625-hay-street-jolimont-wa-6014-2017688697,540000,is-sold,Sold by private treaty 09 May 2022,20220509,5/623-625 Hay Street,JOLIMONT,WA,6014,-31.94805,115.812569,2,1,1,ApartmentUnitFlat,Apartment / Unit / Flat,False,0,m2,False
2017705225,listing,/132-6-tighe-street-jolimont-wa-6014-2017705225,530000,is-sold,Sold by private treaty 01 May 2022,20220501,132/6 Tighe Street,JOLIMONT,WA,6014,-31.9453812,115.813354,2,1,1,House,House,False,0,m2,True
2017731549,listing,/2-3-currie-street-jolimont-wa-6014-2017731549,370000,is-sold,Sold by private treaty 03 May 2022,20220503,2/3 Currie Street,JOLIMONT,WA,6014,-31.9485588,115.813705,1,1,1,ApartmentUnitFlat,Apartment / Unit / Flat,False,96,m2,False
2017752980,listing,/67-keane-street-wembley-wa-6014-2017752980,2130000,is-sold,Sold by private treaty 27 Apr 2022,20220427,67 Keane Street,WEMBLEY,WA,6014,-31.93347,115.805153,4,2,2,House,House,False,599,m2,False
2017754475,listing,/36-moray-avenue-floreat-wa-6014-2017754475,,is-sold,Sold by private treaty 05 May 2022,20220505,36 Moray Avenue,FLOREAT,WA,6014,-31.931469,115.798241,4,2,2,House,House,False,1024,m2,False
2017763328,listing,/84-harborne-street-wembley-wa-6014-2017763328,1425000,is-sold,Sold by private treaty 03 May 2022,20220503,84 Harborne Street,WEMBLEY,WA,6014,-31.9347973,115.820221,4,2,2,House,House,False,653,m2,False
2017763332,listing,/15-48-salvado-rd-wembley-wa-6014-2017763332,,is-sold,Sold by private treaty 01 May 2022,20220501,15/48 Salvado Rd,WEMBLEY,WA,6014,-31.9416351,115.820778,2,1,1,Villa,Villa,False,0,m2,False
2017767430,listing,/1-veryard-terrace-wembley-wa-6014-2017767430,1240000,is-sold,Sold by private treaty 08 May 2022,20220508,1 Veryard Terrace,WEMBLEY,WA,6014,-31.9417439,115.805634,4,2,2,House,House,False,344,m2,False
2017767959,listing,/18-holland-street-wembley-wa-6014-2017767959,,is-sold,Sold by private treaty 11 May 2022,20220511,18 Holland Street,WEMBLEY,WA,6014,-31.9390354,115.814445,4,3,2,House,House,False,670,m2,False
2017772579,listing,/157-6-tighe-street-jolimont-wa-6014-2017772579,510000,is-sold,Sold by private treaty 01 May 2022,20220501,157/6 Tighe Street,JOLIMONT,WA,6014,-31.9453812,115.813354,3,2,1,House,House,False,0,m2,True
2017785018,listing,/282-salvado-road-floreat-wa-6014-2017785018,,is-sold,Sold by private treaty 09 May 2022,20220509,282 Salvado Road,FLOREAT,WA,6014,-31.9416523,115.797615,4,3,2,House,House,False,1004,m2,False
2017941368,listing,/20-2-dynevor-rise-floreat-wa-6014-2017941368,693500,is-sold,Sold by private treaty 29 Apr 2022,20220429,20/2 Dynevor Rise,FLOREAT,WA,6014,-31.9477272,115.790634,2,2,2,ApartmentUnitFlat,Apartment / Unit / Flat,False,0,m2,False
2017348288,listing,/1-19-currie-street-jolimont-wa-6014-2017348288,250000,is-sold,Sold by private treaty 14 Apr 2022,20220414,1/19 Currie Street,JOLIMONT,WA,6014,-31.9485321,115.812225,1,1,1,ApartmentUnitFlat,Apartment / Unit / Flat,False,54,m2,False
2017411143,listing,/66-reserve-street-wembley-wa-6014-2017411143,,is-sold,Sold by private treaty 11 Apr 2022,20220411,66 Reserve Street,WEMBLEY,WA,6014,-31.9332924,115.807022,4,2,2,House,House,False,1088,m2,False
2017466999,listing,/11-the-grove-wembley-wa-6014-2017466999,1850000,is-sold,Sold by private treaty 07 Apr 2022,20220407,11 The Grove,WEMBLEY,WA,6014,-31.9362316,115.822395,5,2,2,House,House,False,736,m2,False
2017519657,listing,/31f-47-herdsman-parade-wembley-wa-6014-2017519657,266000,is-sold,Sold by private treaty 13 Apr 2022,20220413,31F/47 Herdsman Parade,WEMBLEY,WA,6014,-31.92716,115.814163,2,1,1,ApartmentUnitFlat,Apartment / Unit / Flat,False,69,m2,False
2017520387,listing,/5-615-hay-street-jolimont-wa-6014-2017520387,585000,is-sold,Sold by private treaty 10 Apr 2022,20220410,5/615 Hay Street,JOLIMONT,WA,6014,-31.94783,115.813408,3,2,1,Townhouse,Townhouse,False,0,m2,False
2017548095,listing,/18-mckenzie-street-wembley-wa-6014-2017548095,2150000,is-sold,Sold by private treaty 13 Apr 2022,20220413,18 McKenzie Street,WEMBLEY,WA,6014,-31.9389973,115.817863,4,2,2,House,House,False,670,m2,False
2017567064,listing,/16-lifford-road-floreat-wa-6014-2017567064,2750000,is-sold,Sold by private treaty 08 Apr 2022,20220408,16 Lifford Road,FLOREAT,WA,6014,-31.9338589,115.782738,3,3,2,House,House,False,903,m2,False
2017602719,listing,/23-409-cambridge-street-wembley-wa-6014-2017602719,210000,is-sold,Sold by private treaty 13 Apr 2022,20220413,23/409 Cambridge Street,WEMBLEY,WA,6014,-31.9411221,115.804642,1,1,1,ApartmentUnitFlat,Apartment / Unit / Flat,False,0,m2,False
2017603108,listing,/2-47-flynn-wembley-wa-6014-2017603108,,is-sold,Sold by private treaty 27 Apr 2022,20220427,2/47 Flynn,WEMBLEY,WA,6014,-31.9317226,115.805534,2,1,2,ApartmentUnitFlat,Apartment / Unit / Flat,False,0,m2,False
2017632831,listing,/23-pearson-place-floreat-wa-6014-2017632831,1922888,is-sold,Sold by private treaty 12 Apr 2022,20220412,23 Pearson Place,FLOREAT,WA,6014,-31.9312344,115.800095,4,2,3,House,House,False,832,m2,False
2017670400,listing,/171-gregory-street-wembley-wa-6014-2017670400,,is-sold,Sold by private treaty 09 Apr 2022,20220409,171 Gregory Street,WEMBLEY,WA,6014,-31.9278488,115.820694,3,1,1,House,House,False,645,m2,False
2017674814,listing,/30-645-hay-street-jolimont-wa-6014-2017674814,360000,is-sold,Sold by private treaty 09 Apr 2022,20220409,30/645 Hay Street,JOLIMONT,WA,6014,-31.9480019,115.810257,2,1,1,ApartmentUnitFlat,Apartment / Unit / Flat,False,0,m2,True
2017679048,listing,/17-2-dynevor-rise-floreat-wa-6014-2017679048,700000,is-sold,Sold by private treaty 22 Apr 2022,20220422,17/2 Dynevor Rise,FLOREAT,WA,6014,-31.9477272,115.790634,2,2,2,ApartmentUnitFlat,Apartment / Unit / Flat,False,0,m2,False
2017681586,listing,/56-281-cambridge-street-wembley-wa-6014-2017681586,,is-sold,Sold by private treaty 22 Apr 2022,20220422,56/281 Cambridge Street,WEMBLEY,WA,6014,-31.9409771,115.816193,1,1,1,ApartmentUnitFlat,Apartment / Unit / Flat,False,0,m2,False
2017691784,listing,/9-85-herdsman-parade-wembley-wa-6014-2017691784,197000,is-sold,Sold by private treaty 11 Apr 2022,20220411,9/85 Herdsman Parade,WEMBLEY,WA,6014,-31.9296341,115.811432,1,1,1,ApartmentUnitFlat,Apartment / Unit / Flat,False,61,m2,False
2017701624,listing,/45-glengariff-drive-floreat-wa-6014-2017701624,,is-sold,Sold by private treaty 08 Apr 2022,20220408,45 Glengariff Drive,FLOREAT,WA,6014,-31.9373665,115.7829,5,3,2,House,House,False,782,m2,False
2017705102,listing,/102-essex-street-wembley-wa-6014-2017705102,2225000,is-sold,Sold by private treaty 11 Apr 2022,20220411,102 Essex Street,WEMBLEY,WA,6014,-31.9333858,115.8168,4,2,2,House,House,False,645,m2,False
2017726039,listing,/136-jersey-street-jolimont-wa-6014-2017726039,,is-sold,Sold by private treaty 13 Apr 2022,20220413,136 Jersey Street,JOLIMONT,WA,6014,-31.9428673,115.81192,5,2,2,House,House,False,398,m2,False
2017737675,listing,/6-kenmore-crescent-floreat-wa-6014-2017737675,2038000,is-sold,Sold by private treaty 19 Apr 2022,20220419,6 Kenmore Crescent,FLOREAT,WA,6014,-31.93355,115.795815,5,3,2,House,House,False,875,m2,False
2017742424,listing,/8-oakdale-street-floreat-wa-6014-2017742424,,is-sold,Sold by private treaty 26 Apr 2022,20220426,8 Oakdale Street,FLOREAT,WA,6014,-31.9408436,115.790939,3,2,2,House,House,False,809,m2,False
2017326161,listing,/8-85-reserve-street-wembley-wa-6014-2017326161,950000,is-sold,Sold by private treaty 30 Mar 2022,20220330,8/85 Reserve Street,WEMBLEY,WA,6014,-31.9315052,115.806274,3,2,3,Townhouse,Townhouse,False,163,m2,False
2017465208,listing,/71-kirkdale-avenue-floreat-wa-6014-2017465208,1510000,is-sold,Sold by private treaty 18 Mar 2022,20220318,71 Kirkdale Avenue,FLOREAT,WA,6014,-31.9299564,115.793091,3,1,1,House,House,False,812,m2,False
2017470624,listing,/179-daglish-street-wembley-wa-6014-2017470624,1220000,is-sold,Sold by private treaty 17 Mar 2022,20220317,179 Daglish Street,WEMBLEY,WA,6014,-31.9268627,115.8186,3,2,,House,House,False,408,m2,False
2017519659,listing,/31f-47-herdsman-parade-wembley-wa-6014-2017519659,266000,is-sold,Sold by private treaty 04 Apr 2022,20220404,31F/47 Herdsman Parade,WEMBLEY,WA,6014,-31.92716,115.814163,2,1,1,ApartmentUnitFlat,Apartment / Unit / Flat,False,69,m2,False
2017575454,listing,/floreat-wa-6014-2017575454,,is-sold,Sold by private treaty 21 Mar 2022,20220321,,FLOREAT,WA,6014,-31.9404411,115.792183,4,2,2,NewHouseLand,New House & Land,False,0,m2,False
2017585409,listing,/wembley-wa-6014-2017585409,,is-sold,Sold by private treaty 06 Apr 2022,20220406,,WEMBLEY,WA,6014,-31.9343624,115.811714,4,2,2,NewHouseLand,New House & Land,False,0,m2,False
2017585475,listing,/wembley-wa-6014-2017585475,,is-sold,Sold by private treaty 06 Apr 2022,20220406,,WEMBLEY,WA,6014,-31.9343624,115.811714,3,2,2,NewHouseLand,New House & Land,False,0,m2,False
2017589083,listing,/100-grantham-street-floreat-wa-6014-2017589083,1650000,is-sold,Sold by private treaty 28 Mar 2022,20220328,100 Grantham Street,FLOREAT,WA,6014,-31.9339333,115.801018,4,2,2,House,House,False,835,m2,False
2017600180,listing,/9-2-burvill-drive-floreat-wa-6014-2017600180,630000,is-sold,Sold by private treaty 24 Mar 2022,20220324,9/2 Burvill Drive,FLOREAT,WA,6014,-31.9472618,115.789047,2,1,1,ApartmentUnitFlat,Apartment / Unit / Flat,False,0,m2,False
2017605475,listing,/8-mckenzie-street-wembley-wa-6014-2017605475,1730000,is-sold,Sold by private treaty 31 Mar 2022,20220331,8 McKenzie Street,WEMBLEY,WA,6014,-31.9397011,115.817863,3,2,2,House,House,False,670,m2,False
2017610611,listing,/155-jersey-street-wembley-wa-6014-2017610611,1435000,is-sold,Sold by private treaty 28 Mar 2022,20220328,155 Jersey Street,WEMBLEY,WA,6014,-31.93979,115.811241,3,2,2,House,House,False,395,m2,False
2017634646,listing,/20-2-dynevor-rise-floreat-wa-6014-2017634646,693500,is-sold,Sold by private treaty 01 Apr 2022,20220401,20/2 Dynevor Rise,FLOREAT,WA,6014,-31.9477272,115.790634,2,2,2,ApartmentUnitFlat,Apartment / Unit / Flat,False,0,m2,False
2017637522,listing,/135-daglish-street-wembley-wa-6014-2017637522,,is-sold,Sold by private treaty 18 Mar 2022,20220318,135 Daglish Street,WEMBLEY,WA,6014,-31.9303532,115.818558,5,2,3,House,House,False,617,m2,False
2017642161,listing,/35-59-herdsman-parade-wembley-wa-6014-2017642161,233000,is-sold,Sold by private treaty 31 Mar 2022,20220331,35/59 Herdsman Parade,WEMBLEY,WA,6014,-31.9295845,115.813705,2,1,1,ApartmentUnitFlat,Apartment / Unit / Flat,False,0,m2,False
2017664753,listing,/32-orrel-avenue-floreat-wa-6014-2017664753,,is-sold,Sold by private treaty 22 Mar 2022,20220322,32 Orrel Avenue,FLOREAT,WA,6014,-31.9385414,115.796577,3,1,,House,House,False,966,m2,False
2017666096,listing,/20-elphin-street-floreat-wa-6014-2017666096,,is-sold,Sold by private treaty 20 Mar 2022,20220320,20 Elphin Street,FLOREAT,WA,6014,-31.9350128,115.778946,4,2,4,House,House,False,797,m2,False
2017670549,listing,/g26-47-herdsman-parade-wembley-wa-6014-2017670549,,is-sold,Sold by private treaty 20 Mar 2022,20220320,G26/47 Herdsman Parade,WEMBLEY,WA,6014,-31.92716,115.814163,2,1,1,ApartmentUnitFlat,Apartment / Unit / Flat,False,0,m2,False
2017672208,listing,/476a-cambridge-street-floreat-wa-6014-2017672208,1250000,is-sold,Sold by private treaty 22 Mar 2022,20220322,476A Cambridge Street,FLOREAT,WA,6014,-31.94051,115.797951,3,2,2,House,House,False,364,m2,False
2017674707,listing,/2-304-cambridge-street-wembley-wa-6014-2017674707,313000,is-sold,Sold by private treaty 04 Apr 2022,20220404,2/304 Cambridge Street,WEMBLEY,WA,6014,-31.9404831,115.814255,1,1,1,ApartmentUnitFlat,Apartment / Unit / Flat,False,0,m2,False
2017692188,listing,/26-donegal-road-floreat-wa-6014-2017692188,,is-sold,Sold by private treaty 25 Mar 2022,20220325,26 Donegal Road,FLOREAT,WA,6014,-31.9329033,115.786758,4,1,,House,House,False,847,m2,False
2016820129,listing,/43-barrett-street-wembley-wa-6014-2016820129,1400000,is-sold,Sold by private treaty 14 Mar 2022,20220314,43 Barrett Street,WEMBLEY,WA,6014,-31.9400616,115.821259,4,2,4,House,House,False,300,m2,False
2017412749,listing,/21-303-cambridge-street-wembley-wa-6014-2017412749,200000,is-sold,Sold by private treaty 08 Mar 2022,20220308,21/303 Cambridge Street,WEMBLEY,WA,6014,-31.9410954,115.8143,1,1,1,ApartmentUnitFlat,Apartment / Unit / Flat,False,36,m2,False
2017478813,listing,/20a-jukes-way-wembley-wa-6014-2017478813,1380000,is-sold,Sold by private treaty 11 Mar 2022,20220311,20A Jukes Way,WEMBLEY,WA,6014,-31.9239483,115.818764,4,2,2,House,House,False,272,m2,False
2017499567,listing,/207b-19-herdsman-parade-wembley-wa-6014-2017499567,250000,is-sold,Sold by private treaty 10 Mar 2022,20220310,207B/19 Herdsman Parade,WEMBLEY,WA,6014,-31.9254818,115.815041,2,1,1,ApartmentUnitFlat,Apartment / Unit / Flat,False,0,m2,False
2017555970,listing,/102-1-finishline-view-floreat-wa-6014-2017555970,2200000,is-sold,Sold by private treaty 08 Mar 2022,20220308,102/1 Finishline View,FLOREAT,WA,6014,-31.9466267,115.787949,3,2,4,ApartmentUnitFlat,Apartment / Unit / Flat,False,0,m2,False
2017596675,listing,/679-hay-street-jolimont-wa-6014-2017596675,1010000,is-sold,Sold by private treaty 04 Mar 2022,20220304,679 Hay Street,JOLIMONT,WA,6014,-31.9481,115.806519,3,1,2,House,House,False,457,m2,False
2017600834,listing,/40-22-pollen-grove-jolimont-wa-6014-2017600834,1300000,is-sold,Sold by private treaty 14 Mar 2022,20220314,40/22 Pollen Grove,JOLIMONT,WA,6014,-31.9435043,115.8091,3,2,2,ApartmentUnitFlat,Apartment / Unit / Flat,False,0,m2,False
2017601877,listing,/20-connolly-street-wembley-wa-6014-2017601877,,is-sold,Sold by private treaty 12 Mar 2022,20220312,20 Connolly Street,WEMBLEY,WA,6014,-31.9397011,115.825485,3,1,1,House,House,False,675,m2,False
2017602566,listing,/200-ruislip-street-wembley-wa-6014-2017602566,1550000,is-sold,Sold by private treaty 06 Mar 2022,20220306,200 Ruislip Street,WEMBLEY,WA,6014,-31.9372482,115.8098,4,2,2,House,House,False,400,m2,False
2017604061,listing,/70-oceanic-drive-floreat-wa-6014-2017604061,,is-sold,Sold by private treaty 02 Mar 2022,20220302,70 Oceanic Drive,FLOREAT,WA,6014,-31.93767,115.782547,3,2,2,House,House,False,809,m2,False
2017608632,listing,/21-281-cambridge-st-wembley-wa-6014-2017608632,187000,is-sold,Sold by private treaty 10 Mar 2022,20220310,21/281 Cambridge St,WEMBLEY,WA,6014,-31.9409771,115.816193,1,1,1,ApartmentUnitFlat,Apartment / Unit / Flat,False,0,m2,False
2017609107,listing,/253-ruislip-street-wembley-wa-6014-2017609107,,is-sold,Sold by private treaty 10 Mar 2022,20220310,253 Ruislip Street,WEMBLEY,WA,6014,-31.9375763,115.804489,3,2,1,House,House,False,710,m2,False
2017614849,listing,/65-115-herdsman-parade-wembley-wa-6014-2017614849,,is-sold,Sold by private treaty 14 Mar 2022,20220314,65/115 Herdsman Parade,WEMBLEY,WA,6014,-31.9298286,115.808235,2,1,1,Townhouse,Townhouse,False,0,m2,False
2017627793,listing,/35-93-herdsman-parade-wembley-wa-6014-2017627793,230000,is-sold,Sold by private treaty 09 Mar 2022,20220309,35/93 Herdsman Parade,WEMBLEY,WA,6014,-31.930069,115.810432,1,1,1,ApartmentUnitFlat,Apartment / Unit / Flat,False,0,m2,False
2017629569,listing,/36-dakin-street-jolimont-wa-6014-2017629569,1018000,is-sold,Sold by private treaty 11 Mar 2022,20220311,36 Dakin Street,JOLIMONT,WA,6014,-31.94846,115.804642,3,1,2,House,House,False,0,m2,False
2017635115,listing,/48-halesworth-road-jolimont-wa-6014-2017635115,,is-sold,Sold by private treaty 08 Mar 2022,20220308,48 Halesworth Road,JOLIMONT,WA,6014,-31.9443531,115.807693,4,2,2,House,House,False,522,m2,False
2017640595,listing,/49-93-herdsman-parade-wembley-wa-6014-2017640595,202500,is-sold,Sold by private treaty 16 Mar 2022,20220316,49/93 Herdsman Parade,WEMBLEY,WA,6014,-31.930069,115.810432,1,1,1,ApartmentUnitFlat,Apartment / Unit / Flat,False,0,m2,False
2017640821,listing,/454-cambridge-street-floreat-wa-6014-2017640821,,is-sold,Sold by private treaty 07 Mar 2022,20220307,454 Cambridge Street,FLOREAT,WA,6014,-31.9405022,115.799873,3,2,2,House,House,False,436,m2,False
2017647520,listing,/34-59-herdsman-parade-wembley-wa-6014-2017647520,210000,is-sold,Sold by private treaty 08 Mar 2022,20220308,34/59 Herdsman Parade,WEMBLEY,WA,6014,-31.9296265,115.813705,2,1,1,ApartmentUnitFlat,Apartment / Unit / Flat,False,0,m2,False
2017653661,listing,/212b-19-herdsman-parade-wembley-wa-6014-2017653661,235000,is-sold,Sold by private treaty 11 Mar 2022,20220311,212B/19 Herdsman Parade,WEMBLEY,WA,6014,-31.9254818,115.815041,2,1,1,ApartmentUnitFlat,Apartment / Unit / Flat,False,0,m2,False
2017370153,listing,/65-glengariff-drive-floreat-wa-6014-2017370153,2302000,is-sold,Sold by private treaty 25 Feb 2022,20220225,65 Glengariff Drive,FLOREAT,WA,6014,-31.9365425,115.780586,4,2,2,House,House,False,890,m2,False
2017382996,listing,/37-the-boulevard-floreat-wa-6014-2017382996,1500000,is-sold,Sold by private treaty 18 Feb 2022,20220218,37 The Boulevard,FLOREAT,WA,6014,-31.9373455,115.799515,3,2,2,House,House,False,873,m2,False
2017415754,listing,/10-glenties-road-floreat-wa-6014-2017415754,2400000,is-sold,Sold by private treaty 22 Feb 2022,20220222,10 Glenties Road,FLOREAT,WA,6014,-31.9330978,115.782715,4,2,2,House,House,False,809,m2,False
2017422141,listing,/15-56-moondine-drive-wembley-wa-6014-2017422141,442000,is-sold,Sold by private treaty 28 Feb 2022,20220228,15/56 Moondine Drive,WEMBLEY,WA,6014,-31.9282665,115.81321,2,1,1,ApartmentUnitFlat,Apartment / Unit / Flat,False,0,m2,False
2017427747,listing,/77-evandale-street-floreat-wa-6014-2017427747,1870000,is-sold,Sold by private treaty 25 Feb 2022,20220225,77 Evandale Street,FLOREAT,WA,6014,-31.9432964,115.795952,4,1,1,House,House,False,769,m2,False
2017460823,listing,/1-449-cambridge-street-floreat-wa-6014-2017460823,,is-sold,Sold by private treaty 19 Feb 2022,20220219,1/449 Cambridge Street,FLOREAT,WA,6014,-31.94114,115.800774,1,1,1,ApartmentUnitFlat,Apartment / Unit / Flat,False,0,m2,False
2017487613,listing,/404-18-hortus-way-jolimont-wa-6014-2017487613,1050000,is-sold,Sold by private treaty 28 Feb 2022,20220228,404/18 Hortus Way,JOLIMONT,WA,6014,-31.9433,115.808159,2,2,2,ApartmentUnitFlat,Apartment / Unit / Flat,False,0,m2,False
2017575402,listing,/1-pollen-grove-jolimont-wa-6014-2017575402,,is-sold,Sold by private treaty 22 Feb 2022,20220222,1 Pollen Grove,JOLIMONT,WA,6014,-31.9435024,115.808876,5,4,3,House,House,False,312,m2,False
2017586441,listing,/10-216-cambridge-street-wembley-wa-6014-2017586441,,is-sold,Sold by private treaty 20 Feb 2022,20220220,10/216 Cambridge Street,WEMBLEY,WA,6014,-31.940567,115.8217,1,1,1,ApartmentUnitFlat,Apartment / Unit / Flat,False,42,m2,False
2017588750,listing,/12-391-393-cambridge-street-wembley-wa-6014-2017588750,,is-sold,Sold by private treaty 24 Feb 2022,20220224,12/391-393 Cambridge Street,WEMBLEY,WA,6014,-31.9411354,115.806587,2,1,1,ApartmentUnitFlat,Apartment / Unit / Flat,False,76,m2,False
2017589773,listing,/324-1-finishline-view-floreat-wa-6014-2017589773,,is-sold,Sold by private treaty 26 Feb 2022,20220226,324/1 Finishline View,FLOREAT,WA,6014,-31.9466267,115.787949,3,2,2,ApartmentUnitFlat,Apartment / Unit / Flat,False,0,m2,False
2017593154,listing,/55-pangbourne-street-wembley-wa-6014-2017593154,1581999,is-sold,Sold by private treaty 22 Feb 2022,20220222,55 Pangbourne Street,WEMBLEY,WA,6014,-31.93509,115.812553,4,2,2,House,House,False,476,m2,False
2017595739,listing,/7-peel-street-jolimont-wa-6014-2017595739,1425000,is-sold,Sold by private treaty 02 Mar 2022,20220302,7 Peel Street,JOLIMONT,WA,6014,-31.9469967,115.808113,5,2,2,House,House,False,0,m2,False
2017596520,listing,/56a-grantham-street-wembley-wa-6014-2017596520,1200000,is-sold,Sold by private treaty 25 Feb 2022,20220225,56A Grantham Street,WEMBLEY,WA,6014,-31.9342346,115.811218,3,2,2,House,House,False,382,m2,False
2017596666,listing,/124-herdsman-parade-wembley-wa-6014-2017596666,,is-sold,Sold by private treaty 27 Feb 2022,20220227,124 Herdsman Parade,WEMBLEY,WA,6014,-31.9317837,115.808342,3,1,1,House,House,False,675,m2,False
2017599488,listing,/80-birkdale-street-floreat-wa-6014-2017599488,,is-sold,Sold by private treaty 25 Feb 2022,20220225,80 Birkdale Street,FLOREAT,WA,6014,-31.9467812,115.801758,4,2,2,House,House,False,835,m2,False
2017604091,listing,/20a-alderbury-street-floreat-wa-6014-2017604091,,is-sold,Sold by private treaty 28 Feb 2022,20220228,20A Alderbury Street,FLOREAT,WA,6014,-31.9438515,115.80217,4,2,4,House,House,False,597,m2,False
2017612074,listing,/55-50-moondine-drive-wembley-wa-6014-2017612074,366500,is-sold,Sold by private treaty 26 Feb 2022,20220226,55/50 Moondine Drive,WEMBLEY,WA,6014,-31.92918,115.811462,2,1,1,ApartmentUnitFlat,Apartment / Unit / Flat,False,0,m2,False
2017616799,listing,/4-619-hay-street-jolimont-wa-6014-2017616799,,is-sold,Sold by private treaty 02 Mar 2022,20220302,4/619 Hay Street,JOLIMONT,WA,6014,-31.9480515,115.8131,2,1,1,ApartmentUnitFlat,Apartment / Unit / Flat,False,99,m2,False
2017620112,listing,/162-jersey-street-wembley-wa-6014-2017620112,1825000,is-sold,Sold by private treaty 02 Mar 2022,20220302,162 Jersey Street,WEMBLEY,WA,6014,-31.9392452,115.811943,4,1,1,House,House,False,941,m2,False
2017376383,listing,/31-62-moondine-drive-wembley-wa-6014-2017376383,449000,is-sold,Sold by private treaty 16 Feb 2022,20220216,31/62 Moondine Drive,WEMBLEY,WA,6014,-31.92682,115.8147,2,1,1,ApartmentUnitFlat,Apartment / Unit / Flat,False,0,m2,False
2017406477,listing,/15-55-herdsman-parade-wembley-wa-6014-2017406477,,is-sold,Sold by private treaty 14 Feb 2022,20220214,15/55 Herdsman Parade,WEMBLEY,WA,6014,-31.9292545,115.814072,1,1,1,ApartmentUnitFlat,Apartment / Unit / Flat,False,0,m2,False
2017421276,listing,/311-365-cambridge-street-wembley-wa-6014-2017421276,,is-sold,Sold by private treaty 10 Feb 2022,20220210,311/365 Cambridge Street,WEMBLEY,WA,6014,-31.9411087,115.808952,1,1,1,House,House,False,0,m2,False
2017436346,listing,/2-3-dodd-street-wembley-wa-6014-2017436346,530000,is-sold,Sold by private treaty 14 Feb 2022,20220214,2/3 Dodd Street,WEMBLEY,WA,6014,-31.9249172,115.818115,3,1,1,Villa,Villa,False,0,m2,True
2017460297,listing,/13-15-currie-street-jolimont-wa-6014-2017460297,281000,is-sold,Sold by private treaty 14 Feb 2022,20220214,13/15 Currie Street,JOLIMONT,WA,6014,-31.9483128,115.812546,2,1,1,ApartmentUnitFlat,Apartment / Unit / Flat,False,0,m2,False
2017499178,listing,/25-holland-street-wembley-wa-6014-2017499178,1650000,is-sold,Sold by private treaty 11 Feb 2022,20220211,25 Holland Street,WEMBLEY,WA,6014,-31.9384556,115.813774,4,2,3,House,House,False,670,m2,False
2017508887,listing,/28g-47-herdsman-parade-wembley-wa-6014-2017508887,246000,is-sold,Sold by private treaty 15 Feb 2022,20220215,28G/47 Herdsman Parade,WEMBLEY,WA,6014,-31.92716,115.814163,2,1,1,ApartmentUnitFlat,Apartment / Unit / Flat,False,0,m2,False
2017519500,listing,/203-ruislip-street-wembley-wa-6014-2017519500,956000,is-sold,Sold by private treaty 04 Feb 2022,20220204,203 Ruislip Street,WEMBLEY,WA,6014,-31.9376011,115.809464,3,1,2,House,House,False,0,m2,False
2017521729,listing,/1-22-grandstand-lane-floreat-wa-6014-2017521729,,is-sold,Sold by private treaty 07 Feb 2022,20220207,1/22 Grandstand Lane,FLOREAT,WA,6014,-31.9457531,115.789429,3,2,2,House,House,False,207,m2,False
2017527738,listing,/29-peebles-road-floreat-wa-6014-2017527738,1600000,is-sold,Sold by private treaty 04 Feb 2022,20220204,29 Peebles Road,FLOREAT,WA,6014,-31.9334412,115.798218,4,1,1,House,House,False,837,m2,False
2017535281,listing,/4-7-currie-st-jolimont-wa-6014-2017535281,365000,is-sold,Sold by private treaty 14 Feb 2022,20220214,4/7 Currie St,JOLIMONT,WA,6014,-31.9481487,115.813614,2,1,1,ApartmentUnitFlat,Apartment / Unit / Flat,False,0,m2,False
2017537052,listing,/22-oceanic-drive-floreat-wa-6014-2017537052,1345000,is-sold,Sold by private treaty 10 Feb 2022,20220210,22 Oceanic Drive,FLOREAT,WA,6014,-31.94042,115.793365,3,1,1,House,House,False,837,m2,False
2017558151,listing,/3-3-currie-street-jolimont-wa-6014-2017558151,360000,is-sold,Sold by private treaty 04 Feb 2022,20220204,3/3 Currie Street,JOLIMONT,WA,6014,-31.9485588,115.813705,1,1,1,ApartmentUnitFlat,Apartment / Unit / Flat,False,92,m2,False
2017559532,listing,/floreat-wa-6014-2017559532,,is-sold,Sold by private treaty 07 Feb 2022,20220207,,FLOREAT,WA,6014,-31.9404411,115.792183,4,3,2,House,House,False,827,m2,False
2017563204,listing,/17-1-simper-street-wembley-wa-6014-2017563204,,is-sold,Sold by private treaty 17 Feb 2022,20220217,17/1 Simper Street,WEMBLEY,WA,6014,-31.9402275,115.808876,3,2,2,Townhouse,Townhouse,False,119,m2,False
2017564611,listing,/311-365-cambridge-street-wembley-wa-6014-2017564611,,is-sold,Sold by private treaty 10 Feb 2022,20220210,311/365 Cambridge Street,WEMBLEY,WA,6014,-31.9411011,115.808952,1,1,1,ApartmentUnitFlat,Apartment / Unit / Flat,False,0,m2,False
2017566955,listing,/118-brookdale-street-floreat-wa-6014-2017566955,1370000,is-sold,Sold by private treaty 14 Feb 2022,20220214,118 Brookdale Street,FLOREAT,WA,6014,-31.9426384,115.792122,3,1,1,House,House,False,837,m2,False
2017567139,listing,/2-54-moondine-drive-wembley-wa-6014-2017567139,416500,is-sold,Sold by private treaty 07 Feb 2022,20220207,2/54 Moondine Drive,WEMBLEY,WA,6014,-31.9285469,115.812668,2,1,1,Villa,Villa,False,0,m2,True
2017569996,listing,/85-alexander-street-wembley-wa-6014-2017569996,,is-sold,Sold by private treaty 07 Feb 2022,20220207,85 Alexander Street,WEMBLEY,WA,6014,-31.9326878,115.8101,4,2,6,House,House,False,731,m2,False
2017582251,listing,/75-holland-street-wembley-wa-6014-2017582251,,is-sold,Sold by private treaty 13 Feb 2022,20220213,75 Holland Street,WEMBLEY,WA,6014,-31.9348164,115.813843,4,3,3,House,House,False,653,m2,False
2017255211,listing,/24-2-dynevor-rise-floreat-wa-6014-2017255211,630000,is-sold,Sold by private treaty 31 Jan 2022,20220131,24/2 Dynevor Rise,FLOREAT,WA,6014,-31.9477272,115.790634,2,1,1,ApartmentUnitFlat,Apartment / Unit / Flat,False,0,m2,False
2017297257,listing,/2-473-cambridge-street-floreat-wa-6014-2017297257,,is-sold,Sold by private treaty 24 Jan 2022,20220124,2/473 Cambridge Street,FLOREAT,WA,6014,-31.94114,115.7984,3,1,1,House,House,False,0,m2,False
2017311743,listing,/32-glengariff-drive-floreat-wa-6014-2017311743,,is-sold,Sold by private treaty 01 Feb 2022,20220201,32 Glengariff Drive,FLOREAT,WA,6014,-31.9367428,115.782715,5,2,2,House,House,False,994,m2,False
2017346310,listing,/87-71-ruislip-street-wembley-wa-6014-2017346310,750000,is-sold,Sold by private treaty 19 Jan 2022,20220119,87/71 Ruislip Street,WEMBLEY,WA,6014,-31.9380035,115.82415,3,1,1,House,House,False,0,m2,True
2017383851,listing,/98-holland-street-wembley-wa-6014-2017383851,1650000,is-sold,Sold by private treaty 21 Jan 2022,20220121,98 Holland Street,WEMBLEY,WA,6014,-31.93312,115.8144,3,2,3,House,House,False,645,m2,False
2017419123,listing,/10-55-herdsman-parade-wembley-wa-6014-2017419123,190000,is-sold,Sold by private treaty 01 Feb 2022,20220201,10/55 Herdsman Parade,WEMBLEY,WA,6014,-31.9292545,115.814072,1,1,1,ApartmentUnitFlat,Apartment / Unit / Flat,False,0,m2,False
2017456694,listing,/48-50-moondine-drive-wembley-wa-6014-2017456694,,is-sold,Sold by private treaty 21 Jan 2022,20220121,48/50 Moondine Drive,WEMBLEY,WA,6014,-31.92918,115.811462,2,1,1,ApartmentUnitFlat,Apartment / Unit / Flat,False,0,m2,False
2017509059,listing,/41a-alexander-street-wembley-wa-6014-2017509059,1950000,is-sold,Sold by private treaty 27 Jan 2022,20220127,41A Alexander Street,WEMBLEY,WA,6014,-31.93638,115.810005,4,2,2,House,House,False,506,m2,False
2017509297,listing,/s5-125-herdsman-parade-wembley-wa-6014-2017509297,,is-sold,Sold by private treaty 04 Feb 2022,20220204,S5/125 Herdsman Parade,WEMBLEY,WA,6014,-31.929924,115.807983,2,1,1,ApartmentUnitFlat,Apartment / Unit / Flat,False,0,m2,False
2017511799,listing,/61-2-burvill-drive-floreat-wa-6014-2017511799,620000,is-sold,Sold by private treaty 21 Jan 2022,20220121,61/2 Burvill Drive,FLOREAT,WA,6014,-31.9472618,115.789047,2,2,2,House,House,False,137,m2,False
2017524542,listing,/35-11-herdsman-parade-wembley-wa-6014-2017524542,,is-sold,Sold by private treaty 04 Feb 2022,20220204,35/11 Herdsman Parade,WEMBLEY,WA,6014,-31.9251976,115.815971,2,1,1,ApartmentUnitFlat,Apartment / Unit / Flat,False,0,m2,False
2017525213,listing,/22-59-herdsman-parade-wembley-wa-6014-2017525213,,is-sold,Sold by private treaty 01 Feb 2022,20220201,22/59 Herdsman Parade,WEMBLEY,WA,6014,-31.9296265,115.813705,1,1,1,ApartmentUnitFlat,Apartment / Unit / Flat,False,0,m2,False
2017529017,listing,/floreat-wa-6014-2017529017,,is-sold,Sold by private treaty 20 Jan 2022,20220120,,FLOREAT,WA,6014,-31.9466267,115.787949,2,2,2,ApartmentUnitFlat,Apartment / Unit / Flat,False,176,m2,False
2017533930,listing,/33-75-herdsman-pde-wembley-wa-6014-2017533930,255000,is-sold,Sold by private treaty 20 Jan 2022,20220120,33/75 Herdsman Pde,WEMBLEY,WA,6014,-31.9300442,115.812721,2,1,1,ApartmentUnitFlat,Apartment / Unit / Flat,False,0,m2,False
2017539130,listing,/12a-whitfeld-street-floreat-wa-6014-2017539130,,is-sold,Sold by private treaty 25 Jan 2022,20220125,12a Whitfeld Street,FLOREAT,WA,6014,-31.94605,115.802757,3,2,2,House,House,False,470,m2,False
2017541763,listing,/51-pangbourne-street-wembley-wa-6014-2017541763,,is-sold,Sold by private treaty 31 Jan 2022,20220131,51 Pangbourne Street,WEMBLEY,WA,6014,-31.93545,115.812508,3,1,2,House,House,False,0,m2,False
2017542131,listing,/63-simper-street-wembley-wa-6014-2017542131,,is-sold,Sold by private treaty 04 Feb 2022,20220204,63 Simper Street,WEMBLEY,WA,6014,-31.93416,115.808853,3,2,2,House,House,False,721,m2,False
2017551572,listing,/12-15-currie-street-jolimont-wa-6014-2017551572,289000,is-sold,Sold by private treaty 30 Jan 2022,20220130,12/15 Currie Street,JOLIMONT,WA,6014,-31.9483223,115.8125,2,1,1,ApartmentUnitFlat,Apartment / Unit / Flat,False,0,m2,False
2017551850,listing,/232a-selby-street-wembley-wa-6014-2017551850,945000,is-sold,Sold by private treaty 02 Feb 2022,20220202,232A Selby Street,WEMBLEY,WA,6014,-31.9369583,115.804375,3,1,2,House,House,False,0,m2,False
2017555093,listing,/25-kirwan-street-floreat-wa-6014-2017555093,,is-sold,Sold by private treaty 01 Feb 2022,20220201,25 Kirwan Street,FLOREAT,WA,6014,-31.9455738,115.800835,5,3,3,House,House,False,875,m2,False
2016673734,listing,/90-6-tighe-street-jolimont-wa-6014-2016673734,685000,is-sold,Sold by private treaty 17 Jan 2022,20220117,90/6 Tighe Street,JOLIMONT,WA,6014,-31.9453812,115.813354,3,1,1,House,House,False,0,m2,True
2016981439,listing,/202c-25-herdsman-parade-wembley-wa-6014-2016981439,,is-sold,Sold by private treaty 19 Jan 2022,20220119,202C/25 Herdsman Parade,WEMBLEY,WA,6014,-31.9261913,115.815781,2,1,1,ApartmentUnitFlat,Apartment / Unit / Flat,False,0,m2,False
2017284252,listing,/117-71-ruislip-street-wembley-wa-6014-2017284252,930000,is-sold,Sold by private treaty 11 Jan 2022,20220111,117/71 Ruislip Street,WEMBLEY,WA,6014,-31.9380035,115.82415,3,2,2,House,House,False,0,m2,True
2017308414,listing,/10-2-dynevor-rise-floreat-wa-6014-2017308414,,is-sold,Sold by private treaty 11 Jan 2022,20220111,10/2 Dynevor Rise,FLOREAT,WA,6014,-31.9477272,115.790634,2,2,2,ApartmentUnitFlat,Apartment / Unit / Flat,False,0,m2,False
2017313729,listing,/83-lake-monger-drive-wembley-wa-6014-2017313729,2440000,is-sold,Sold by private treaty 03 Jan 2022,20220103,83 Lake Monger Drive,WEMBLEY,WA,6014,-31.9340973,115.824677,4,2,3,House,House,False,855,m2,False
2017378696,listing,/282-284-salvado-road-floreat-wa-6014-2017378696,,is-sold,Sold by private treaty 07 Jan 2022,20220107,282 - 284 Salvado Road,FLOREAT,WA,6014,-31.9416523,115.797615,4,2,2,House,House,False,2008,m2,False
2017388571,listing,/27-clanmel-road-floreat-wa-6014-2017388571,2910000,is-sold,Sold by private treaty 14 Jan 2022,20220114,27 Clanmel Road,FLOREAT,WA,6014,-31.93538,115.787018,6,2,2,House,House,False,1024,m2,False
2017412608,listing,/86-newry-street-floreat-wa-6014-2017412608,2100000,is-sold,Sold by private treaty 07 Jan 2022,20220107,86 Newry Street,FLOREAT,WA,6014,-31.9394817,115.793877,4,1,2,House,House,False,1295,m2,False
2017426878,listing,/1-denton-street-wembley-wa-6014-2017426878,1100000,is-sold,Sold by private treaty 10 Jan 2022,20220110,1 Denton Street,WEMBLEY,WA,6014,-31.9417439,115.816696,4,3,2,House,House,False,328,m2,False
2017444343,listing,/21-216-cambridge-street-wembley-wa-6014-2017444343,210000,is-sold,Sold by private treaty 04 Jan 2022,20220104,21/216 Cambridge Street,WEMBLEY,WA,6014,-31.940567,115.8217,1,1,1,ApartmentUnitFlat,Apartment / Unit / Flat,False,0,m2,False
2017454215,listing,/40-99-herdsman-parade-wembley-wa-6014-2017454215,192000,is-sold,Sold by private treaty 13 Jan 2022,20220113,40/99 Herdsman Parade,WEMBLEY,WA,6014,-31.9298668,115.809731,1,1,1,ApartmentUnitFlat,Apartment / Unit / Flat,False,0,m2,False
2017456782,listing,/3-19-21-jon-sanders-drive-wembley-wa-6014-2017456782,445000,is-sold,Sold by private treaty 15 Jan 2022,20220115,3/19-21 Jon Sanders Drive,WEMBLEY,WA,6014,-31.92315,115.817772,3,1,2,Townhouse,Townhouse,False,121,m2,False
2017469333,listing,/27-scaddan-street-wembley-wa-6014-2017469333,,is-sold,Sold by private treaty 06 Jan 2022,20220106,27 Scaddan Street,WEMBLEY,WA,6014,-31.9307423,115.8147,4,2,2,House,House,False,0,m2,False
2017479213,listing,/209-cambridge-street-wembley-wa-6014-2017479213,,is-sold,Sold by private treaty 05 Jan 2022,20220105,209 Cambridge Street,WEMBLEY,WA,6014,-31.9410152,115.822296,5,2,2,House,House,False,911,m2,False
2017505440,listing,/22-daglish-street-wembley-wa-6014-2017505440,,is-sold,Sold at auction 15 Jan 2022,20220115,22 Daglish Street,WEMBLEY,WA,6014,-31.9387455,115.819016,4,2,1,House,House,False,670,m2,False
2017506667,listing,/10-623-hay-street-jolimont-wa-6014-2017506667,640000,is-sold,Sold by private treaty 18 Jan 2022,20220118,10/623 Hay Street,JOLIMONT,WA,6014,-31.9478436,115.812561,2,1,1,Villa,Villa,False,91,m2,False
2017511175,listing,/8a-alexander-street-wembley-wa-6014-2017511175,,is-sold,Sold by private treaty 17 Jan 2022,20220117,8A Alexander Street,WEMBLEY,WA,6014,-31.9396915,115.810707,3,2,2,Villa,Villa,False,0,m2,False
2017514874,listing,/48a-keane-street-wembley-wa-6014-2017514874,2100000,is-sold,Sold by private treaty 13 Jan 2022,20220113,48a Keane Street,WEMBLEY,WA,6014,-31.9355927,115.80574,4,2,2,House,House,False,517,m2,False
2017524522,listing,/14-dundalk-road-floreat-wa-6014-2017524522,,is-sold,Sold by private treaty 17 Jan 2022,20220117,14 Dundalk Road,FLOREAT,WA,6014,-31.9358578,115.783356,4,2,2,House,House,False,809,m2,False
2018268313,listing,/102-1-finishline-view-floreat-wa-6014-2018268313,,is-sold,Sold by private treaty 12 Jan 2022,20220112,102/1 Finishline View,FLOREAT,WA,6014,-31.9466267,115.787949,3,2,,House,House,False,281,m2,False
2016810287,listing,/2-56-moondine-drive-wembley-wa-6014-2016810287,,is-sold,Sold 21 Dec 2021,20211221,2/56 Moondine Drive,WEMBLEY,WA,6014,-31.9282131,115.812981,3,1,,ApartmentUnitFlat,Apartment / Unit / Flat,False,0,m2,False
2017123302,listing,/p19-125-herdsman-parade-wembley-wa-6014-2017123302,,is-sold,Sold by private treaty 24 Dec 2021,20211224,P19/125 Herdsman Parade,WEMBLEY,WA,6014,-31.929924,115.807983,2,1,2,ApartmentUnitFlat,Apartment / Unit / Flat,False,68,m2,False
2017157488,listing,/p19-125-herdsman-parade-wembley-wa-6014-2017157488,,is-sold,Sold by private treaty 24 Dec 2021,20211224,P19/125 Herdsman Parade,WEMBLEY,WA,6014,-31.929924,115.807983,2,1,2,ApartmentUnitFlat,Apartment / Unit / Flat,False,68,m2,False
2017157715,listing,/25-99-herdsman-parade-wembley-wa-6014-2017157715,,is-sold,Sold by private treaty 14 Dec 2021,20211214,25/99 Herdsman Parade,WEMBLEY,WA,6014,-31.9298668,115.809731,2,1,1,ApartmentUnitFlat,Apartment / Unit / Flat,False,0,m2,False
2017286944,listing,/2-619-hay-st-jolimont-wa-6014-2017286944,,is-sold,Sold by private treaty 13 Dec 2021,20211213,2/619 Hay St,JOLIMONT,WA,6014,-31.9480515,115.8131,2,1,1,Villa,Villa,False,0,m2,False
2017303422,listing,/7-simper-street-wembley-wa-6014-2017303422,1170000,is-sold,Sold by private treaty 15 Dec 2021,20211215,7 Simper Street,WEMBLEY,WA,6014,-31.93959,115.808693,3,1,2,House,House,False,468,m2,False
2017315387,listing,/24-1-herdsman-parade-wembley-wa-6014-2017315387,210000,is-sold,Sold by private treaty 13 Dec 2021,20211213,24/1 Herdsman Parade,WEMBLEY,WA,6014,-31.92482,115.81646,2,1,1,House,House,False,0,m2,False
2017337949,listing,/23-75-herdsman-parade-wembley-wa-6014-2017337949,220000,is-sold,Sold by private treaty 14 Dec 2021,20211214,23/75 Herdsman Parade,WEMBLEY,WA,6014,-31.9300442,115.812721,2,1,1,ApartmentUnitFlat,Apartment / Unit / Flat,False,0,m2,False
2017422924,listing,/2-mead-grove-floreat-wa-6014-2017422924,1610000,is-sold,Sold by private treaty 13 Dec 2021,20211213,2 Mead Grove,FLOREAT,WA,6014,-31.94738,115.800621,3,2,2,House,House,False,551,m2,False
2017447217,listing,/109-brookdale-street-floreat-wa-6014-2017447217,,is-sold,Sold by private treaty 25 Dec 2021,20211225,109 Brookdale Street,FLOREAT,WA,6014,-31.943203,115.791428,4,2,2,House,House,False,809,m2,False
2017449277,listing,/7-kirwan-street-floreat-wa-6014-2017449277,2010000,is-sold,Sold by private treaty 23 Dec 2021,20211223,7 Kirwan Street,FLOREAT,WA,6014,-31.9455433,115.803162,6,3,3,House,House,False,905,m2,False
2017457296,listing,/6-denton-street-wembley-wa-6014-2017457296,,is-sold,Sold by private treaty 03 Jan 2022,20220103,6 Denton Street,WEMBLEY,WA,6014,-31.9414711,115.817062,3,2,2,House,House,False,134,m2,False
2017460074,listing,/16-kenmore-cres-floreat-wa-6014-2017460074,1600000,is-sold,Sold by private treaty 13 Dec 2021,20211213,16 Kenmore Cres,FLOREAT,WA,6014,-31.931675,115.79586,2,1,1,House,House,False,994,m2,False
2017464240,listing,/16-633-hay-street-jolimont-wa-6014-2017464240,334000,is-sold,Sold by private treaty 15 Dec 2021,20211215,16/633 Hay Street,JOLIMONT,WA,6014,-31.9482765,115.811279,2,1,1,ApartmentUnitFlat,Apartment / Unit / Flat,False,63,m2,False
2017467943,listing,/15-dodd-street-wembley-wa-6014-2017467943,,is-sold,Sold by private treaty 17 Dec 2021,20211217,15 Dodd Street,WEMBLEY,WA,6014,-31.9246769,115.819412,4,2,2,House,House,False,270,m2,False
2017477756,listing,/7-71-herdsman-pde-wembley-wa-6014-2017477756,405000,is-sold,Sold by private treaty 21 Dec 2021,20211221,7/71 Herdsman Pde,WEMBLEY,WA,6014,-31.9288368,115.812195,2,1,1,Townhouse,Townhouse,False,0,m2,False
2017488266,listing,/11-oceanic-drive-floreat-wa-6014-2017488266,,is-sold,Sold by private treaty 18 Dec 2021,20211218,11 Oceanic Drive,FLOREAT,WA,6014,-31.94104,115.794525,3,1,3,House,House,False,989,m2,False
2017488946,listing,/210-harborne-street-wembley-wa-6014-2017488946,,is-sold,Sold by private treaty 18 Dec 2021,20211218,210 Harborne Street,WEMBLEY,WA,6014,-31.92557,115.820358,3,1,1,House,House,False,670,m2,False
2017489168,listing,/4-51-troy-terrace-jolimont-wa-6014-2017489168,715000,is-sold,Sold by private treaty 18 Dec 2021,20211218,4/51 Troy Terrace,JOLIMONT,WA,6014,-31.94938,115.812561,3,1,1,Townhouse,Townhouse,False,0,m2,False
