id,listingType,url,price,tagClassName,tagText,date,street,suburb,state,postcode,lat,lng,beds,baths,parking,propertyType,propertyTypeFormatted,isRural,landSize,landUnit,isRetirement
2018287742,listing,/32-claygate-way-kingsley-wa-6026-2018287742,,is-sold,Sold by private treaty 28 Feb 2023,20230228,32 Claygate Way,KINGSLEY,WA,6026,-31.8213787,115.798538,3,3,3,House,House,False,694,m2,False
2018282074,listing,/6-whitechapel-lane-kingsley-wa-6026-2018282074,823000,is-sold,Sold by private treaty 03 Mar 2023,20230303,6 Whitechapel Lane,KINGSLEY,WA,6026,-31.80487,115.785553,4,4,4,House,House,False,702,m2,False
2018102277,listing,/33-acheson-crescent-woodvale-wa-6026-2018102277,,is-sold,Sold by private treaty 17 Feb 2023,20230217,33 Acheson Crescent,WOODVALE,WA,6026,-31.7896042,115.783241,4,4,4,House,House,False,726,m2,False
2018178907,listing,/20-shorebird-parade-woodvale-wa-6026-2018178907,820000,is-sold,Sold by private treaty 24 Jan 2023,20230124,20 Shorebird Parade,WOODVALE,WA,6026,-31.7955513,115.800713,4,4,4,House,House,False,743,m2,False
2018197639,listing,/55-forest-hill-drive-kingsley-wa-6026-2018197639,695000,is-sold,Sold by private treaty 03 Feb 2023,20230203,55 Forest Hill Drive,KINGSLEY,WA,6026,-31.803112,115.78952,3,3,3,House,House,False,600,m2,False
2018200668,listing,/5-alperton-court-kingsley-wa-6026-2018200668,770000,is-sold,Sold by private treaty 10 Feb 2023,20230210,5 Alperton Court,KINGSLEY,WA,6026,-31.8042965,115.784073,4,4,4,House,House,False,776,m2,False
2018203538,listing,/9-chiswick-place-kingsley-wa-6026-2018203538,790000,is-sold,Sold by private treaty 03 Feb 2023,20230203,9 Chiswick Place,KINGSLEY,WA,6026,-31.8060417,115.793907,4,4,4,House,House,False,876,m2,False
2018207171,listing,/kingsley-wa-6026-2018207171,,is-sold,Sold by private treaty 06 Feb 2023,20230206,,KINGSLEY,WA,6026,-31.8090115,115.789009,4,4,4,NewHouseLand,New House & Land,False,0,m2,False
2018221026,listing,/14-castlegate-way-woodvale-wa-6026-2018221026,870000,is-sold,Sold by private treaty 28 Jan 2023,20230128,14 Castlegate Way,WOODVALE,WA,6026,-31.7773666,115.791862,4,4,4,House,House,False,858,m2,False
2018240980,listing,/12-behn-cove-woodvale-wa-6026-2018240980,,is-sold,Sold by private treaty 03 Feb 2023,20230203,12 Behn Cove,WOODVALE,WA,6026,-31.7864819,115.783195,4,4,4,House,House,False,700,m2,False
2018243067,listing,/5-greenwich-court-kingsley-wa-6026-2018243067,,is-sold,Sold by private treaty 24 Feb 2023,20230224,5 Greenwich Court,KINGSLEY,WA,6026,-31.8071022,115.787613,5,5,5,House,House,False,689,m2,False
2018243371,listing,/2-lambeth-place-kingsley-wa-6026-2018243371,,is-sold,Sold by private treaty 10 Feb 2023,20230210,2 Lambeth Place,KINGSLEY,WA,6026,-31.8121986,115.787338,3,3,3,House,House,False,681,m2,False
2018250043,listing,/kingsley-wa-6026-2018250043,,is-sold,Sold by private treaty 01 Feb 2023,20230201,,KINGSLEY,WA,6026,-31.8090115,115.789009,4,4,4,House,House,False,684,m2,False
2018255027,listing,/2-kintyre-place-kingsley-wa-6026-2018255027,,is-sold,Sold by private treaty 17 Feb 2023,20230217,2 Kintyre Place,KINGSLEY,WA,6026,-31.8021431,115.792343,4,4,4,House,House,False,675,m2,False
2018269360,listing,/10-malden-road-kingsley-wa-6026-2018269360,,is-sold,Sold by private treaty 17 Feb 2023,20230217,10 Malden Road,KINGSLEY,WA,6026,-31.8129025,115.790291,5,5,5,House,House,False,698,m2,False
2018285348,listing,/6-briar-court-kingsley-wa-6026-2018285348,710000,is-sold,Sold by private treaty 23 Jan 2023,20230123,6 Briar Court,KINGSLEY,WA,6026,-31.8155766,115.795586,4,4,4,House,House,False,702,m2,False
2018307608,listing,/82-wimbledon-drive-kingsley-wa-6026-2018307608,600000,is-sold,Sold by private treaty 03 Feb 2023,20230203,82 Wimbledon Drive,KINGSLEY,WA,6026,-31.816349,115.7877,3,3,3,House,House,False,0,m2,False
2018337694,listing,/kingsley-wa-6026-2018337694,,is-sold,Sold by private treaty 24 Feb 2023,20230224,,KINGSLEY,WA,6026,-31.80797,115.78685,3,3,3,House,House,False,682,m2,False
2018358723,listing,/kingsley-wa-6026-2018358723,730000,is-sold,Sold by private treaty 16 Feb 2023,20230216,,KINGSLEY,WA,6026,-31.8045578,115.800446,4,4,4,House,House,False,736,m2,False
2018390267,listing,/kingsley-wa-6026-2018390267,,is-sold,Sold by private treaty 02 Mar 2023,20230302,,KINGSLEY,WA,6026,-31.80525,115.805641,3,3,3,House,House,False,726,m2,False
2017249202,listing,/099-10-timbercrest-rise-woodvale-wa-6026-2017249202,,is-sold,Sold by private treaty 01 Jan 2023,20230101,099/10 Timbercrest Rise,WOODVALE,WA,6026,-31.7984848,115.793388,3,3,3,House,House,False,0,m2,True
2017500310,listing,/086-10-timbercrest-rise-woodvale-wa-6026-2017500310,,is-sold,Sold by private treaty 01 Jan 2023,20230101,086/10 Timbercrest Rise,WOODVALE,WA,6026,-31.7984848,115.793388,2,2,2,House,House,False,0,m2,True
2017584770,listing,/124-10-timbercrest-rise-woodvale-wa-6026-2017584770,,is-sold,Sold by private treaty 01 Jan 2023,20230101,124/10 Timbercrest Rise,WOODVALE,WA,6026,-31.7984848,115.793388,2,2,2,House,House,False,0,m2,True
2017584771,listing,/008-10-timbercrest-rise-woodvale-wa-6026-2017584771,,is-sold,Sold by private treaty 01 Jan 2023,20230101,008/10 Timbercrest Rise,WOODVALE,WA,6026,-31.7984848,115.793388,2,2,2,House,House,False,0,m2,True
2018069018,listing,/106-camarino-drive-woodvale-wa-6026-2018069018,751000,is-sold,Sold by private treaty 18 Jan 2023,20230118,106 Camarino Drive,WOODVALE,WA,6026,-31.7845535,115.78463,4,4,4,House,House,False,709,m2,False
2018109868,listing,/32-moolanda-blvd-kingsley-wa-6026-2018109868,625500,is-sold,Sold by private treaty 16 Dec 2022,20221216,32 Moolanda Blvd,KINGSLEY,WA,6026,-31.81678,115.806305,3,3,3,House,House,False,710,m2,False
2018124860,listing,/6b-handcock-way-kingsley-wa-6026-2018124860,,is-sold,Sold by private treaty 14 Dec 2022,20221214,6B Handcock Way,KINGSLEY,WA,6026,-31.81256,115.799438,3,3,3,House,House,False,0,m2,False
2018134678,listing,/4-montclair-avenue-woodvale-wa-6026-2018134678,801000,is-sold,Sold by private treaty 16 Jan 2023,20230116,4 Montclair Avenue,WOODVALE,WA,6026,-31.7896328,115.786667,4,4,4,House,House,False,731,m2,False
2018140892,listing,/8-trappers-drive-woodvale-wa-6026-2018140892,760000,is-sold,Sold by private treaty 14 Dec 2022,20221214,8 Trappers Drive,WOODVALE,WA,6026,-31.795187,115.792625,4,4,4,House,House,False,680,m2,False
2018156344,listing,/10a-lehmann-court-kingsley-wa-6026-2018156344,540000,is-sold,Sold by private treaty 12 Dec 2022,20221212,10a Lehmann Court,KINGSLEY,WA,6026,-31.81021,115.806541,3,3,3,House,House,False,570,m2,False
2018165955,listing,/43-calbourne-way-kingsley-wa-6026-2018165955,770000,is-sold,Sold by private treaty 20 Dec 2022,20221220,43 Calbourne Way,KINGSLEY,WA,6026,-31.8077545,115.806747,4,4,4,House,House,False,437,m2,False
2018176283,listing,/9-glenfield-road-kingsley-wa-6026-2018176283,650000,is-sold,Sold by private treaty 12 Jan 2023,20230112,9 Glenfield Road,KINGSLEY,WA,6026,-31.81289,115.798706,4,4,4,House,House,False,695,m2,False
2018195819,listing,/28-the-crest-woodvale-wa-6026-2018195819,685000,is-sold,Sold by private treaty 16 Dec 2022,20221216,28 The Crest,WOODVALE,WA,6026,-31.7963333,115.789436,3,3,3,House,House,False,738,m2,False
2018196280,listing,/4-kensal-green-way-kingsley-wa-6026-2018196280,625000,is-sold,Sold by private treaty 19 Jan 2023,20230119,4 Kensal Green Way,KINGSLEY,WA,6026,-31.802206,115.787445,4,4,4,House,House,False,0,m2,False
2018201328,listing,/2-laurelston-heights-woodvale-wa-6026-2018201328,795000,is-sold,Sold by private treaty 16 Jan 2023,20230116,2 Laurelston Heights,WOODVALE,WA,6026,-31.7767677,115.787636,4,4,4,House,House,False,0,m2,False
2018211785,listing,/92-chichester-drive-woodvale-wa-6026-2018211785,751000,is-sold,Sold by private treaty 21 Dec 2022,20221221,92 Chichester Drive,WOODVALE,WA,6026,-31.7898846,115.792213,4,4,4,House,House,False,788,m2,False
2018230485,listing,/5-verdin-lane-kingsley-wa-6026-2018230485,,is-sold,Sold by private treaty 10 Dec 2022,20221210,5 Verdin Lane,KINGSLEY,WA,6026,-31.8108749,115.81987,4,4,4,House,House,False,2000,m2,False
2018234719,listing,/2-hampstead-court-kingsley-wa-6026-2018234719,570000,is-sold,Sold by private treaty 19 Jan 2023,20230119,2 Hampstead Court,KINGSLEY,WA,6026,-31.80815,115.788513,3,3,3,House,House,False,691,m2,False
2018267956,listing,/kingsley-wa-6026-2018267956,,is-sold,Sold by private treaty 16 Jan 2023,20230116,,KINGSLEY,WA,6026,-31.8090115,115.789009,4,4,4,House,House,False,808,m2,False
2018286829,listing,/167-twickenham-drive-kingsley-wa-6026-2018286829,770000,is-sold,Sold by private treaty 18 Jan 2023,20230118,167 Twickenham Drive,KINGSLEY,WA,6026,-31.8097019,115.784309,4,4,4,House,House,False,765,m2,False
2017990020,listing,/40-50-woodlake-retreat-kingsley-wa-6026-2017990020,,is-sold,Sold by private treaty 24 Nov 2022,20221124,40/50 Woodlake Retreat,KINGSLEY,WA,6026,-31.81517,115.819664,2,2,2,House,House,False,0,m2,False
2018096801,listing,/8-barridale-drive-kingsley-wa-6026-2018096801,,is-sold,Sold at auction 16 Nov 2022,20221116,8 Barridale Drive,KINGSLEY,WA,6026,-31.8209839,115.799629,5,5,5,House,House,False,683,m2,False
2018104607,listing,/18-harness-street-kingsley-wa-6026-2018104607,790000,is-sold,Sold by private treaty 21 Nov 2022,20221121,18 Harness Street,KINGSLEY,WA,6026,-31.8047066,115.801735,4,4,4,House,House,False,697,m2,False
2018117049,listing,/7a-leyton-court-kingsley-wa-6026-2018117049,527000,is-sold,Sold by private treaty 25 Nov 2022,20221125,7A Leyton Court,KINGSLEY,WA,6026,-31.807909,115.784447,3,3,3,House,House,False,349,m2,False
2018125049,listing,/1-westhaven-drive-woodvale-wa-6026-2018125049,710000,is-sold,Sold by private treaty 09 Dec 2022,20221209,1 Westhaven Drive,WOODVALE,WA,6026,-31.79167,115.7829,4,4,4,House,House,False,726,m2,False
2018125058,listing,/7-adamson-close-kingsley-wa-6026-2018125058,,is-sold,Sold by private treaty 02 Dec 2022,20221202,7 Adamson Close,KINGSLEY,WA,6026,-31.8152332,115.790085,4,4,4,House,House,False,773,m2,False
2018141127,listing,/215-timberlane-drive-woodvale-wa-6026-2018141127,680000,is-sold,Sold by private treaty 07 Dec 2022,20221207,215 Timberlane Drive,WOODVALE,WA,6026,-31.7821159,115.7911,4,4,4,House,House,False,716,m2,False
2018142271,listing,/kingsley-wa-6026-2018142271,,is-sold,Sold by private treaty 17 Nov 2022,20221117,,KINGSLEY,WA,6026,-31.8090115,115.789009,4,4,4,NewHouseLand,New House & Land,False,0,m2,False
2018142332,listing,/kingsley-wa-6026-2018142332,,is-sold,Sold by private treaty 17 Nov 2022,20221117,,KINGSLEY,WA,6026,-31.8090115,115.789009,4,4,4,NewHouseLand,New House & Land,False,0,m2,False
2018144698,listing,/98-barridale-drive-kingsley-wa-6026-2018144698,715000,is-sold,Sold by private treaty 02 Dec 2022,20221202,98 Barridale Drive,KINGSLEY,WA,6026,-31.8125553,115.797668,4,4,4,House,House,False,680,m2,False
2018156364,listing,/8-tandina-way-kingsley-wa-6026-2018156364,690000,is-sold,Sold by private treaty 07 Dec 2022,20221207,8 Tandina Way,KINGSLEY,WA,6026,-31.817009,115.801041,4,4,4,House,House,False,702,m2,False
2018156625,listing,/2-dalmain-street-kingsley-wa-6026-2018156625,750000,is-sold,Sold by private treaty 17 Nov 2022,20221117,2 Dalmain Street,KINGSLEY,WA,6026,-31.81665,115.797043,3,3,3,House,House,False,441,m2,False
2018166249,listing,/4-dollis-way-kingsley-wa-6026-2018166249,612000,is-sold,Sold by private treaty 06 Dec 2022,20221206,4 Dollis Way,KINGSLEY,WA,6026,-31.8041744,115.803329,4,4,4,House,House,False,0,m2,False
2018181976,listing,/9-25-rosso-meander-woodvale-wa-6026-2018181976,,is-sold,Sold by private treaty 17 Nov 2022,20221117,9/25 Rosso Meander,WOODVALE,WA,6026,-31.7932987,115.812271,4,4,4,House,House,False,0,m2,False
2018184141,listing,/16-inglis-court-kingsley-wa-6026-2018184141,790000,is-sold,Sold by private treaty 22 Nov 2022,20221122,16 Inglis Court,KINGSLEY,WA,6026,-31.8113422,115.805084,4,4,4,House,House,False,692,m2,False
2018189283,listing,/2-bray-lane-kingsley-wa-6026-2018189283,,is-sold,Sold by private treaty 15 Nov 2022,20221115,2 Bray Lane,KINGSLEY,WA,6026,-31.80429,115.801735,4,4,4,House,House,False,756,m2,False
2018209968,listing,/3-laurelston-heights-woodvale-wa-6026-2018209968,815000,is-sold,Sold by private treaty 28 Nov 2022,20221128,3 Laurelston Heights,WOODVALE,WA,6026,-31.7762527,115.78743,4,4,4,House,House,False,774,m2,False
2018211364,listing,/41-monterey-drive-woodvale-wa-6026-2018211364,805000,is-sold,Sold by private treaty 30 Nov 2022,20221130,41 Monterey Drive,WOODVALE,WA,6026,-31.7762947,115.786942,4,4,4,House,House,False,591,m2,False
2018212010,listing,/9-nadine-place-woodvale-wa-6026-2018212010,725000,is-sold,Sold by private treaty 04 Dec 2022,20221204,9 Nadine Place,WOODVALE,WA,6026,-31.7886124,115.7862,4,4,4,House,House,False,750,m2,False
2018223911,listing,/9-boloka-rise-kingsley-wa-6026-2018223911,,is-sold,Sold by private treaty 02 Dec 2022,20221202,9 Boloka Rise,KINGSLEY,WA,6026,-31.8135471,115.806007,4,4,4,House,House,False,704,m2,False
2017565279,listing,/70b-talbot-drive-kingsley-wa-6026-2017565279,240000,is-sold,Sold by private treaty 31 Oct 2022,20221031,70B Talbot Drive,KINGSLEY,WA,6026,-31.8102188,115.808739,,,,VacantLand,Vacant land,False,313,m2,False
2017758131,listing,/2-drayton-green-way-kingsley-wa-6026-2017758131,583000,is-sold,Sold by private treaty 21 Oct 2022,20221021,2 Drayton Green Way,KINGSLEY,WA,6026,-31.8064,115.783936,2,2,2,House,House,False,684,m2,False
2017918962,listing,/17-goollelal-drive-kingsley-wa-6026-2017918962,,is-sold,Sold by private treaty 09 Nov 2022,20221109,17 Goollelal Drive,KINGSLEY,WA,6026,-31.8181725,115.811462,4,4,4,House,House,False,716,m2,False
2018036783,listing,/24-johns-wood-drive-kingsley-wa-6026-2018036783,730500,is-sold,Sold by private treaty 31 Oct 2022,20221031,24 Johns Wood Drive,KINGSLEY,WA,6026,-31.80269,115.789391,3,3,3,House,House,False,804,m2,False
2018048501,listing,/45-forest-hill-drive-kingsley-wa-6026-2018048501,1220000,is-sold,Sold by private treaty 21 Oct 2022,20221021,45 Forest Hill Drive,KINGSLEY,WA,6026,-31.80268,115.790596,5,5,5,House,House,False,723,m2,False
2018065856,listing,/10-kintyre-place-kingsley-wa-6026-2018065856,709000,is-sold,Sold by private treaty 08 Nov 2022,20221108,10 Kintyre Place,KINGSLEY,WA,6026,-31.8014927,115.792625,4,4,4,House,House,False,494,m2,False
2018068956,listing,/67-duffy-terrace-woodvale-wa-6026-2018068956,735000,is-sold,Sold by private treaty 26 Oct 2022,20221026,67 Duffy Terrace,WOODVALE,WA,6026,-31.797287,115.80381,5,5,5,House,House,False,700,m2,False
2018086348,listing,/5b-larch-court-woodvale-wa-6026-2018086348,685000,is-sold,Sold by private treaty 26 Oct 2022,20221026,5B Larch Court,WOODVALE,WA,6026,-31.7927952,115.796288,3,3,3,House,House,False,512,m2,False
2018086957,listing,/12-ivory-court-kingsley-wa-6026-2018086957,,is-sold,Sold by private treaty 24 Oct 2022,20221024,12 Ivory Court,KINGSLEY,WA,6026,-31.8190651,115.803513,5,5,5,House,House,False,680,m2,False
2018124683,listing,/17-claret-loop-woodvale-wa-6026-2018124683,576000,is-sold,Sold by private treaty 11 Nov 2022,20221111,17 Claret Loop,WOODVALE,WA,6026,-31.7927837,115.812729,3,3,3,House,House,False,273,m2,False
2018125064,listing,/2-harley-place-kingsley-wa-6026-2018125064,,is-sold,Sold by private treaty 11 Nov 2022,20221111,2 Harley Place,KINGSLEY,WA,6026,-31.8141174,115.799164,4,4,4,House,House,False,701,m2,False
2018136446,listing,/kingsley-wa-6026-2018136446,,is-sold,Sold by private treaty 10 Nov 2022,20221110,,KINGSLEY,WA,6026,-31.8029652,115.8008,4,4,4,House,House,False,682,m2,False
2018141138,listing,/83-kingsley-drive-kingsley-wa-6026-2018141138,,is-sold,Sold by private treaty 31 Oct 2022,20221031,83 Kingsley Drive,KINGSLEY,WA,6026,-31.8069839,115.788147,4,4,4,House,House,False,693,m2,False
2018144707,listing,/9-kilburn-rise-kingsley-wa-6026-2018144707,,is-sold,Sold by private treaty 02 Nov 2022,20221102,9 Kilburn Rise,KINGSLEY,WA,6026,-31.804081,115.7915,4,4,4,House,House,False,700,m2,False
2018147220,listing,/21-80-shepherds-bush-drive-kingsley-wa-6026-2018147220,,is-sold,Sold by private treaty 25 Oct 2022,20221025,21/80 Shepherds Bush Drive,KINGSLEY,WA,6026,-31.8094883,115.789268,3,3,3,House,House,False,0,m2,False
2018156023,listing,/31-barridale-drive-kingsley-wa-6026-2018156023,,is-sold,Sold by private treaty 31 Oct 2022,20221031,31 Barridale Drive,KINGSLEY,WA,6026,-31.8189163,115.798355,4,4,4,House,House,False,742,m2,False
2018157382,listing,/25-monterey-drive-woodvale-wa-6026-2018157382,,is-sold,Sold by private treaty 01 Nov 2022,20221101,25 Monterey Drive,WOODVALE,WA,6026,-31.7759857,115.788376,4,4,4,House,House,False,603,m2,False
2018170426,listing,/kingsley-wa-6026-2018170426,,is-sold,Sold by private treaty 11 Nov 2022,20221111,,KINGSLEY,WA,6026,-31.81215,115.796051,3,3,3,House,House,False,441,m2,False
2018170576,listing,/195-timberlane-drive-woodvale-wa-6026-2018170576,960000,is-sold,Sold by private treaty 03 Nov 2022,20221103,195 Timberlane Drive,WOODVALE,WA,6026,-31.7832623,115.792908,5,5,5,House,House,False,707,m2,False
2018185864,listing,/9-silkwillow-ramble-woodvale-wa-6026-2018185864,716500,is-sold,Sold by private treaty 13 Nov 2022,20221113,9 Silkwillow Ramble,WOODVALE,WA,6026,-31.7781887,115.78643,4,4,4,House,House,False,534,m2,False
2017484630,listing,/15b-stockwell-way-kingsley-wa-6026-2017484630,710000,is-sold,Sold by private treaty 28 Sep 2022,20220928,15b Stockwell Way,KINGSLEY,WA,6026,-31.7997456,115.786896,3,3,3,Townhouse,Townhouse,False,195,m2,False
2017914523,listing,/124-camarino-drive-woodvale-wa-6026-2017914523,882000,is-sold,Sold by private treaty 05 Oct 2022,20221005,124 Camarino Drive,WOODVALE,WA,6026,-31.7850819,115.7865,5,5,5,House,House,False,719,m2,False
2017959013,listing,/kingsley-wa-6026-2017959013,,is-sold,Sold by private treaty 19 Oct 2022,20221019,,KINGSLEY,WA,6026,-31.8090115,115.789009,4,4,4,NewHouseLand,New House & Land,False,0,m2,False
2017959075,listing,/kingsley-wa-6026-2017959075,,is-sold,Sold by private treaty 19 Oct 2022,20221019,,KINGSLEY,WA,6026,-31.8090115,115.789009,4,4,4,NewHouseLand,New House & Land,False,0,m2,False
2017994600,listing,/10-25-rosso-meander-woodvale-wa-6026-2017994600,570000,is-sold,Sold by private treaty 28 Sep 2022,20220928,10/25 Rosso Meander,WOODVALE,WA,6026,-31.7932987,115.812271,3,3,3,House,House,False,176,m2,False
2018005373,listing,/145-trailwood-drive-woodvale-wa-6026-2018005373,805000,is-sold,Sold by private treaty 18 Oct 2022,20221018,145 Trailwood Drive,WOODVALE,WA,6026,-31.7924118,115.786667,4,4,4,House,House,False,720,m2,False
2018005936,listing,/12-ferncroft-way-kingsley-wa-6026-2018005936,680000,is-sold,Sold by private treaty 05 Oct 2022,20221005,12 Ferncroft Way,KINGSLEY,WA,6026,-31.8163853,115.794823,4,4,4,House,House,False,722,m2,False
2018013562,listing,/23-cornish-avenue-woodvale-wa-6026-2018013562,807500,is-sold,Sold by private treaty 28 Sep 2022,20220928,23 Cornish Avenue,WOODVALE,WA,6026,-31.7896938,115.795586,4,4,4,House,House,False,725,m2,False
2018016349,listing,/82-the-crest-woodvale-wa-6026-2018016349,848000,is-sold,Sold by private treaty 26 Sep 2022,20220926,82 The Crest,WOODVALE,WA,6026,-31.7947636,115.789024,4,4,4,House,House,False,736,m2,False
2018049551,listing,/63-trappers-drive-woodvale-wa-6026-2018049551,712000,is-sold,Sold by private treaty 27 Sep 2022,20220927,63 Trappers Drive,WOODVALE,WA,6026,-31.7917118,115.788071,4,4,4,House,House,False,752,m2,False
2018068831,listing,/6-defoe-court-kingsley-wa-6026-2018068831,,is-sold,Sold by private treaty 17 Oct 2022,20221017,6 Defoe Court,KINGSLEY,WA,6026,-31.8056259,115.805336,3,3,3,House,House,False,738,m2,False
2018070357,listing,/15-fleetwood-circuit-woodvale-wa-6026-2018070357,795000,is-sold,Sold by private treaty 21 Sep 2022,20220921,15 Fleetwood Circuit,WOODVALE,WA,6026,-31.7757244,115.790733,4,4,4,House,House,False,759,m2,False
2018071481,listing,/10-westhaven-drive-woodvale-wa-6026-2018071481,,is-sold,Sold by private treaty 04 Oct 2022,20221004,10 Westhaven Drive,WOODVALE,WA,6026,-31.7921143,115.783913,4,4,4,House,House,False,729,m2,False
2018077709,listing,/1-41-tandina-way-kingsley-wa-6026-2018077709,,is-sold,Sold by private treaty 28 Sep 2022,20220928,1/41 TANDINA WAY,KINGSLEY,WA,6026,-31.817627,115.805176,3,3,3,Duplex,Duplex,False,288,m2,False
2018079140,listing,/6-tara-court-woodvale-wa-6026-2018079140,,is-sold,Sold by private treaty 28 Sep 2022,20220928,6 Tara Court,WOODVALE,WA,6026,-31.79475,115.791191,4,4,4,House,House,False,743,m2,False
2018083180,listing,/9-sherman-court-kingsley-wa-6026-2018083180,,is-sold,Sold by private treaty 05 Oct 2022,20221005,9 Sherman Court,KINGSLEY,WA,6026,-31.8133278,115.80233,4,4,4,House,House,False,709,m2,False
2018085228,listing,/25-ardrossan-loop-kingsley-wa-6026-2018085228,750000,is-sold,Sold by private treaty 27 Sep 2022,20220927,25 Ardrossan Loop,KINGSLEY,WA,6026,-31.8025551,115.795952,4,4,4,House,House,False,710,m2,False
2018120458,listing,/18-firwood-trail-woodvale-wa-6026-2018120458,811000,is-sold,Sold by private treaty 19 Oct 2022,20221019,18 Firwood Trail,WOODVALE,WA,6026,-31.7971153,115.801735,4,4,4,House,House,False,703,m2,False
2018128265,listing,/59-timberlane-drive-woodvale-wa-6026-2018128265,750000,is-sold,Sold by private treaty 18 Oct 2022,20221018,59 Timberlane Drive,WOODVALE,WA,6026,-31.7955856,115.7951,4,4,4,House,House,False,601,m2,False
2018158989,listing,/kingsley-wa-6026-2018158989,,is-sold,Sold by private treaty 21 Oct 2022,20221021,,KINGSLEY,WA,6026,-31.7992058,115.786896,4,4,4,House,House,False,0,m2,False
2017811895,listing,/62-delonix-circle-woodvale-wa-6026-2017811895,660000,is-sold,Sold by private treaty 07 Sep 2022,20220907,62 Delonix Circle,WOODVALE,WA,6026,-31.79638,115.795166,4,4,4,House,House,False,481,m2,False
2017830587,listing,/7-243-timberlane-drive-woodvale-wa-6026-2017830587,,is-sold,Sold by private treaty 09 Sep 2022,20220909,7/243 Timberlane Drive,WOODVALE,WA,6026,-31.7822933,115.787888,2,2,2,Villa,Villa,False,0,m2,True
2017885345,listing,/9-newhaven-place-kingsley-wa-6026-2017885345,755000,is-sold,Sold by private treaty 05 Sep 2022,20220905,9 Newhaven Place,KINGSLEY,WA,6026,-31.8071461,115.795448,4,4,4,House,House,False,775,m2,False
2017892031,listing,/40-legana-avenue-kingsley-wa-6026-2017892031,400000,is-sold,Sold by private treaty 15 Sep 2022,20220915,40 Legana Avenue,KINGSLEY,WA,6026,-31.8177528,115.806549,2,2,2,SemiDetached,Semi-Detached,False,98,m2,False
2017894936,listing,/4-pennant-place-woodvale-wa-6026-2017894936,770000,is-sold,Sold by private treaty 31 Aug 2022,20220831,4 Pennant Place,WOODVALE,WA,6026,-31.7929211,115.784309,4,4,4,House,House,False,721,m2,False
2017935920,listing,/16-pepperwood-grove-woodvale-wa-6026-2017935920,815000,is-sold,Sold by private treaty 06 Sep 2022,20220906,16 Pepperwood Grove,WOODVALE,WA,6026,-31.7989788,115.802032,4,4,4,House,House,False,844,m2,False
2017949359,listing,/143-trailwood-drive-woodvale-wa-6026-2017949359,890000,is-sold,Sold by private treaty 06 Sep 2022,20220906,143 Trailwood Drive,WOODVALE,WA,6026,-31.7925663,115.786522,4,4,4,House,House,False,723,m2,False
2017962100,listing,/151-barridale-drive-kingsley-wa-6026-2017962100,565000,is-sold,Sold by private treaty 16 Sep 2022,20220916,151 Barridale Drive,KINGSLEY,WA,6026,-31.8074074,115.797112,3,3,3,House,House,False,702,m2,False
2017981714,listing,/23-westhaven-drive-woodvale-wa-6026-2017981714,780000,is-sold,Sold by private treaty 31 Aug 2022,20220831,23 Westhaven Drive,WOODVALE,WA,6026,-31.7909813,115.784927,4,4,4,House,House,False,720,m2,False
2018015979,listing,/14-maple-hill-court-woodvale-wa-6026-2018015979,852000,is-sold,Sold by private treaty 19 Sep 2022,20220919,14 Maple Hill Court,WOODVALE,WA,6026,-31.7945557,115.789024,4,4,4,House,House,False,849,m2,False
2018027688,listing,/8-newham-way-kingsley-wa-6026-2018027688,665000,is-sold,Sold by private treaty 30 Aug 2022,20220830,8 Newham Way,KINGSLEY,WA,6026,-31.8129063,115.78685,4,4,4,House,House,False,700,m2,False
2018030771,listing,/30-sophora-place-woodvale-wa-6026-2018030771,960000,is-sold,Sold by private treaty 19 Sep 2022,20220919,30 Sophora Place,WOODVALE,WA,6026,-31.7992077,115.796761,4,4,4,House,House,False,716,m2,False
2018033281,listing,/1-7-catrine-court-kingsley-wa-6026-2018033281,450000,is-sold,Sold by private treaty 12 Sep 2022,20220912,1/7 Catrine Court,KINGSLEY,WA,6026,-31.8022671,115.792976,3,3,3,ApartmentUnitFlat,Apartment / Unit / Flat,False,179,m2,False
2018033308,listing,/7-oakland-close-woodvale-wa-6026-2018033308,850000,is-sold,Sold by private treaty 05 Sep 2022,20220905,7 Oakland Close,WOODVALE,WA,6026,-31.7877789,115.785835,4,4,4,House,House,False,825,m2,False
2018035887,listing,/3-douro-court-kingsley-wa-6026-2018035887,845000,is-sold,Sold by private treaty 18 Sep 2022,20220918,3 Douro Court,KINGSLEY,WA,6026,-31.81434,115.795837,5,5,5,House,House,False,824,m2,False
2018042201,listing,/8-greenwich-court-kingsley-wa-6026-2018042201,695000,is-sold,Sold by private treaty 06 Sep 2022,20220906,8 Greenwich Court,KINGSLEY,WA,6026,-31.80755,115.787636,3,3,3,House,House,False,681,m2,False
2018047280,listing,/39-wimbledon-drive-kingsley-wa-6026-2018047280,825000,is-sold,Sold by private treaty 13 Sep 2022,20220913,39 Wimbledon Drive,KINGSLEY,WA,6026,-31.8135719,115.78521,4,4,4,House,House,False,699,m2,False
2018051408,listing,/6-the-ramble-woodvale-wa-6026-2018051408,742500,is-sold,Sold by private treaty 13 Sep 2022,20220913,6 The Ramble,WOODVALE,WA,6026,-31.7977734,115.7893,4,4,4,House,House,False,749,m2,False
2018055524,listing,/4-the-ramble-woodvale-wa-6026-2018055524,638000,is-sold,Sold by private treaty 13 Sep 2022,20220913,4 The Ramble,WOODVALE,WA,6026,-31.7979374,115.789116,3,3,3,House,House,False,723,m2,False
2018060392,listing,/117-duffy-terrace-woodvale-wa-6026-2018060392,771000,is-sold,Sold by private treaty 18 Sep 2022,20220918,117 Duffy Terrace,WOODVALE,WA,6026,-31.79354,115.801964,4,4,4,House,House,False,438,m2,False
2017765921,listing,/15-fallbrook-avenue-woodvale-wa-6026-2017765921,,is-sold,Sold by private treaty 18 Aug 2022,20220818,15 Fallbrook Avenue,WOODVALE,WA,6026,-31.7995358,115.803581,4,4,4,House,House,False,691,m2,False
2017798808,listing,/42-harness-street-kingsley-wa-6026-2017798808,,is-sold,Sold by private treaty 19 Aug 2022,20220819,42 Harness Street,KINGSLEY,WA,6026,-31.804472,115.798889,4,4,4,House,House,False,680,m2,False
2017808107,listing,/7-vitex-court-woodvale-wa-6026-2017808107,635000,is-sold,Sold by private treaty 09 Aug 2022,20220809,7 Vitex Court,WOODVALE,WA,6026,-31.8007431,115.8003,3,3,3,House,House,False,0,m2,False
2017879298,listing,/2-fleetwood-circuit-woodvale-wa-6026-2017879298,725000,is-sold,Sold by private treaty 29 Aug 2022,20220829,2 Fleetwood Circuit,WOODVALE,WA,6026,-31.7769852,115.790085,4,4,4,House,House,False,736,m2,False
2017887722,listing,/26a-forest-hill-drive-kingsley-wa-6026-2017887722,720000,is-sold,Sold by private treaty 18 Aug 2022,20220818,26A Forest Hill Drive,KINGSLEY,WA,6026,-31.80088,115.791428,3,3,3,House,House,False,342,m2,False
2017888719,listing,/5-peckham-crescent-kingsley-wa-6026-2017888719,,is-sold,Sold by private treaty 13 Aug 2022,20220813,5 Peckham Crescent,KINGSLEY,WA,6026,-31.8076859,115.793617,4,4,4,House,House,False,910,m2,False
2017899478,listing,/2-clere-rise-woodvale-wa-6026-2017899478,706000,is-sold,Sold by private treaty 26 Aug 2022,20220826,2 Clere Rise,WOODVALE,WA,6026,-31.7785931,115.788979,4,4,4,House,House,False,753,m2,False
2017904980,listing,/47-moolanda-blvd-kingsley-wa-6026-2017904980,752000,is-sold,Sold by private treaty 18 Aug 2022,20220818,47 Moolanda Blvd,KINGSLEY,WA,6026,-31.81545,115.805267,4,4,4,House,House,False,680,m2,False
2017917119,listing,/1-baybury-rise-woodvale-wa-6026-2017917119,620000,is-sold,Sold by private treaty 11 Aug 2022,20220811,1 Baybury Rise,WOODVALE,WA,6026,-31.778286,115.786942,3,3,3,House,House,False,388,m2,False
2017924096,listing,/40-rosso-meander-woodvale-wa-6026-2017924096,580000,is-sold,Sold by private treaty 11 Aug 2022,20220811,40 Rosso Meander,WOODVALE,WA,6026,-31.7921677,115.812134,3,3,3,House,House,False,210,m2,False
2017927284,listing,/3-stoneykirk-loop-kingsley-wa-6026-2017927284,858000,is-sold,Sold by private treaty 09 Aug 2022,20220809,3 Stoneykirk Loop,KINGSLEY,WA,6026,-31.8079071,115.797966,4,4,4,House,House,False,680,m2,False
2017929550,listing,/12-firwood-trail-woodvale-wa-6026-2017929550,740000,is-sold,Sold by private treaty 16 Aug 2022,20220816,12 Firwood Trail,WOODVALE,WA,6026,-31.7977066,115.801689,4,4,4,House,House,False,698,m2,False
2017949207,listing,/26-alconbury-road-kingsley-wa-6026-2017949207,690000,is-sold,Sold by private treaty 18 Aug 2022,20220818,26 Alconbury Road,KINGSLEY,WA,6026,-31.807888,115.8083,4,4,4,House,House,False,691,m2,False
2017949255,listing,/15-woodlake-retreat-kingsley-wa-6026-2017949255,728000,is-sold,Sold by private treaty 25 Aug 2022,20220825,15 Woodlake Retreat,KINGSLEY,WA,6026,-31.8180218,115.81971,4,4,4,House,House,False,358,m2,False
2017957287,listing,/29b-richardson-court-woodvale-wa-6026-2017957287,585000,is-sold,Sold by private treaty 16 Aug 2022,20220816,29B Richardson Court,WOODVALE,WA,6026,-31.78658,115.784477,3,3,3,House,House,False,465,m2,False
2017962861,listing,/1-butia-mews-woodvale-wa-6026-2017962861,655000,is-sold,Sold by private treaty 24 Aug 2022,20220824,1 Butia Mews,WOODVALE,WA,6026,-31.79832,115.79808,3,3,3,House,House,False,441,m2,False
2017980863,listing,/9-plumdale-way-woodvale-wa-6026-2017980863,650000,is-sold,Sold by private treaty 19 Aug 2022,20220819,9 Plumdale Way,WOODVALE,WA,6026,-31.77959,115.786476,3,3,3,House,House,False,392,m2,False
2017991117,listing,/35-fontley-road-kingsley-wa-6026-2017991117,,is-sold,Sold by private treaty 19 Aug 2022,20220819,35 Fontley Road,KINGSLEY,WA,6026,-31.8170738,115.7948,3,3,3,House,House,False,704,m2,False
2018006703,listing,/kingsley-wa-6026-2018006703,,is-sold,Sold by private treaty 15 Aug 2022,20220815,,KINGSLEY,WA,6026,-31.804369,115.801178,4,4,4,House,House,False,0,m2,False
2018011497,listing,/72-camarino-drive-woodvale-wa-6026-2018011497,,is-sold,Sold by private treaty 24 Aug 2022,20220824,72 Camarino Drive,WOODVALE,WA,6026,-31.7866936,115.78241,4,4,4,House,House,False,714,m2,False
2017611343,listing,/101c-moolanda-boulevard-kingsley-wa-6026-2017611343,580000,is-sold,Sold by private treaty 13 Jul 2022,20220713,101C Moolanda Boulevard,KINGSLEY,WA,6026,-31.81029,115.804428,4,4,4,House,House,False,464,m2,False
2017754057,listing,/21-elbury-court-kingsley-wa-6026-2017754057,,is-sold,Sold by private treaty 05 Aug 2022,20220805,21 Elbury Court,KINGSLEY,WA,6026,-31.8130436,115.793877,4,4,4,House,House,False,755,m2,False
2017764921,listing,/10-kingsley-drive-kingsley-wa-6026-2017764921,545000,is-sold,Sold by private treaty 05 Aug 2022,20220805,10 Kingsley Drive,KINGSLEY,WA,6026,-31.80041,115.788849,3,3,3,House,House,False,332,m2,False
2017792147,listing,/9-tamblyn-close-woodvale-wa-6026-2017792147,705000,is-sold,Sold by private treaty 13 Jul 2022,20220713,9 TAMBLYN CLOSE,WOODVALE,WA,6026,-31.796545,115.787308,4,4,4,House,House,False,779,m2,False
2017821784,listing,/24-forest-hill-drive-kingsley-wa-6026-2017821784,642000,is-sold,Sold by private treaty 19 Jul 2022,20220719,24 Forest Hill Drive,KINGSLEY,WA,6026,-31.8006954,115.791519,3,3,3,House,House,False,483,m2,False
2017827952,listing,/2-woodlupine-rise-woodvale-wa-6026-2017827952,530000,is-sold,Sold at auction 22 Jul 2022,20220722,2 Woodlupine Rise,WOODVALE,WA,6026,-31.80035,115.802887,3,3,3,House,House,False,0,m2,False
2017857172,listing,/20-dalmain-street-kingsley-wa-6026-2017857172,1040000,is-sold,Sold by private treaty 27 Jul 2022,20220727,20 Dalmain Street,KINGSLEY,WA,6026,-31.8165531,115.794525,5,5,5,House,House,False,682,m2,False
2017864028,listing,/21-hutton-place-woodvale-wa-6026-2017864028,,is-sold,Sold by private treaty 26 Jul 2022,20220726,21 Hutton Place,WOODVALE,WA,6026,-31.7825565,115.785233,4,4,4,House,House,False,777,m2,False
2017885268,listing,/41-forest-hill-drive-kingsley-wa-6026-2017885268,810000,is-sold,Sold by private treaty 12 Jul 2022,20220712,41 Forest Hill Drive,KINGSLEY,WA,6026,-31.8025055,115.791008,5,5,5,House,House,False,720,m2,False
2017885815,listing,/24-catrine-court-kingsley-wa-6026-2017885815,820000,is-sold,Sold by private treaty 02 Aug 2022,20220802,24 Catrine Court,KINGSLEY,WA,6026,-31.80159,115.793808,4,4,4,House,House,False,657,m2,False
2017886741,listing,/83-creaney-drive-kingsley-wa-6026-2017886741,410000,is-sold,Sold by private treaty 29 Jul 2022,20220729,83 Creaney Drive,KINGSLEY,WA,6026,-31.8095016,115.7896,3,3,3,House,House,False,299,m2,False
2017902413,listing,/4-becton-court-kingsley-wa-6026-2017902413,680000,is-sold,Sold by private treaty 21 Jul 2022,20220721,4 Becton Court,KINGSLEY,WA,6026,-31.8004265,115.787773,4,4,4,House,House,False,683,m2,False
2017918885,listing,/25-kingsley-drive-kingsley-wa-6026-2017918885,640000,is-sold,Sold by private treaty 17 Jul 2022,20220717,25 Kingsley Drive,KINGSLEY,WA,6026,-31.8012257,115.78791,3,3,3,House,House,False,686,m2,False
2017919777,listing,/4-grasslands-loop-kingsley-wa-6026-2017919777,,is-sold,Sold by private treaty 12 Jul 2022,20220712,4 Grasslands Loop,KINGSLEY,WA,6026,-31.8173847,115.819687,4,4,4,House,House,False,0,m2,False
2017921888,listing,/103-timberlane-drive-woodvale-wa-6026-2017921888,,is-sold,Sold by private treaty 19 Jul 2022,20220719,103 Timberlane Drive,WOODVALE,WA,6026,-31.79144,115.797295,4,4,4,House,House,False,720,m2,False
2017922707,listing,/3-woodlupine-rise-woodvale-wa-6026-2017922707,665000,is-sold,Sold by private treaty 18 Jul 2022,20220718,3 Woodlupine Rise,WOODVALE,WA,6026,-31.8009319,115.80307,3,3,3,House,House,False,442,m2,False
2017930936,listing,/10-cadogan-street-kingsley-wa-6026-2017930936,,is-sold,Sold by private treaty 18 Jul 2022,20220718,10 Cadogan Street,KINGSLEY,WA,6026,-31.8151131,115.798683,4,4,4,House,House,False,682,m2,False
2017936498,listing,/17-fallbrook-avenue-woodvale-wa-6026-2017936498,652000,is-sold,Sold by private treaty 18 Jul 2022,20220718,17 Fallbrook Avenue,WOODVALE,WA,6026,-31.79968,115.80349,3,3,3,House,House,False,695,m2,False
2017956985,listing,/34-delonix-circle-woodvale-wa-6026-2017956985,765000,is-sold,Sold by private treaty 01 Aug 2022,20220801,34 Delonix Circle,WOODVALE,WA,6026,-31.7947636,115.796692,4,4,4,House,House,False,529,m2,False
2017975335,listing,/10a-poimena-mews-kingsley-wa-6026-2017975335,,is-sold,Sold by private treaty 08 Aug 2022,20220808,10A Poimena Mews,KINGSLEY,WA,6026,-31.8197479,115.81414,4,4,4,House,House,False,632,m2,False
2017293168,listing,/kingsley-wa-6026-2017293168,,is-sold,Sold by private treaty 12 Jul 2022,20220712,,KINGSLEY,WA,6026,-31.8083267,115.792671,,,,VacantLand,Vacant land,False,0,m2,False
2017700586,listing,/59-halidon-street-kingsley-wa-6026-2017700586,745000,is-sold,Sold by private treaty 10 Jun 2022,20220610,59 Halidon Street,KINGSLEY,WA,6026,-31.80764,115.798431,4,4,4,House,House,False,703,m2,False
2017740180,listing,/19-stoke-rise-kingsley-wa-6026-2017740180,735000,is-sold,Sold by private treaty 15 Jun 2022,20220615,19 Stoke Rise,KINGSLEY,WA,6026,-31.8043022,115.792671,4,4,4,House,House,False,780,m2,False
2017743619,listing,/9-comstock-way-woodvale-wa-6026-2017743619,1030000,is-sold,Sold by private treaty 24 Jun 2022,20220624,9 Comstock Way,WOODVALE,WA,6026,-31.790535,115.786713,5,5,5,House,House,False,1112,m2,False
2017747253,listing,/57-forest-hill-drive-kingsley-wa-6026-2017747253,690000,is-sold,Sold by private treaty 08 Jul 2022,20220708,57 Forest Hill Drive,KINGSLEY,WA,6026,-31.8031063,115.789253,3,3,3,House,House,False,350,m2,False
2017766615,listing,/9-tanah-close-kingsley-wa-6026-2017766615,685000,is-sold,Sold by private treaty 07 Jul 2022,20220707,9 Tanah Close,KINGSLEY,WA,6026,-31.8137226,115.809128,4,4,4,House,House,False,482,m2,False
2017791978,listing,/7-avalon-close-woodvale-wa-6026-2017791978,980000,is-sold,Sold by private treaty 17 Jun 2022,20220617,7 Avalon Close,WOODVALE,WA,6026,-31.7760677,115.7902,5,5,5,House,House,False,879,m2,False
2017804202,listing,/6-heysen-crest-woodvale-wa-6026-2017804202,1300000,is-sold,Sold by private treaty 09 Jun 2022,20220609,6 Heysen Crest,WOODVALE,WA,6026,-31.7823639,115.794754,5,5,5,House,House,False,800,m2,False
2017817679,listing,/33-renegade-way-kingsley-wa-6026-2017817679,845000,is-sold,Sold by private treaty 13 Jun 2022,20220613,33 Renegade Way,KINGSLEY,WA,6026,-31.818943,115.803215,4,4,4,House,House,False,714,m2,False
2017826226,listing,/176-moolanda-boulevard-kingsley-wa-6026-2017826226,,is-sold,Sold by private treaty 05 Jul 2022,20220705,176 Moolanda Boulevard,KINGSLEY,WA,6026,-31.8033142,115.8042,1,1,1,House,House,False,316,m2,False
2017830170,listing,/16b-silkwillow-ramble-woodvale-wa-6026-2017830170,585000,is-sold,Sold by private treaty 17 Jun 2022,20220617,16B Silkwillow Ramble,WOODVALE,WA,6026,-31.7775478,115.787354,3,3,3,House,House,False,406,m2,False
2017835760,listing,/8a-richmond-place-kingsley-wa-6026-2017835760,,is-sold,Sold by private treaty 16 Jun 2022,20220616,8a Richmond Place,KINGSLEY,WA,6026,-31.8031883,115.786713,3,3,3,House,House,False,0,m2,False
2017847030,listing,/35b-woodford-wells-way-kingsley-wa-6026-2017847030,,is-sold,Sold by private treaty 08 Jun 2022,20220608,35B Woodford Wells Way,KINGSLEY,WA,6026,-31.80667,115.787941,3,3,3,House,House,False,0,m2,False
2017850700,listing,/9-bindoo-rise-woodvale-wa-6026-2017850700,840000,is-sold,Sold by private treaty 12 Jun 2022,20220612,9 Bindoo Rise,WOODVALE,WA,6026,-31.7885265,115.795029,4,4,4,House,House,False,700,m2,False
2017858866,listing,/5-briar-court-kingsley-wa-6026-2017858866,,is-sold,Sold by private treaty 14 Jun 2022,20220614,5 Briar Court,KINGSLEY,WA,6026,-31.8153172,115.795631,5,5,5,House,House,False,696,m2,False
2017859401,listing,/31-the-return-woodvale-wa-6026-2017859401,,is-sold,Sold by private treaty 16 Jun 2022,20220616,31 The Return,WOODVALE,WA,6026,-31.7963066,115.784767,4,4,4,House,House,False,0,m2,False
2017870314,listing,/28-barridale-drive-kingsley-wa-6026-2017870314,,is-sold,Sold by private treaty 18 Jun 2022,20220618,28 Barridale Drive,KINGSLEY,WA,6026,-31.8190937,115.799164,5,5,5,House,House,False,778,m2,False
2017894020,listing,/22-shorebird-parade-woodvale-wa-6026-2017894020,915000,is-sold,Sold by private treaty 01 Jul 2022,20220701,22 Shorebird Parade,WOODVALE,WA,6026,-31.7955036,115.800461,4,4,4,House,House,False,703,m2,False
2017905101,listing,/9-alderhaus-drive-kingsley-wa-6026-2017905101,,is-sold,Sold by private treaty 10 Jul 2022,20220710,9 Alderhaus Drive,KINGSLEY,WA,6026,-31.8168049,115.800072,5,5,5,House,House,False,918,m2,False
2017924509,listing,/40a-calbourne-way-kingsley-wa-6026-2017924509,660000,is-sold,Sold by private treaty 10 Jul 2022,20220710,40A Calbourne Way,KINGSLEY,WA,6026,-31.80734,115.805847,4,4,4,House,House,False,359,m2,False
2017644940,listing,/3-pine-gardens-woodvale-wa-6026-2017644940,880000,is-sold,Sold by private treaty 27 May 2022,20220527,3 Pine Gardens,WOODVALE,WA,6026,-31.8003922,115.805084,5,5,5,House,House,False,878,m2,False
2017661337,listing,/4a-tulse-rise-kingsley-wa-6026-2017661337,865000,is-sold,Sold by private treaty 25 May 2022,20220525,4a Tulse Rise,KINGSLEY,WA,6026,-31.80177,115.789619,4,4,4,House,House,False,461,m2,False
2017666533,listing,/23-ashton-rise-woodvale-wa-6026-2017666533,800000,is-sold,Sold by private treaty 03 Jun 2022,20220603,23 Ashton Rise,WOODVALE,WA,6026,-31.7823734,115.7902,5,5,5,House,House,False,723,m2,False
2017670245,listing,/2-chase-court-woodvale-wa-6026-2017670245,600000,is-sold,Sold by private treaty 30 May 2022,20220530,2 Chase Court,WOODVALE,WA,6026,-31.7975922,115.788239,3,3,3,House,House,False,241,m2,False
2017680624,listing,/4-charlton-court-kingsley-wa-6026-2017680624,752000,is-sold,Sold by private treaty 26 May 2022,20220526,4 Charlton Court,KINGSLEY,WA,6026,-31.8150425,115.790962,4,4,4,House,House,False,683,m2,False
2017704143,listing,/10-the-ramble-woodvale-wa-6026-2017704143,720000,is-sold,Sold by private treaty 24 May 2022,20220524,10 The Ramble,WOODVALE,WA,6026,-31.7975063,115.789574,4,4,4,House,House,False,821,m2,False
2017746067,listing,/7-kidbrooke-way-kingsley-wa-6026-2017746067,,is-sold,Sold by private treaty 18 May 2022,20220518,7 Kidbrooke Way,KINGSLEY,WA,6026,-31.80938,115.790688,3,3,3,Villa,Villa,False,0,m2,False
2017755738,listing,/16-abbess-place-kingsley-wa-6026-2017755738,625000,is-sold,Sold by private treaty 21 May 2022,20220521,16 Abbess Place,KINGSLEY,WA,6026,-31.8025,115.802147,4,4,4,House,House,False,748,m2,False
2017775499,listing,/7c-becton-court-kingsley-wa-6026-2017775499,,is-sold,Sold by private treaty 23 May 2022,20220523,7C Becton Court,KINGSLEY,WA,6026,-31.8003273,115.786896,4,4,4,House,House,False,265,m2,False
2017782653,listing,/34-illawong-way-kingsley-wa-6026-2017782653,727000,is-sold,Sold by private treaty 28 May 2022,20220528,34 Illawong Way,KINGSLEY,WA,6026,-31.8188934,115.808136,4,4,4,House,House,False,709,m2,False
2017789364,listing,/17-bolus-court-woodvale-wa-6026-2017789364,,is-sold,Sold by private treaty 01 Jun 2022,20220601,17 Bolus Court,WOODVALE,WA,6026,-31.7912464,115.792809,4,4,4,House,House,False,834,m2,False
2017800490,listing,/63-westhaven-drive-woodvale-wa-6026-2017800490,901000,is-sold,Sold by private treaty 23 May 2022,20220523,63 Westhaven Drive,WOODVALE,WA,6026,-31.7872677,115.784172,4,4,4,House,House,False,768,m2,False
2017805591,listing,/228-trappers-drive-woodvale-wa-6026-2017805591,623000,is-sold,Sold by private treaty 18 May 2022,20220518,228 Trappers Drive,WOODVALE,WA,6026,-31.77764,115.789627,3,3,3,House,House,False,318,m2,False
2017808142,listing,/3-barnet-place-kingsley-wa-6026-2017808142,680000,is-sold,Sold by private treaty 23 May 2022,20220523,3 Barnet Place,KINGSLEY,WA,6026,-31.81415,115.789528,4,4,4,House,House,False,680,m2,False
2017817615,listing,/16-camarino-drive-woodvale-wa-6026-2017817615,709500,is-sold,Sold by private treaty 24 May 2022,20220524,16 Camarino Drive,WOODVALE,WA,6026,-31.7923336,115.7829,4,4,4,House,House,False,766,m2,False
2017823546,listing,/6-wandearah-way-kingsley-wa-6026-2017823546,910000,is-sold,Sold by private treaty 30 May 2022,20220530,6 Wandearah Way,KINGSLEY,WA,6026,-31.815115,115.807579,4,4,4,House,House,False,698,m2,False
2017828784,listing,/19-ferncroft-way-kingsley-wa-6026-2017828784,,is-sold,Sold by private treaty 30 May 2022,20220530,19 Ferncroft Way,KINGSLEY,WA,6026,-31.8149223,115.795357,4,4,4,House,House,False,683,m2,False
2017828835,listing,/10a-strathig-close-kingsley-wa-6026-2017828835,,is-sold,Sold by private treaty 31 May 2022,20220531,10A Strathig Close,KINGSLEY,WA,6026,-31.8077316,115.7967,4,4,4,House,House,False,485,m2,False
2017841773,listing,/58-talbot-drive-kingsley-wa-6026-2017841773,,is-sold,Sold by private treaty 07 Jun 2022,20220607,58 Talbot Drive,KINGSLEY,WA,6026,-31.8108978,115.808571,4,4,4,House,House,False,1135,m2,False
2017848006,listing,/17-shorebird-parade-woodvale-wa-6026-2017848006,960000,is-sold,Sold by private treaty 07 Jun 2022,20220607,17 Shorebird Parade,WOODVALE,WA,6026,-31.7959843,115.800926,4,4,4,House,House,False,701,m2,False
2014319991,listing,/lot-41-rosso-meander-woodvale-wa-6026-2014319991,330000,is-sold,Sold by private treaty 11 May 2022,20220511,Lot 41 Rosso Meander,WOODVALE,WA,6026,-31.8042545,115.798935,,,,VacantLand,Vacant land,False,0,m2,False
2017533710,listing,/34-panzano-circuit-woodvale-wa-6026-2017533710,665000,is-sold,Sold by private treaty 12 May 2022,20220512,34 Panzano Circuit,WOODVALE,WA,6026,-31.7866173,115.809219,4,4,4,House,House,False,396,m2,False
2017595402,listing,/woodvale-wa-6026-2017595402,,is-sold,Sold by private treaty 17 May 2022,20220517,,WOODVALE,WA,6026,-31.79024,115.7979,4,4,4,NewHouseLand,New House & Land,False,0,m2,False
2017595466,listing,/woodvale-wa-6026-2017595466,,is-sold,Sold by private treaty 17 May 2022,20220517,,WOODVALE,WA,6026,-31.79024,115.7979,4,4,4,NewHouseLand,New House & Land,False,0,m2,False
2017608915,listing,/22-benbullen-blvd-kingsley-wa-6026-2017608915,810000,is-sold,Sold by private treaty 03 May 2022,20220503,22 Benbullen Blvd,KINGSLEY,WA,6026,-31.8157063,115.808388,4,4,4,House,House,False,918,m2,False
2017616275,listing,/168-barridale-drive-kingsley-wa-6026-2017616275,655000,is-sold,Sold by private treaty 10 May 2022,20220510,168 Barridale Drive,KINGSLEY,WA,6026,-31.8060379,115.797783,4,4,4,House,House,False,680,m2,False
2017675386,listing,/2b-bluegum-close-woodvale-wa-6026-2017675386,543500,is-sold,Sold at auction 13 May 2022,20220513,2B Bluegum Close,WOODVALE,WA,6026,-31.79603,115.80114,3,3,3,House,House,False,0,m2,False
2017692214,listing,/137-cosimo-drive-woodvale-wa-6026-2017692214,451000,is-sold,Sold by private treaty 06 May 2022,20220506,137 Cosimo Drive,WOODVALE,WA,6026,-31.7919865,115.81144,3,3,3,House,House,False,0,m2,False
2017720150,listing,/woodvale-wa-6026-2017720150,,is-sold,Sold by private treaty 16 May 2022,20220516,,WOODVALE,WA,6026,-31.79024,115.7979,4,4,4,NewHouseLand,New House & Land,False,0,m2,False
2017720228,listing,/woodvale-wa-6026-2017720228,,is-sold,Sold by private treaty 16 May 2022,20220516,,WOODVALE,WA,6026,-31.79024,115.7979,4,4,4,NewHouseLand,New House & Land,False,0,m2,False
2017727777,listing,/21-tallering-heights-woodvale-wa-6026-2017727777,830000,is-sold,Sold by private treaty 17 May 2022,20220517,21 Tallering Heights,WOODVALE,WA,6026,-31.7846718,115.791565,4,4,4,House,House,False,715,m2,False
2017744523,listing,/1-the-ridge-woodvale-wa-6026-2017744523,880000,is-sold,Sold by private treaty 11 May 2022,20220511,1 The Ridge,WOODVALE,WA,6026,-31.79435,115.783913,3,3,3,House,House,False,350,m2,False
2017745970,listing,/2-shorebird-parade-woodvale-wa-6026-2017745970,870000,is-sold,Sold by private treaty 03 May 2022,20220503,2 Shorebird Parade,WOODVALE,WA,6026,-31.79506,115.802612,5,5,5,House,House,False,901,m2,False
2017763458,listing,/3-179-goollelal-drive-kingsley-wa-6026-2017763458,430000,is-sold,Sold by private treaty 02 May 2022,20220502,3/179 Goollelal Drive,KINGSLEY,WA,6026,-31.80373,115.806732,3,3,3,ApartmentUnitFlat,Apartment / Unit / Flat,False,300,m2,False
2017763700,listing,/34-barridale-drive-kingsley-wa-6026-2017763700,,is-sold,Sold by private treaty 02 May 2022,20220502,34 Barridale Drive,KINGSLEY,WA,6026,-31.8185368,115.798775,4,4,4,House,House,False,698,m2,False
2017764896,listing,/7-ferncroft-way-kingsley-wa-6026-2017764896,,is-sold,Sold by private treaty 02 May 2022,20220502,7 Ferncroft Way,KINGSLEY,WA,6026,-31.8159275,115.795311,4,4,4,House,House,False,705,m2,False
2017777845,listing,/9a-avalon-close-woodvale-wa-6026-2017777845,610000,is-sold,Sold by private treaty 16 May 2022,20220516,9a Avalon Close,WOODVALE,WA,6026,-31.7761688,115.7899,3,3,3,House,House,False,545,m2,False
2017802489,listing,/31-panzano-circuit-woodvale-wa-6026-2017802489,770000,is-sold,Sold by private treaty 15 May 2022,20220515,31 Panzano Circuit,WOODVALE,WA,6026,-31.7863235,115.808853,3,3,3,House,House,False,384,m2,False
2017836415,listing,/kingsley-wa-6026-2017836415,,is-sold,Sold by private treaty 16 May 2022,20220516,,KINGSLEY,WA,6026,-31.7992058,115.786896,4,4,4,House,House,False,0,m2,False
2017854603,listing,/43-new-cross-road-kingsley-wa-6026-2017854603,800000,is-sold,Sold by private treaty 07 May 2022,20220507,43 New Cross Road,KINGSLEY,WA,6026,-31.804945,115.795265,4,4,4,House,House,False,727,m2,False
2017420205,listing,/17-finch-court-kingsley-wa-6026-2017420205,320000,is-sold,Sold by private treaty 28 Apr 2022,20220428,17 Finch Court,KINGSLEY,WA,6026,-31.8036613,115.806168,,,,VacantLand,Vacant land,False,306,m2,False
2017575426,listing,/19-32-hocking-road-kingsley-wa-6026-2017575426,545000,is-sold,Sold by private treaty 08 Apr 2022,20220408,19/32 Hocking Road,KINGSLEY,WA,6026,-31.8026466,115.8143,3,3,3,House,House,False,0,m2,True
2017583856,listing,/34-new-cross-road-kingsley-wa-6026-2017583856,960000,is-sold,Sold by private treaty 19 Apr 2022,20220419,34 New Cross Road,KINGSLEY,WA,6026,-31.80436,115.794525,4,4,4,House,House,False,701,m2,False
2017589579,listing,/80-50-woodlake-retreat-kingsley-wa-6026-2017589579,,is-sold,Sold by private treaty 13 Apr 2022,20220413,80/50 Woodlake Retreat,KINGSLEY,WA,6026,-31.81517,115.819664,3,3,3,Villa,Villa,False,0,m2,False
2017598355,listing,/8-balham-place-kingsley-wa-6026-2017598355,750000,is-sold,Sold by private treaty 28 Apr 2022,20220428,8 Balham Place,KINGSLEY,WA,6026,-31.8162365,115.784538,4,4,4,House,House,False,710,m2,False
2017606840,listing,/4-willowcreek-mews-woodvale-wa-6026-2017606840,740000,is-sold,Sold by private treaty 11 Apr 2022,20220411,4 Willowcreek Mews,WOODVALE,WA,6026,-31.800993,115.802307,4,4,4,House,House,False,720,m2,False
2017609196,listing,/2-baloo-grove-kingsley-wa-6026-2017609196,1008000,is-sold,Sold by private treaty 08 Apr 2022,20220408,2 Baloo Grove,KINGSLEY,WA,6026,-31.814373,115.807465,5,5,5,House,House,False,726,m2,False
2017625335,listing,/5-hunt-lane-kingsley-wa-6026-2017625335,677000,is-sold,Sold by private treaty 21 Apr 2022,20220421,5 Hunt Lane,KINGSLEY,WA,6026,-31.8124752,115.791519,4,4,4,House,House,False,695,m2,False
2017631853,listing,/73b-wimbledon-drive-kingsley-wa-6026-2017631853,533000,is-sold,Sold by private treaty 28 Apr 2022,20220428,73B Wimbledon Drive,KINGSLEY,WA,6026,-31.81676,115.785477,3,3,3,House,House,False,450,m2,False
2017655405,listing,/3-withers-grove-woodvale-wa-6026-2017655405,1280000,is-sold,Sold by private treaty 26 Apr 2022,20220426,3 Withers Grove,WOODVALE,WA,6026,-31.7820778,115.79464,4,4,4,House,House,False,807,m2,False
2017660997,listing,/kingsley-wa-6026-2017660997,,is-sold,Sold by private treaty 28 Apr 2022,20220428,,KINGSLEY,WA,6026,-31.80239,115.783752,4,4,4,House,House,False,680,m2,False
2017716652,listing,/10-sophora-place-woodvale-wa-6026-2017716652,,is-sold,Sold by private treaty 12 Apr 2022,20220412,10 Sophora Place,WOODVALE,WA,6026,-31.797739,115.797409,4,4,4,House,House,False,700,m2,False
2017723058,listing,/11-buckhaven-court-kingsley-wa-6026-2017723058,,is-sold,Sold by private treaty 26 Apr 2022,20220426,11 Buckhaven Court,KINGSLEY,WA,6026,-31.8054638,115.795837,4,4,4,House,House,False,735,m2,False
2017723527,listing,/6-claybush-court-woodvale-wa-6026-2017723527,950000,is-sold,Sold by private treaty 13 Apr 2022,20220413,6 Claybush Court,WOODVALE,WA,6026,-31.7908154,115.795288,4,4,4,House,House,False,742,m2,False
2017727068,listing,/14b-alderhaus-drive-kingsley-wa-6026-2017727068,550000,is-sold,Sold by private treaty 25 Apr 2022,20220425,14B Alderhaus Drive,KINGSLEY,WA,6026,-31.81716,115.800591,3,3,3,House,House,False,495,m2,False
2017736339,listing,/2-standish-way-woodvale-wa-6026-2017736339,815000,is-sold,Sold by private treaty 02 May 2022,20220502,2 Standish Way,WOODVALE,WA,6026,-31.7913074,115.791191,4,4,4,House,House,False,754,m2,False
2017737378,listing,/14a-godfrey-place-kingsley-wa-6026-2017737378,,is-sold,Sold by private treaty 26 Apr 2022,20220426,14A Godfrey Place,KINGSLEY,WA,6026,-31.80338,115.805237,3,3,3,House,House,False,0,m2,False
2017738285,listing,/30-glenfield-road-kingsley-wa-6026-2017738285,,is-sold,Sold by private treaty 01 May 2022,20220501,30 Glenfield Road,KINGSLEY,WA,6026,-31.8127174,115.801132,4,4,4,House,House,False,700,m2,False
2017738933,listing,/3b-harrow-weald-way-kingsley-wa-6026-2017738933,,is-sold,Sold by private treaty 26 Apr 2022,20220426,3B Harrow Weald Way,KINGSLEY,WA,6026,-31.79888,115.785461,3,3,3,House,House,False,0,m2,False
2017755417,listing,/115-trailwood-drive-woodvale-wa-6026-2017755417,885000,is-sold,Sold by private treaty 24 Apr 2022,20220424,115 Trailwood Drive,WOODVALE,WA,6026,-31.7935181,115.783661,4,4,4,House,House,False,709,m2,False
2017513921,listing,/9b-cossack-court-kingsley-wa-6026-2017513921,496000,is-sold,Sold by private treaty 31 Mar 2022,20220331,9B Cossack Court,KINGSLEY,WA,6026,-31.8136921,115.793869,3,3,3,House,House,False,375,m2,False
2017542734,listing,/123-duffy-terrace-woodvale-wa-6026-2017542734,665000,is-sold,Sold by private treaty 22 Mar 2022,20220322,123 Duffy Terrace,WOODVALE,WA,6026,-31.7928753,115.801743,4,4,4,House,House,False,356,m2,False
2017576081,listing,/12-claret-loop-woodvale-wa-6026-2017576081,603000,is-sold,Sold by private treaty 28 Mar 2022,20220328,12 Claret Loop,WOODVALE,WA,6026,-31.79295,115.813042,3,3,3,House,House,False,438,m2,False
2017585317,listing,/2-3-grasslands-loop-kingsley-wa-6026-2017585317,575000,is-sold,Sold by private treaty 24 Mar 2022,20220324,2/3 Grasslands Loop,KINGSLEY,WA,6026,-31.8170681,115.81971,3,3,3,House,House,False,258,m2,False
2017600660,listing,/44-rosso-meander-woodvale-wa-6026-2017600660,525000,is-sold,Sold by private treaty 29 Mar 2022,20220329,44 Rosso Meander,WOODVALE,WA,6026,-31.7920971,115.811989,3,3,3,House,House,False,210,m2,False
2017604009,listing,/20-abbess-place-kingsley-wa-6026-2017604009,690000,is-sold,Sold by private treaty 31 Mar 2022,20220331,20 Abbess Place,KINGSLEY,WA,6026,-31.8023243,115.802177,4,4,4,House,House,False,0,m2,False
2017649089,listing,/42-glenfield-road-kingsley-wa-6026-2017649089,670000,is-sold,Sold by private treaty 08 Apr 2022,20220408,42 Glenfield Road,KINGSLEY,WA,6026,-31.8125286,115.802376,4,4,4,House,House,False,680,m2,False
2017652146,listing,/54-panzano-circuit-woodvale-wa-6026-2017652146,665000,is-sold,Sold by private treaty 07 Apr 2022,20220407,54 Panzano Circuit,WOODVALE,WA,6026,-31.78695,115.809219,3,3,3,House,House,False,375,m2,False
2017659155,listing,/48-goldfinch-loop-woodvale-wa-6026-2017659155,640000,is-sold,Sold by private treaty 25 Mar 2022,20220325,48 Goldfinch Loop,WOODVALE,WA,6026,-31.7962036,115.793877,4,4,4,House,House,False,462,m2,False
2017663397,listing,/17-celina-crescent-kingsley-wa-6026-2017663397,,is-sold,Sold 21 Mar 2022,20220321,17 CELINA CRESCENT,KINGSLEY,WA,6026,-31.8190689,115.802055,4,4,4,House,House,False,681,m2,False
2017666244,listing,/9-inglis-court-kingsley-wa-6026-2017666244,,is-sold,Sold by private treaty 23 Mar 2022,20220323,9 Inglis Court,KINGSLEY,WA,6026,-31.8113327,115.8058,5,5,5,House,House,False,685,m2,False
2017670957,listing,/143-barridale-drive-kingsley-wa-6026-2017670957,,is-sold,Sold by private treaty 22 Mar 2022,20220322,143 Barridale Drive,KINGSLEY,WA,6026,-31.8081532,115.796928,4,4,4,House,House,False,725,m2,False
2017685238,listing,/6a-dunbar-close-kingsley-wa-6026-2017685238,,is-sold,Sold by private treaty 28 Mar 2022,20220328,6A Dunbar Close,KINGSLEY,WA,6026,-31.8060513,115.800896,3,3,3,House,House,False,466,m2,False
2017685377,listing,/17-cadogan-street-kingsley-wa-6026-2017685377,,is-sold,Sold by private treaty 27 Mar 2022,20220327,17 Cadogan Street,KINGSLEY,WA,6026,-31.8155651,115.799286,3,3,3,House,House,False,690,m2,False
2017688043,listing,/16-hampstead-court-kingsley-wa-6026-2017688043,,is-sold,Sold by private treaty 28 Mar 2022,20220328,16 Hampstead Court,KINGSLEY,WA,6026,-31.80844,115.78669,4,4,4,House,House,False,680,m2,False
2017692268,listing,/7-mead-close-woodvale-wa-6026-2017692268,950000,is-sold,Sold by private treaty 01 Apr 2022,20220401,7 Mead Close,WOODVALE,WA,6026,-31.79151,115.785461,4,4,4,House,House,False,874,m2,False
2017698578,listing,/30-barridale-drive-kingsley-wa-6026-2017698578,635000,is-sold,Sold by private treaty 03 Apr 2022,20220403,30 Barridale Drive,KINGSLEY,WA,6026,-31.8188915,115.799049,4,4,4,House,House,False,450,m2,False
2017705547,listing,/12-godfrey-place-kingsley-wa-6026-2017705547,725000,is-sold,Sold by private treaty 06 Apr 2022,20220406,12 Godfrey Place,KINGSLEY,WA,6026,-31.8035812,115.8052,4,4,4,House,House,False,713,m2,False
2017706942,listing,/220-barridale-drive-kingsley-wa-6026-2017706942,600000,is-sold,Sold by private treaty 05 Apr 2022,20220405,220 Barridale Drive,KINGSLEY,WA,6026,-31.80147,115.799721,3,3,3,House,House,False,484,m2,False
2017732170,listing,/kingsley-wa-6026-2017732170,,is-sold,Sold by private treaty 07 Apr 2022,20220407,,KINGSLEY,WA,6026,-31.8078327,115.78537,4,4,4,House,House,False,732,m2,False
2017297355,listing,/villa-4-3a-moolanda-boulevard-kingsley-wa-6026-2017297355,380000,is-sold,Sold by private treaty 02 Mar 2022,20220302,Villa 4/3A Moolanda Boulevard,KINGSLEY,WA,6026,-31.819746,115.805733,2,2,2,ApartmentUnitFlat,Apartment / Unit / Flat,False,0,m2,False
2017412578,listing,/22-tandina-way-kingsley-wa-6026-2017412578,770000,is-sold,Sold by private treaty 08 Mar 2022,20220308,22 Tandina Way,KINGSLEY,WA,6026,-31.8166847,115.802147,4,4,4,House,House,False,697,m2,False
2017487119,listing,/8-11-chichester-drive-woodvale-wa-6026-2017487119,565000,is-sold,Sold at auction 09 Mar 2022,20220309,8/11 Chichester Drive,WOODVALE,WA,6026,-31.7835,115.788979,3,3,3,House,House,False,310,m2,True
2017532194,listing,/kingsley-wa-6026-2017532194,,is-sold,Sold by private treaty 03 Mar 2022,20220303,,KINGSLEY,WA,6026,-31.8090115,115.789009,4,4,4,NewHouseLand,New House & Land,False,0,m2,False
2017532230,listing,/kingsley-wa-6026-2017532230,,is-sold,Sold by private treaty 03 Mar 2022,20220303,,KINGSLEY,WA,6026,-31.8090115,115.789009,3,3,3,NewHouseLand,New House & Land,False,0,m2,False
2017557917,listing,/6-171-goollelal-drive-kingsley-wa-6026-2017557917,375000,is-sold,Sold by private treaty 10 Mar 2022,20220310,6/171 Goollelal Drive,KINGSLEY,WA,6026,-31.804657,115.806564,3,3,3,House,House,False,169,m2,False
2017594663,listing,/woodvale-wa-6026-2017594663,,is-sold,Sold by private treaty 01 Mar 2022,20220301,,WOODVALE,WA,6026,-31.79024,115.7979,4,4,4,NewHouseLand,New House & Land,False,0,m2,False
2017617809,listing,/5-newington-place-kingsley-wa-6026-2017617809,,is-sold,Sold by private treaty 01 Mar 2022,20220301,5 Newington Place,KINGSLEY,WA,6026,-31.8068638,115.791382,4,4,4,House,House,False,683,m2,False
2017619256,listing,/3-kensal-green-way-kingsley-wa-6026-2017619256,,is-sold,Sold by private treaty 01 Mar 2022,20220301,3 Kensal Green Way,KINGSLEY,WA,6026,-31.802536,115.787033,4,4,4,House,House,False,731,m2,False
2017621333,listing,/8-newington-place-kingsley-wa-6026-2017621333,,is-sold,Sold by private treaty 19 Mar 2022,20220319,8 Newington Place,KINGSLEY,WA,6026,-31.807312,115.791611,4,4,4,House,House,False,759,m2,False
2017621593,listing,/18-delonix-circle-woodvale-wa-6026-2017621593,850000,is-sold,Sold by private treaty 12 Mar 2022,20220312,18 Delonix Circle,WOODVALE,WA,6026,-31.7958984,115.798546,4,4,4,House,House,False,502,m2,False
2017621878,listing,/10-linden-court-kingsley-wa-6026-2017621878,980000,is-sold,Sold by private treaty 28 Feb 2022,20220228,10 Linden Court,KINGSLEY,WA,6026,-31.8117771,115.804993,6,6,6,House,House,False,865,m2,False
2017622721,listing,/144-trappers-drive-woodvale-wa-6026-2017622721,685000,is-sold,Sold by private treaty 06 Mar 2022,20220306,144 Trappers Drive,WOODVALE,WA,6026,-31.7837334,115.787079,4,4,4,House,House,False,701,m2,False
2017623397,listing,/25-firwood-trail-woodvale-wa-6026-2017623397,770000,is-sold,Sold by private treaty 09 Mar 2022,20220309,25 Firwood Trail,WOODVALE,WA,6026,-31.7974739,115.801224,4,4,4,House,House,False,690,m2,False
2017626920,listing,/11-spoonbill-grove-kingsley-wa-6026-2017626920,1492500,is-sold,Sold by private treaty 16 Mar 2022,20220316,11 Spoonbill Grove,KINGSLEY,WA,6026,-31.8091869,115.819344,4,4,4,House,House,False,2405,m2,False
2017637271,listing,/11-wallangarra-court-kingsley-wa-6026-2017637271,,is-sold,Sold by private treaty 10 Mar 2022,20220310,11 Wallangarra Court,KINGSLEY,WA,6026,-31.8186531,115.812592,4,4,4,House,House,False,0,m2,False
2017641906,listing,/52-solaia-loop-woodvale-wa-6026-2017641906,842000,is-sold,Sold by private treaty 09 Mar 2022,20220309,52 Solaia Loop,WOODVALE,WA,6026,-31.7944355,115.813148,4,4,4,House,House,False,488,m2,False
2017647322,listing,/9-edmonton-place-kingsley-wa-6026-2017647322,,is-sold,Sold by private treaty 16 Mar 2022,20220316,9 Edmonton Place,KINGSLEY,WA,6026,-31.8088837,115.785027,4,4,4,House,House,False,699,m2,False
2017658684,listing,/7-springwood-way-woodvale-wa-6026-2017658684,,is-sold,Sold by private treaty 14 Mar 2022,20220314,7 Springwood Way,WOODVALE,WA,6026,-31.79498,115.801826,4,4,4,House,House,False,714,m2,False
2017659323,listing,/25-silkwillow-ramble-woodvale-wa-6026-2017659323,815000,is-sold,Sold by private treaty 18 Mar 2022,20220318,25 Silkwillow Ramble,WOODVALE,WA,6026,-31.7771816,115.786964,4,4,4,House,House,False,528,m2,False
2017235988,listing,/62-parkwood-avenue-woodvale-wa-6026-2017235988,750000,is-sold,Sold by private treaty 04 Feb 2022,20220204,62 Parkwood Avenue,WOODVALE,WA,6026,-31.7824135,115.787338,4,4,4,House,House,False,768,m2,False
2017418007,listing,/149-kingsley-drive-kingsley-wa-6026-2017418007,680000,is-sold,Sold by private treaty 07 Feb 2022,20220207,149 Kingsley Drive,KINGSLEY,WA,6026,-31.813364,115.788559,4,4,4,House,House,False,686,m2,False
2017432513,listing,/7-greenford-rise-kingsley-wa-6026-2017432513,640000,is-sold,Sold by private treaty 18 Feb 2022,20220218,7 Greenford Rise,KINGSLEY,WA,6026,-31.8008728,115.790314,3,3,3,House,House,False,691,m2,False
2017486855,listing,/2-moss-court-kingsley-wa-6026-2017486855,,is-sold,Sold by private treaty 03 Feb 2022,20220203,2 Moss Court,KINGSLEY,WA,6026,-31.8120441,115.801849,4,4,4,House,House,False,680,m2,False
2017528207,listing,/33-gilmore-street-kingsley-wa-6026-2017528207,1040000,is-sold,Sold by private treaty 03 Feb 2022,20220203,33 Gilmore Street,KINGSLEY,WA,6026,-31.8181667,115.791954,6,6,6,House,House,False,700,m2,False
2017549804,listing,/22-illawong-way-kingsley-wa-6026-2017549804,,is-sold,Sold by private treaty 30 Jan 2022,20220130,22 Illawong Way,KINGSLEY,WA,6026,-31.8196678,115.806953,4,4,4,House,House,False,799,m2,False
2017554610,listing,/134-cosimo-drive-woodvale-wa-6026-2017554610,225000,is-sold,Sold by private treaty 15 Feb 2022,20220215,134 Cosimo Drive,WOODVALE,WA,6026,-31.7922916,115.8113,,,,VacantLand,Vacant land,False,182,m2,False
2017555567,listing,/4-dora-place-woodvale-wa-6026-2017555567,810000,is-sold,Sold by private treaty 30 Jan 2022,20220130,4 Dora Place,WOODVALE,WA,6026,-31.785862,115.791237,4,4,4,House,House,False,806,m2,False
2017567054,listing,/15-bindoo-rise-woodvale-wa-6026-2017567054,811000,is-sold,Sold by private treaty 10 Feb 2022,20220210,15 Bindoo Rise,WOODVALE,WA,6026,-31.7882,115.7951,4,4,4,House,House,False,751,m2,False
2017568866,listing,/11-eltham-place-kingsley-wa-6026-2017568866,,is-sold,Sold by private treaty 06 Feb 2022,20220206,11 Eltham Place,KINGSLEY,WA,6026,-31.8045464,115.785416,4,4,4,House,House,False,900,m2,False
2017573488,listing,/16a-lofty-court-woodvale-wa-6026-2017573488,545000,is-sold,Sold by private treaty 10 Feb 2022,20220210,16A Lofty Court,WOODVALE,WA,6026,-31.78318,115.786957,3,3,3,SemiDetached,Semi-Detached,False,412,m2,False
2017581840,listing,/6-tulse-rise-kingsley-wa-6026-2017581840,625000,is-sold,Sold by private treaty 19 Feb 2022,20220219,6 Tulse Rise,KINGSLEY,WA,6026,-31.8016834,115.789925,4,4,4,House,House,False,711,m2,False
2017585129,listing,/11a-cossack-court-kingsley-wa-6026-2017585129,472000,is-sold,Sold by private treaty 17 Feb 2022,20220217,11A Cossack Court,KINGSLEY,WA,6026,-31.81368,115.794365,3,3,3,House,House,False,0,m2,False
2017590581,listing,/5-conder-place-woodvale-wa-6026-2017590581,880000,is-sold,Sold by private treaty 18 Feb 2022,20220218,5 Conder Place,WOODVALE,WA,6026,-31.7821655,115.793365,4,4,4,House,House,False,679,m2,False
2017591133,listing,/83-the-crest-woodvale-wa-6026-2017591133,986000,is-sold,Sold by private treaty 19 Feb 2022,20220219,83 The Crest,WOODVALE,WA,6026,-31.7958221,115.790268,4,4,4,House,House,False,732,m2,False
2017597121,listing,/49-duffy-terrace-woodvale-wa-6026-2017597121,,is-sold,Sold by private treaty 22 Feb 2022,20220222,49 Duffy Terrace,WOODVALE,WA,6026,-31.7987862,115.80455,4,4,4,House,House,False,684,m2,False
2017600363,listing,/14-hampstead-court-kingsley-wa-6026-2017600363,,is-sold,Sold by private treaty 21 Feb 2022,20220221,14 Hampstead Court,KINGSLEY,WA,6026,-31.8084049,115.786942,3,3,3,House,House,False,680,m2,False
2017605403,listing,/30a-standish-way-woodvale-wa-6026-2017605403,690000,is-sold,Sold by private treaty 22 Feb 2022,20220222,30A Standish Way,WOODVALE,WA,6026,-31.7890778,115.791061,3,3,3,SemiDetached,Semi-Detached,False,468,m2,False
2017606754,listing,/1-37-muirhead-way-kingsley-wa-6026-2017606754,,is-sold,Sold by private treaty 21 Feb 2022,20220221,1/37 Muirhead Way,KINGSLEY,WA,6026,-31.80105,115.793633,3,3,3,House,House,False,0,m2,False
2017612854,listing,/16-ardrossan-loop-kingsley-wa-6026-2017612854,790000,is-sold,Sold by private treaty 25 Feb 2022,20220225,16 Ardrossan Loop,KINGSLEY,WA,6026,-31.8027477,115.7966,4,4,4,House,House,False,733,m2,False
2017148922,listing,/9-179-goollelal-drive-kingsley-wa-6026-2017148922,402000,is-sold,Sold by private treaty 23 Dec 2021,20211223,9/179 Goollelal Drive,KINGSLEY,WA,6026,-31.80373,115.806732,3,3,3,House,House,False,267,m2,False
2017293568,listing,/4a-wodgina-place-kingsley-wa-6026-2017293568,510000,is-sold,Sold by private treaty 10 Jan 2022,20220110,4A Wodgina Place,KINGSLEY,WA,6026,-31.81621,115.794449,3,3,3,House,House,False,0,m2,False
2017415423,listing,/3-lee-court-kingsley-wa-6026-2017415423,600000,is-sold,Sold by private treaty 22 Dec 2021,20211222,3 Lee Court,KINGSLEY,WA,6026,-31.80565,115.783386,4,4,4,House,House,False,694,m2,False
2017426480,listing,/kingsley-wa-6026-2017426480,,is-sold,Sold by private treaty 18 Jan 2022,20220118,,KINGSLEY,WA,6026,-31.8090115,115.789009,3,3,3,NewHouseLand,New House & Land,False,0,m2,False
2017426654,listing,/kingsley-wa-6026-2017426654,,is-sold,Sold by private treaty 18 Jan 2022,20220118,,KINGSLEY,WA,6026,-31.8090115,115.789009,4,4,4,NewHouseLand,New House & Land,False,0,m2,False
2017438343,listing,/13-moscato-way-woodvale-wa-6026-2017438343,400000,is-sold,Sold by private treaty 11 Jan 2022,20220111,13 Moscato Way,WOODVALE,WA,6026,-31.78786,115.809624,,,,VacantLand,Vacant land,False,475,m2,False
2017447109,listing,/woodvale-wa-6026-2017447109,979000,is-sold,Sold by private treaty 05 Jan 2022,20220105,,WOODVALE,WA,6026,-31.79024,115.7979,5,5,5,House,House,False,933,m2,False
2017454340,listing,/13-32-hocking-road-kingsley-wa-6026-2017454340,539000,is-sold,Sold by private treaty 11 Jan 2022,20220111,13/32 Hocking Road,KINGSLEY,WA,6026,-31.8026466,115.8143,3,3,3,House,House,False,0,m2,True
2017467316,listing,/6-phillips-fox-terrace-woodvale-wa-6026-2017467316,1050000,is-sold,Sold by private treaty 05 Jan 2022,20220105,6 Phillips-Fox Terrace,WOODVALE,WA,6026,-31.78114,115.792892,4,4,4,House,House,False,496,m2,False
2017467605,listing,/3-karri-court-woodvale-wa-6026-2017467605,920000,is-sold,Sold by private treaty 20 Jan 2022,20220120,3 Karri Court,WOODVALE,WA,6026,-31.789526,115.797409,4,4,4,House,House,False,772,m2,False
2017479168,listing,/54-dalton-crescent-kingsley-wa-6026-2017479168,735000,is-sold,Sold by private treaty 22 Dec 2021,20211222,54 Dalton Crescent,KINGSLEY,WA,6026,-31.81021,115.797386,5,5,5,House,House,False,704,m2,False
2017489174,listing,/3-moss-court-kingsley-wa-6026-2017489174,805000,is-sold,Sold by private treaty 22 Dec 2021,20211222,3 Moss Court,KINGSLEY,WA,6026,-31.8119,115.80127,4,4,4,House,House,False,707,m2,False
2017499455,listing,/27-sophora-place-woodvale-wa-6026-2017499455,991500,is-sold,Sold by private treaty 22 Dec 2021,20211222,27 Sophora Place,WOODVALE,WA,6026,-31.7993355,115.797318,4,4,4,House,House,False,718,m2,False
2017500296,listing,/kingsley-wa-6026-2017500296,,is-sold,Sold by private treaty 21 Dec 2021,20211221,,KINGSLEY,WA,6026,-31.80314,115.783478,3,3,3,House,House,False,712,m2,False
2017505825,listing,/12-laurelston-heights-woodvale-wa-6026-2017505825,850000,is-sold,Sold by private treaty 08 Jan 2022,20220108,12 Laurelston Heights,WOODVALE,WA,6026,-31.77693,115.788422,4,4,4,House,House,False,645,m2,False
2017507690,listing,/147-goollelal-drive-kingsley-wa-6026-2017507690,850000,is-sold,Sold by private treaty 25 Jan 2022,20220125,147 Goollelal Drive,KINGSLEY,WA,6026,-31.8062649,115.808228,4,4,4,House,House,False,893,m2,False
2017517964,listing,/4-25-rosso-meander-woodvale-wa-6026-2017517964,,is-sold,Sold by private treaty 14 Jan 2022,20220114,4/25 Rosso Meander,WOODVALE,WA,6026,-31.7932625,115.8121,3,3,3,Villa,Villa,False,176,m2,False
2017519033,listing,/17-everard-close-woodvale-wa-6026-2017519033,930000,is-sold,Sold by private treaty 18 Jan 2022,20220118,17 Everard Close,WOODVALE,WA,6026,-31.7798157,115.789368,5,5,5,House,House,False,938,m2,False
2017519164,listing,/10a-cossack-court-kingsley-wa-6026-2017519164,535000,is-sold,Sold by private treaty 21 Jan 2022,20220121,10A Cossack Court,KINGSLEY,WA,6026,-31.81552,115.794388,3,3,3,SemiDetached,Semi-Detached,False,294,m2,False
2017526214,listing,/164-barridale-drive-kingsley-wa-6026-2017526214,725000,is-sold,Sold by private treaty 22 Jan 2022,20220122,164 Barridale Drive,KINGSLEY,WA,6026,-31.8063965,115.79776,4,4,4,House,House,False,680,m2,False
2017162749,listing,/3-cobradah-way-kingsley-wa-6026-2017162749,540000,is-sold,Sold by private treaty 01 Dec 2021,20211201,3 Cobradah Way,KINGSLEY,WA,6026,-31.81836,115.811081,4,4,4,House,House,False,602,m2,False
2017177943,listing,/lot-889-26-kensal-green-way-kingsley-wa-6026-2017177943,,is-sold,Sold by private treaty 14 Dec 2021,20211214,Lot 889/26 Kensal Green Way,KINGSLEY,WA,6026,-31.8025742,115.785324,,,,VacantLand,Vacant land,False,410,m2,False
2017177958,listing,/lot-888-26-kensal-green-way-kingsley-wa-6026-2017177958,,is-sold,Sold by private treaty 14 Dec 2021,20211214,"Lot 888, 26 Kensal Green Way",KINGSLEY,WA,6026,-31.8025742,115.785324,,,,VacantLand,Vacant land,False,410,m2,False
2017194346,listing,/woodvale-wa-6026-2017194346,,is-sold,Sold by private treaty 16 Dec 2021,20211216,,WOODVALE,WA,6026,-31.7902317,115.7979,4,4,4,NewHouseLand,New House & Land,False,0,m2,False
2017194362,listing,/woodvale-wa-6026-2017194362,,is-sold,Sold by private treaty 16 Dec 2021,20211216,,WOODVALE,WA,6026,-31.7902317,115.7979,4,4,4,NewHouseLand,New House & Land,False,0,m2,False
2017282805,listing,/2-benbullen-boulevard-kingsley-wa-6026-2017282805,799000,is-sold,Sold by private treaty 10 Dec 2021,20211210,2 Benbullen Boulevard,KINGSLEY,WA,6026,-31.815731,115.806168,5,5,5,House,House,False,830,m2,False
2017286739,listing,/13-woodvale-drive-woodvale-wa-6026-2017286739,810000,is-sold,Sold by private treaty 13 Dec 2021,20211213,13 Woodvale Drive,WOODVALE,WA,6026,-31.7860012,115.808617,4,4,4,House,House,False,408,m2,False
2017372170,listing,/20-durban-crescent-kingsley-wa-6026-2017372170,720000,is-sold,Sold by private treaty 03 Dec 2021,20211203,20 Durban Crescent,KINGSLEY,WA,6026,-31.8201084,115.797066,4,4,4,House,House,False,692,m2,False
2017438687,listing,/14-woodlupine-rise-woodvale-wa-6026-2017438687,632000,is-sold,Sold by private treaty 05 Dec 2021,20211205,14 Woodlupine Rise,WOODVALE,WA,6026,-31.8016415,115.802284,4,4,4,House,House,False,714,m2,False
2017440650,listing,/8b-renegade-way-kingsley-wa-6026-2017440650,,is-sold,Sold by private treaty 04 Dec 2021,20211204,8B Renegade Way,KINGSLEY,WA,6026,-31.81803,115.801224,3,3,3,SemiDetached,Semi-Detached,False,450,m2,False
2017449758,listing,/23-the-crest-woodvale-wa-6026-2017449758,695000,is-sold,Sold by private treaty 30 Nov 2021,20211130,23 The Crest,WOODVALE,WA,6026,-31.79596,115.789925,4,4,4,House,House,False,731,m2,False
2017451984,listing,/2-ulex-place-woodvale-wa-6026-2017451984,585000,is-sold,Sold by private treaty 17 Dec 2021,20211217,2 Ulex Place,WOODVALE,WA,6026,-31.7951679,115.7954,3,3,3,House,House,False,468,m2,False
2017453248,listing,/14-lofty-court-woodvale-wa-6026-2017453248,810000,is-sold,Sold by private treaty 09 Dec 2021,20211209,14 Lofty Court,WOODVALE,WA,6026,-31.7834511,115.78685,5,5,5,House,House,False,700,m2,False
2017462561,listing,/6-bowes-court-kingsley-wa-6026-2017462561,754000,is-sold,Sold by private treaty 14 Dec 2021,20211214,6 Bowes Court,KINGSLEY,WA,6026,-31.8054848,115.801781,4,4,4,House,House,False,711,m2,False
2017475558,listing,/51a-glenfield-road-kingsley-wa-6026-2017475558,,is-sold,Sold by private treaty 14 Dec 2021,20211214,51A Glenfield Road,KINGSLEY,WA,6026,-31.81259,115.803574,3,3,3,House,House,False,0,m2,False
2017476463,listing,/157-twickenham-drive-kingsley-wa-6026-2017476463,,is-sold,Sold by private treaty 12 Dec 2021,20211212,157 Twickenham Drive,KINGSLEY,WA,6026,-31.8089771,115.783821,4,4,4,House,House,False,680,m2,False
2017478834,listing,/4b-linrose-lane-woodvale-wa-6026-2017478834,,is-sold,Sold by private treaty 16 Dec 2021,20211216,4B Linrose Lane,WOODVALE,WA,6026,-31.77798,115.788361,3,3,3,House,House,False,0,m2,False
2017479353,listing,/9-claybush-court-woodvale-wa-6026-2017479353,,is-sold,Sold by private treaty 13 Dec 2021,20211213,9 Claybush Court,WOODVALE,WA,6026,-31.790287,115.794571,6,6,6,House,House,False,1006,m2,False
2017481718,listing,/kingsley-wa-6026-2017481718,,is-sold,Sold by private treaty 06 Dec 2021,20211206,,KINGSLEY,WA,6026,-31.8054047,115.795631,4,4,4,House,House,False,717,m2,False
2017488087,listing,/kingsley-wa-6026-2017488087,,is-sold,Sold by private treaty 12 Dec 2021,20211212,,KINGSLEY,WA,6026,-31.8052254,115.784767,3,3,3,House,House,False,686,m2,False
2016713601,listing,/25-50-woodlake-retreat-kingsley-wa-6026-2016713601,,is-sold,Sold by private treaty 11 Nov 2021,20211111,25/50 Woodlake Retreat,KINGSLEY,WA,6026,-31.815197,115.81955,2,2,2,Villa,Villa,False,0,m2,False
2017198013,listing,/16-goollelal-drive-kingsley-wa-6026-2017198013,570000,is-sold,Sold by private treaty 12 Nov 2021,20211112,16 Goollelal Drive,KINGSLEY,WA,6026,-31.81814,115.812088,4,4,4,House,House,False,714,m2,False
2017238162,listing,/38-standish-way-woodvale-wa-6026-2017238162,715000,is-sold,Sold by private treaty 09 Nov 2021,20211109,38 Standish Way,WOODVALE,WA,6026,-31.78991,115.79129,,,,VacantLand,Vacant land,False,793,m2,False
2017248218,listing,/woodvale-wa-6026-2017248218,,is-sold,Sold by private treaty 09 Nov 2021,20211109,,WOODVALE,WA,6026,-31.7902317,115.7979,3,3,3,NewHouseLand,New House & Land,False,0,m2,False
2017324938,listing,/11-willowcreek-mews-woodvale-wa-6026-2017324938,670000,is-sold,Sold by private treaty 29 Nov 2021,20211129,11 Willowcreek Mews,WOODVALE,WA,6026,-31.8008575,115.8015,4,4,4,House,House,False,756,m2,False
2017332713,listing,/105-moolanda-blvd-kingsley-wa-6026-2017332713,635000,is-sold,Sold by private treaty 22 Nov 2021,20211122,105 Moolanda Blvd,KINGSLEY,WA,6026,-31.80983,115.804504,4,4,4,House,House,False,821,m2,False
2017334599,listing,/105-kingsley-drive-kingsley-wa-6026-2017334599,643500,is-sold,Sold by private treaty 19 Nov 2021,20211119,105 Kingsley Drive,KINGSLEY,WA,6026,-31.8090973,115.788628,4,4,4,House,House,False,680,m2,False
2017346770,listing,/9b-peckham-crescent-kingsley-wa-6026-2017346770,493000,is-sold,Sold by private treaty 11 Nov 2021,20211111,9B Peckham Crescent,KINGSLEY,WA,6026,-31.80783,115.79332,3,3,3,House,House,False,0,m2,False
2017354124,listing,/33-monterey-drive-woodvale-wa-6026-2017354124,620000,is-sold,Sold by private treaty 17 Nov 2021,20211117,33 Monterey Drive,WOODVALE,WA,6026,-31.7759056,115.78759,4,4,4,House,House,False,601,m2,False
2017364917,listing,/6-blight-court-kingsley-wa-6026-2017364917,,is-sold,Sold by private treaty 13 Nov 2021,20211113,6 Blight Court,KINGSLEY,WA,6026,-31.81798,115.790092,,,,VacantLand,Vacant land,False,763,m2,False
2017374062,listing,/16-kensal-green-way-kingsley-wa-6026-2017374062,,is-sold,Sold by private treaty 16 Nov 2021,20211116,16 Kensal Green Way,KINGSLEY,WA,6026,-31.8015461,115.786247,3,3,3,House,House,False,895,m2,False
2017392577,listing,/62-chessington-way-kingsley-wa-6026-2017392577,,is-sold,Sold by private treaty 14 Nov 2021,20211114,62 Chessington Way,KINGSLEY,WA,6026,-31.8163776,115.786713,4,4,4,House,House,False,735,m2,False
2017394420,listing,/78-dalmain-street-kingsley-wa-6026-2017394420,820000,is-sold,Sold by private treaty 18 Nov 2021,20211118,78 Dalmain Street,KINGSLEY,WA,6026,-31.81444,115.789345,4,4,4,House,House,False,722,m2,False
2017394427,listing,/1-kidbrooke-way-kingsley-wa-6026-2017394427,390000,is-sold,Sold by private treaty 12 Nov 2021,20211112,1 Kidbrooke Way,KINGSLEY,WA,6026,-31.80935,115.790512,3,3,3,House,House,False,0,m2,False
2017400446,listing,/7-benbullen-boulevard-kingsley-wa-6026-2017400446,,is-sold,Sold by private treaty 15 Nov 2021,20211115,7 Benbullen Boulevard,KINGSLEY,WA,6026,-31.8153629,115.806725,4,4,4,House,House,False,726,m2,False
2017401430,listing,/3-edmonton-place-kingsley-wa-6026-2017401430,,is-sold,Sold by private treaty 22 Nov 2021,20211122,3 Edmonton Place,KINGSLEY,WA,6026,-31.80861,115.784744,4,4,4,House,House,False,680,m2,False
2017422531,listing,/5a-larkfield-vista-woodvale-wa-6026-2017422531,580000,is-sold,Sold by private treaty 18 Nov 2021,20211118,5A Larkfield Vista,WOODVALE,WA,6026,-31.77698,115.7879,3,3,3,House,House,False,319,m2,False
2017424236,listing,/20-wandearah-way-kingsley-wa-6026-2017424236,876000,is-sold,Sold by private treaty 22 Nov 2021,20211122,20 Wandearah Way,KINGSLEY,WA,6026,-31.8136768,115.807236,4,4,4,House,House,False,770,m2,False
2017424792,listing,/24-clinton-street-kingsley-wa-6026-2017424792,,is-sold,Sold by private treaty 24 Nov 2021,20211124,24 Clinton Street,KINGSLEY,WA,6026,-31.82076,115.802956,4,4,4,House,House,False,681,m2,False
2017426478,listing,/27-claygate-way-kingsley-wa-6026-2017426478,,is-sold,Sold by private treaty 28 Nov 2021,20211128,27 Claygate Way,KINGSLEY,WA,6026,-31.8210564,115.798149,3,3,3,House,House,False,676,m2,False
2016681795,listing,/7-the-rise-woodvale-wa-6026-2016681795,575000,is-sold,Sold by private treaty 02 Nov 2021,20211102,7 The Rise,WOODVALE,WA,6026,-31.7982254,115.790573,3,3,3,House,House,False,0,m2,False
2017195837,listing,/10b-waterview-drive-woodvale-wa-6026-2017195837,591000,is-sold,Sold by private treaty 27 Oct 2021,20211027,10b Waterview Drive,WOODVALE,WA,6026,-31.79172,115.802261,3,3,3,House,House,False,409,m2,False
2017202421,listing,/147-kingsley-drive-kingsley-wa-6026-2017202421,569000,is-sold,Sold by private treaty 25 Oct 2021,20211025,147 Kingsley Drive,KINGSLEY,WA,6026,-31.8131466,115.788605,3,3,3,House,House,False,685,m2,False
2017213721,listing,/9-ivory-court-kingsley-wa-6026-2017213721,635000,is-sold,Sold by private treaty 21 Oct 2021,20211021,9 Ivory Court,KINGSLEY,WA,6026,-31.8190861,115.804092,3,3,3,House,House,False,680,m2,False
2017224506,listing,/10-greenwich-court-kingsley-wa-6026-2017224506,620000,is-sold,Sold by private treaty 28 Oct 2021,20211028,10 Greenwich Court,KINGSLEY,WA,6026,-31.8076153,115.78743,3,3,3,House,House,False,695,m2,False
2017236280,listing,/69-wimbledon-drive-kingsley-wa-6026-2017236280,840000,is-sold,Sold by private treaty 28 Oct 2021,20211028,69 Wimbledon Drive,KINGSLEY,WA,6026,-31.8163929,115.78521,5,5,5,House,House,False,684,m2,False
2017277552,listing,/35-50-woodlake-retreat-kingsley-wa-6026-2017277552,,is-sold,Sold by private treaty 05 Nov 2021,20211105,35/50 Woodlake Retreat,KINGSLEY,WA,6026,-31.81517,115.819664,2,2,2,ApartmentUnitFlat,Apartment / Unit / Flat,False,0,m2,False
2017278134,listing,/18-renegade-way-kingsley-wa-6026-2017278134,855000,is-sold,Sold by private treaty 15 Oct 2021,20211015,18 Renegade Way,KINGSLEY,WA,6026,-31.8180771,115.802429,4,4,4,House,House,False,773,m2,False
2017314239,listing,/7b-kane-street-kingsley-wa-6026-2017314239,,is-sold,Sold by private treaty 22 Oct 2021,20211022,7B Kane Street,KINGSLEY,WA,6026,-31.81834,115.801224,3,3,3,Duplex,Duplex,False,450,m2,False
2017333977,listing,/5a-koolyn-grove-kingsley-wa-6026-2017333977,830000,is-sold,Sold by private treaty 20 Oct 2021,20211020,5A Koolyn Grove,KINGSLEY,WA,6026,-31.812355,115.8094,4,4,4,House,House,False,507,m2,False
2017337086,listing,/23-dollis-way-kingsley-wa-6026-2017337086,850000,is-sold,Sold by private treaty 25 Oct 2021,20211025,23 Dollis Way,KINGSLEY,WA,6026,-31.8036137,115.801224,4,4,4,House,House,False,707,m2,False
2017337304,listing,/16-piara-court-woodvale-wa-6026-2017337304,635000,is-sold,Sold by private treaty 28 Oct 2021,20211028,16 Piara Court,WOODVALE,WA,6026,-31.7934132,115.801529,4,4,4,House,House,False,368,m2,False
2017339958,listing,/kingsley-wa-6026-2017339958,,is-sold,Sold by private treaty 18 Oct 2021,20211018,,KINGSLEY,WA,6026,-31.8096142,115.786339,4,4,4,House,House,False,725,m2,False
2017340435,listing,/12-jarrah-place-woodvale-wa-6026-2017340435,,is-sold,Sold by private treaty 26 Oct 2021,20211026,12 Jarrah Place,WOODVALE,WA,6026,-31.7872944,115.795837,4,4,4,House,House,False,751,m2,False
2017344737,listing,/207-barridale-drive-kingsley-wa-6026-2017344737,760000,is-sold,Sold by private treaty 24 Oct 2021,20211024,207 Barridale Drive,KINGSLEY,WA,6026,-31.8020058,115.798683,4,4,4,House,House,False,717,m2,False
2017360721,listing,/28-kensal-green-way-kingsley-wa-6026-2017360721,,is-sold,Sold by private treaty 31 Oct 2021,20211031,28 Kensal Green Way,KINGSLEY,WA,6026,-31.80274,115.785324,4,4,4,House,House,False,704,m2,False
2017367209,listing,/12-heysen-crest-woodvale-wa-6026-2017367209,,is-sold,Sold by private treaty 01 Nov 2021,20211101,12 Heysen Crest,WOODVALE,WA,6026,-31.7827015,115.794151,4,4,4,House,House,False,807,m2,False
2017374270,listing,/230-trappers-drive-woodvale-wa-6026-2017374270,570000,is-sold,Sold by private treaty 04 Nov 2021,20211104,230 Trappers Drive,WOODVALE,WA,6026,-31.77764,115.789627,3,3,3,SemiDetached,Semi-Detached,False,387,m2,False
2017382934,listing,/132b-kingsley-drive-kingsley-wa-6026-2017382934,,is-sold,Sold by private treaty 08 Nov 2021,20211108,132B Kingsley Drive,KINGSLEY,WA,6026,-31.81134,115.789192,3,3,3,House,House,False,0,m2,False
2017383709,listing,/20a-ardrossan-loop-kingsley-wa-6026-2017383709,550000,is-sold,Sold by private treaty 06 Nov 2021,20211106,20A Ardrossan Loop,KINGSLEY,WA,6026,-31.8024349,115.796509,3,3,3,House,House,False,213,m2,False
2016626630,listing,/38-32-hocking-road-kingsley-wa-6026-2016626630,410000,is-sold,Sold by private treaty 27 Sep 2021,20210927,38/32 Hocking Road,KINGSLEY,WA,6026,-31.8026466,115.8143,2,2,2,House,House,False,0,m2,True
2017149344,listing,/6-catherine-close-woodvale-wa-6026-2017149344,,is-sold,Sold by private treaty 29 Sep 2021,20210929,6 Catherine Close,WOODVALE,WA,6026,-31.79438,115.790405,5,5,5,House,House,False,726,m2,False
2017164011,listing,/1-chapel-court-kingsley-wa-6026-2017164011,430000,is-sold,Sold by private treaty 28 Sep 2021,20210928,1 Chapel Court,KINGSLEY,WA,6026,-31.8037167,115.803139,2,2,2,House,House,False,300,m2,False
2017211112,listing,/7-thirroul-grove-kingsley-wa-6026-2017211112,620000,is-sold,Sold by private treaty 27 Sep 2021,20210927,7 Thirroul Grove,KINGSLEY,WA,6026,-31.8185616,115.810143,4,4,4,House,House,False,694,m2,False
2017230436,listing,/17-adenmore-way-kingsley-wa-6026-2017230436,,is-sold,Sold by private treaty 28 Sep 2021,20210928,17 Adenmore Way,KINGSLEY,WA,6026,-31.8177872,115.798592,3,3,3,House,House,False,680,m2,False
2017232738,listing,/2-koolyn-grove-kingsley-wa-6026-2017232738,870000,is-sold,Sold by private treaty 11 Oct 2021,20211011,2 Koolyn Grove,KINGSLEY,WA,6026,-31.812706,115.809891,4,4,4,House,House,False,683,m2,False
2017232820,listing,/25-westhaven-drive-woodvale-wa-6026-2017232820,775000,is-sold,Sold by private treaty 24 Sep 2021,20210924,25 Westhaven Drive,WOODVALE,WA,6026,-31.7908211,115.785,4,4,4,House,House,False,721,m2,False
2017242404,listing,/97-duffy-terrace-woodvale-wa-6026-2017242404,730000,is-sold,Sold by private treaty 26 Sep 2021,20210926,97 Duffy Terrace,WOODVALE,WA,6026,-31.7946644,115.802521,4,4,4,House,House,False,708,m2,False
2017246479,listing,/7-sophora-place-woodvale-wa-6026-2017246479,,is-sold,Sold by private treaty 01 Oct 2021,20211001,7 Sophora Place,WOODVALE,WA,6026,-31.7981567,115.797783,4,4,4,House,House,False,682,m2,False
2017252712,listing,/9-tandina-way-kingsley-wa-6026-2017252712,712000,is-sold,Sold by private treaty 14 Oct 2021,20211014,9 Tandina Way,KINGSLEY,WA,6026,-31.8170567,115.801781,4,4,4,House,House,False,680,m2,False
2017257426,listing,/11-springwood-way-woodvale-wa-6026-2017257426,,is-sold,Sold by private treaty 27 Sep 2021,20210927,11 Springwood Way,WOODVALE,WA,6026,-31.7951221,115.801361,4,4,4,House,House,False,882,m2,False
2017257605,listing,/3b-the-ramble-woodvale-wa-6026-2017257605,,is-sold,Sold by private treaty 05 Oct 2021,20211005,3B The Ramble,WOODVALE,WA,6026,-31.79771,115.7886,3,3,3,SemiDetached,Semi-Detached,False,0,m2,False
2017264156,listing,/5a-dora-place-woodvale-wa-6026-2017264156,500000,is-sold,Sold by private treaty 24 Sep 2021,20210924,5a Dora Place,WOODVALE,WA,6026,-31.78597,115.791458,3,3,3,SemiDetached,Semi-Detached,False,428,m2,False
2017266847,listing,/12-hailwood-court-kingsley-wa-6026-2017266847,785000,is-sold,Sold by private treaty 08 Oct 2021,20211008,12 Hailwood Court,KINGSLEY,WA,6026,-31.8107033,115.787636,7,7,7,House,House,False,717,m2,False
2017271646,listing,/25-panzano-circuit-woodvale-wa-6026-2017271646,737000,is-sold,Sold by private treaty 28 Sep 2021,20210928,25 Panzano Circuit,WOODVALE,WA,6026,-31.7864456,115.808479,3,3,3,House,House,False,384,m2,False
2017282997,listing,/62-barridale-drive-kingsley-wa-6026-2017282997,540000,is-sold,Sold by private treaty 13 Oct 2021,20211013,62 Barridale Drive,KINGSLEY,WA,6026,-31.8160076,115.797615,3,3,3,House,House,False,688,m2,False
2017296881,listing,/9-angelina-court-kingsley-wa-6026-2017296881,,is-sold,Sold by private treaty 12 Oct 2021,20211012,9 Angelina Court,KINGSLEY,WA,6026,-31.8123055,115.792976,4,4,4,House,House,False,834,m2,False
2017303368,listing,/17-newhaven-place-kingsley-wa-6026-2017303368,,is-sold,Sold by private treaty 11 Oct 2021,20211011,17 Newhaven Place,KINGSLEY,WA,6026,-31.8077869,115.795837,5,5,5,House,House,False,796,m2,False
2017305836,listing,/79-moolanda-boulevard-kingsley-wa-6026-2017305836,680000,is-sold,Sold by private treaty 13 Oct 2021,20211013,79 Moolanda Boulevard,KINGSLEY,WA,6026,-31.8124943,115.80397,4,4,4,House,House,False,687,m2,False
2017306174,listing,/46-wimbledon-drive-kingsley-wa-6026-2017306174,705000,is-sold,Sold by private treaty 12 Oct 2021,20211012,46 Wimbledon Drive,KINGSLEY,WA,6026,-31.8149071,115.785645,4,4,4,House,House,False,680,m2,False
2017049001,listing,/8-corvina-way-woodvale-wa-6026-2017049001,670000,is-sold,Sold by private treaty 15 Sep 2021,20210915,8 Corvina Way,WOODVALE,WA,6026,-31.7909,115.811142,4,4,4,House,House,False,348,m2,False
2017083693,listing,/43-creaney-drive-kingsley-wa-6026-2017083693,516000,is-sold,Sold by private treaty 08 Sep 2021,20210908,43 Creaney Drive,KINGSLEY,WA,6026,-31.8060627,115.791054,4,4,4,House,House,False,595,m2,False
2017146170,listing,/5-butia-mews-woodvale-wa-6026-2017146170,920000,is-sold,Sold by private treaty 10 Sep 2021,20210910,5 Butia Mews,WOODVALE,WA,6026,-31.7984066,115.798454,4,4,4,House,House,False,757,m2,False
2017158769,listing,/16b-golders-green-lane-kingsley-wa-6026-2017158769,,is-sold,Sold by private treaty 10 Sep 2021,20210910,16B Golders Green Lane,KINGSLEY,WA,6026,-31.80358,115.78688,3,3,3,House,House,False,0,m2,False
2017195255,listing,/42-rosso-meander-woodvale-wa-6026-2017195255,,is-sold,Sold by private treaty 13 Sep 2021,20210913,42 Rosso Meander,WOODVALE,WA,6026,-31.7921963,115.811905,3,3,3,House,House,False,0,m2,False
2017198080,listing,/36-pebblewood-road-woodvale-wa-6026-2017198080,765000,is-sold,Sold by private treaty 13 Sep 2021,20210913,36 Pebblewood Road,WOODVALE,WA,6026,-31.7955341,115.802521,4,4,4,House,House,False,724,m2,False
2017217234,listing,/17-ormond-court-woodvale-wa-6026-2017217234,,is-sold,Sold by private treaty 06 Sep 2021,20210906,17 Ormond Court,WOODVALE,WA,6026,-31.79113,115.796417,4,4,4,House,House,False,700,m2,False
2017217509,listing,/10-piara-court-woodvale-wa-6026-2017217509,630000,is-sold,Sold by private treaty 07 Sep 2021,20210907,10 Piara Court,WOODVALE,WA,6026,-31.7934132,115.801529,4,4,4,House,House,False,352,m2,False
2017217521,listing,/2-birchfield-avenue-woodvale-wa-6026-2017217521,980000,is-sold,Sold by private treaty 13 Sep 2021,20210913,2 Birchfield Avenue,WOODVALE,WA,6026,-31.78649,115.786804,4,4,4,House,House,False,716,m2,False
2017230053,listing,/kingsley-wa-6026-2017230053,,is-sold,Sold by private treaty 07 Sep 2021,20210907,,KINGSLEY,WA,6026,-31.8031845,115.800713,4,4,4,House,House,False,692,m2,False
2017230489,listing,/18-celina-crescent-kingsley-wa-6026-2017230489,,is-sold,Sold by private treaty 06 Sep 2021,20210906,18 Celina Crescent,KINGSLEY,WA,6026,-31.8198147,115.8012,3,3,3,House,House,False,686,m2,False
2017236869,listing,/83-timberlane-drive-woodvale-wa-6026-2017236869,755000,is-sold,Sold by private treaty 11 Sep 2021,20210911,83 Timberlane Drive,WOODVALE,WA,6026,-31.7932587,115.796555,4,4,4,House,House,False,801,m2,False
2017242622,listing,/5-waterview-drive-woodvale-wa-6026-2017242622,641000,is-sold,Sold by private treaty 20 Sep 2021,20210920,5 Waterview Drive,WOODVALE,WA,6026,-31.7920856,115.801781,3,3,3,House,House,False,500,m2,False
2017243668,listing,/25a-ashton-rise-woodvale-wa-6026-2017243668,,is-sold,Sold by private treaty 16 Sep 2021,20210916,25A Ashton Rise,WOODVALE,WA,6026,-31.78221,115.790352,3,3,3,House,House,False,629,m2,False
2017244125,listing,/24-conical-rise-woodvale-wa-6026-2017244125,770000,is-sold,Sold by private treaty 20 Sep 2021,20210920,24 Conical Rise,WOODVALE,WA,6026,-31.7859879,115.784904,4,4,4,House,House,False,706,m2,False
2017244824,listing,/138-trailwood-drive-woodvale-wa-6026-2017244824,,is-sold,Sold by private treaty 14 Sep 2021,20210914,138 Trailwood Drive,WOODVALE,WA,6026,-31.79321,115.786621,4,4,4,House,House,False,770,m2,False
2017245547,listing,/40-new-cross-road-kingsley-wa-6026-2017245547,630000,is-sold,Sold by private treaty 23 Sep 2021,20210923,40 New Cross Road,KINGSLEY,WA,6026,-31.8043842,115.795166,4,4,4,House,House,False,692,m2,False
2017250475,listing,/3-the-return-woodvale-wa-6026-2017250475,,is-sold,Sold by private treaty 24 Sep 2021,20210924,3 The Return,WOODVALE,WA,6026,-31.79667,115.785,5,5,5,House,House,False,721,m2,False
2017265394,listing,/34-fallbrook-avenue-woodvale-wa-6026-2017265394,,is-sold,Sold by private treaty 24 Sep 2021,20210924,34 Fallbrook Avenue,WOODVALE,WA,6026,-31.7998428,115.801109,4,4,4,House,House,False,693,m2,False
2017270974,listing,/kingsley-wa-6026-2017270974,,is-sold,Sold by private treaty 17 Sep 2021,20210917,,KINGSLEY,WA,6026,-31.8197346,115.798889,4,4,4,House,House,False,742,m2,False
2016713614,listing,/50-50-woodlake-retreat-kingsley-wa-6026-2016713614,,is-sold,Sold by private treaty 01 Sep 2021,20210901,50/50 Woodlake Retreat,KINGSLEY,WA,6026,-31.815197,115.81955,2,2,2,Villa,Villa,False,0,m2,False
2016879199,listing,/36-forest-hill-drive-kingsley-wa-6026-2016879199,,is-sold,Sold by private treaty 18 Aug 2021,20210818,36 Forest Hill Drive,KINGSLEY,WA,6026,-31.8016663,115.791054,4,4,4,House,House,False,736,m2,False
2017015723,listing,/11-withers-grove-woodvale-wa-6026-2017015723,1100000,is-sold,Sold by private treaty 30 Jul 2021,20210730,11 Withers Grove,WOODVALE,WA,6026,-31.7822933,115.793739,4,4,4,House,House,False,895,m2,False
2017039318,listing,/43-delonix-circle-woodvale-wa-6026-2017039318,720000,is-sold,Sold by private treaty 17 Aug 2021,20210817,43 Delonix Circle,WOODVALE,WA,6026,-31.7955189,115.796646,4,4,4,House,House,False,540,m2,False
2017040734,listing,/8-nanda-close-kingsley-wa-6026-2017040734,750000,is-sold,Sold by private treaty 05 Aug 2021,20210805,8 Nanda Close,KINGSLEY,WA,6026,-31.8145466,115.808571,4,4,4,House,House,False,711,m2,False
2017075662,listing,/44-plumdale-way-woodvale-wa-6026-2017075662,795000,is-sold,Sold by private treaty 27 Aug 2021,20210827,44 Plumdale Way,WOODVALE,WA,6026,-31.776968,115.786713,4,4,4,House,House,False,625,m2,False
2017085798,listing,/43-trappers-drive-woodvale-wa-6026-2017085798,500000,is-sold,Sold by private treaty 04 Aug 2021,20210804,43 Trappers Drive,WOODVALE,WA,6026,-31.7930584,115.78981,3,3,3,SemiDetached,Semi-Detached,False,489,m2,False
2017090173,listing,/7-alconbury-road-kingsley-wa-6026-2017090173,730500,is-sold,Sold by private treaty 04 Aug 2021,20210804,7 Alconbury Road,KINGSLEY,WA,6026,-31.80814,115.806358,5,5,5,House,House,False,692,m2,False
2017098845,listing,/87-wimbledon-drive-kingsley-wa-6026-2017098845,702000,is-sold,Sold by private treaty 02 Aug 2021,20210802,87 Wimbledon Drive,KINGSLEY,WA,6026,-31.81719,115.78717,4,4,4,House,House,False,683,m2,False
2017115607,listing,/9-cadogan-street-kingsley-wa-6026-2017115607,836000,is-sold,Sold by private treaty 09 Aug 2021,20210809,9 Cadogan Street,KINGSLEY,WA,6026,-31.8155479,115.798592,4,4,4,House,House,False,702,m2,False
2017119443,listing,/12-tulse-rise-kingsley-wa-6026-2017119443,615000,is-sold,Sold by private treaty 27 Aug 2021,20210827,12 Tulse Rise,KINGSLEY,WA,6026,-31.80123,115.790207,3,3,3,House,House,False,342,m2,False
2017144354,listing,/17-alconbury-road-kingsley-wa-6026-2017144354,635000,is-sold,Sold by private treaty 26 Aug 2021,20210826,17 Alconbury Road,KINGSLEY,WA,6026,-31.8079357,115.807022,4,4,4,House,House,False,692,m2,False
2017149794,listing,/34-gascoyne-avenue-woodvale-wa-6026-2017149794,,is-sold,Sold by private treaty 05 Aug 2021,20210805,34 Gascoyne Avenue,WOODVALE,WA,6026,-31.7873478,115.792809,4,4,4,House,House,False,0,m2,False
2017157458,listing,/8-solus-cove-woodvale-wa-6026-2017157458,831000,is-sold,Sold by private treaty 31 Jul 2021,20210731,8 Solus Cove,WOODVALE,WA,6026,-31.7830067,115.7915,4,4,4,House,House,False,758,m2,False
2017159411,listing,/4-12-twickenham-drive-kingsley-wa-6026-2017159411,625000,is-sold,Sold by private treaty 31 Aug 2021,20210831,4/12 Twickenham Drive,KINGSLEY,WA,6026,-31.7993851,115.788376,4,4,4,House,House,False,306,m2,False
2017160050,listing,/19-keatley-crescent-woodvale-wa-6026-2017160050,850000,is-sold,Sold by private treaty 10 Aug 2021,20210810,19 Keatley Crescent,WOODVALE,WA,6026,-31.7925777,115.792511,5,5,5,House,House,False,747,m2,False
2017170766,listing,/5-37-muirhead-way-kingsley-wa-6026-2017170766,385000,is-sold,Sold by private treaty 10 Aug 2021,20210810,5/37 Muirhead Way,KINGSLEY,WA,6026,-31.80105,115.793633,2,2,2,ApartmentUnitFlat,Apartment / Unit / Flat,False,0,m2,False
2017190114,listing,/9-hydra-place-kingsley-wa-6026-2017190114,845000,is-sold,Sold by private treaty 27 Aug 2021,20210827,9 Hydra Place,KINGSLEY,WA,6026,-31.8174763,115.794479,4,4,4,House,House,False,763,m2,False
2017192579,listing,/220-barridale-drive-kingsley-wa-6026-2017192579,553000,is-sold,Sold by private treaty 01 Sep 2021,20210901,220 Barridale Drive,KINGSLEY,WA,6026,-31.80147,115.799721,3,3,3,House,House,False,401,m2,False
2017204473,listing,/kingsley-wa-6026-2017204473,,is-sold,Sold by private treaty 16 Aug 2021,20210816,,KINGSLEY,WA,6026,-31.80859,115.805527,3,3,3,House,House,False,0,m2,False
2016854439,listing,/3-kingfisher-way-kingsley-wa-6026-2016854439,940000,is-sold,Sold by private treaty 14 Jul 2021,20210714,3 Kingfisher Way,KINGSLEY,WA,6026,-31.80666,115.819038,5,5,5,House,House,False,0,m2,False
2016947850,listing,/40-adenmore-way-kingsley-wa-6026-2016947850,587000,is-sold,Sold by private treaty 09 Jul 2021,20210709,40 Adenmore Way,KINGSLEY,WA,6026,-31.81596,115.798531,3,3,3,House,House,False,702,m2,False
2016987553,listing,/11-kidbrooke-way-kingsley-wa-6026-2016987553,400000,is-sold,Sold by private treaty 26 Jul 2021,20210726,11 Kidbrooke Way,KINGSLEY,WA,6026,-31.8092041,115.790718,3,3,3,Villa,Villa,False,230,m2,True
2017008755,listing,/42-panzano-circuit-woodvale-wa-6026-2017008755,,is-sold,Sold by private treaty 27 Jul 2021,20210727,42 Panzano Circuit,WOODVALE,WA,6026,-31.7864437,115.809639,3,3,3,House,House,False,378,m2,False
2017020122,listing,/9-32-hocking-road-kingsley-wa-6026-2017020122,510000,is-sold,Sold by private treaty 12 Jul 2021,20210712,9/32 Hocking Road,KINGSLEY,WA,6026,-31.8027248,115.814255,3,3,3,House,House,False,0,m2,True
2017039317,listing,/19-talbot-drive-kingsley-wa-6026-2017039317,700000,is-sold,Sold by private treaty 27 Jul 2021,20210727,19 Talbot Drive,KINGSLEY,WA,6026,-31.8101845,115.806122,4,4,4,House,House,False,680,m2,False
2017051379,listing,/1-11-tandina-way-kingsley-wa-6026-2017051379,,is-sold,Sold by private treaty 29 Jul 2021,20210729,1/11 Tandina Way,KINGSLEY,WA,6026,-31.8172226,115.802078,3,3,3,House,House,False,0,m2,False
2017099771,listing,/8-crathie-court-kingsley-wa-6026-2017099771,800000,is-sold,Sold by private treaty 16 Jul 2021,20210716,8 Crathie Court,KINGSLEY,WA,6026,-31.8020763,115.797691,4,4,4,House,House,False,845,m2,False
2017105837,listing,/23-renegade-way-kingsley-wa-6026-2017105837,,is-sold,Sold by private treaty 17 Jul 2021,20210717,23 Renegade Way,KINGSLEY,WA,6026,-31.8180466,115.803238,6,6,6,House,House,False,689,m2,False
2017107238,listing,/3-everard-close-woodvale-wa-6026-2017107238,697000,is-sold,Sold by private treaty 14 Jul 2021,20210714,3 Everard Close,WOODVALE,WA,6026,-31.7807655,115.788811,4,4,4,House,House,False,766,m2,False
2017118430,listing,/5-carey-court-kingsley-wa-6026-2017118430,820000,is-sold,Sold by private treaty 11 Jul 2021,20210711,5 Carey Court,KINGSLEY,WA,6026,-31.818779,115.789993,4,4,4,House,House,False,683,m2,False
2017120341,listing,/11-timbercrest-rise-woodvale-wa-6026-2017120341,670000,is-sold,Sold by private treaty 24 Jul 2021,20210724,11 Timbercrest Rise,WOODVALE,WA,6026,-31.798233,115.792168,3,3,3,House,House,False,708,m2,False
2017122799,listing,/9-mallard-rise-kingsley-wa-6026-2017122799,1350000,is-sold,Sold by private treaty 26 Jul 2021,20210726,9 Mallard Rise,KINGSLEY,WA,6026,-31.8071175,115.819229,5,5,5,House,House,False,2003,m2,False
2017124384,listing,/14b-tannadice-close-kingsley-wa-6026-2017124384,572000,is-sold,Sold by private treaty 14 Jul 2021,20210714,14B Tannadice Close,KINGSLEY,WA,6026,-31.80694,115.796822,3,3,3,SemiDetached,Semi-Detached,False,368,m2,False
2017124417,listing,/79-twickenham-drive-kingsley-wa-6026-2017124417,745000,is-sold,Sold by private treaty 14 Jul 2021,20210714,79 Twickenham Drive,KINGSLEY,WA,6026,-31.8020058,115.784119,4,4,4,House,House,False,832,m2,False
2017134890,listing,/21-the-ridge-woodvale-wa-6026-2017134890,755000,is-sold,Sold by private treaty 27 Jul 2021,20210727,21 The Ridge,WOODVALE,WA,6026,-31.79439,115.785667,4,4,4,House,House,False,726,m2,False
2017137444,listing,/17-laurelston-heights-woodvale-wa-6026-2017137444,690000,is-sold,Sold by private treaty 26 Jul 2021,20210726,17 Laurelston Heights,WOODVALE,WA,6026,-31.7764549,115.7887,4,4,4,House,House,False,0,m2,False
2017140537,listing,/22-fallbrook-avenue-woodvale-wa-6026-2017140537,743000,is-sold,Sold by private treaty 21 Jul 2021,20210721,22 Fallbrook Avenue,WOODVALE,WA,6026,-31.7997437,115.802429,4,4,4,House,House,False,742,m2,False
2017147610,listing,/14-stoneykirk-loop-kingsley-wa-6026-2017147610,817500,is-sold,Sold by private treaty 25 Jul 2021,20210725,14 Stoneykirk Loop,KINGSLEY,WA,6026,-31.8086529,115.797966,4,4,4,House,House,False,690,m2,False
2017152042,listing,/23-woodvale-drive-woodvale-wa-6026-2017152042,592500,is-sold,Sold by private treaty 29 Jul 2021,20210729,23 Woodvale Drive,WOODVALE,WA,6026,-31.7862339,115.808113,4,4,4,House,House,False,396,m2,False
2016899251,listing,/35-plover-way-kingsley-wa-6026-2016899251,1230000,is-sold,Sold by private treaty 11 Jun 2021,20210611,35 Plover Way,KINGSLEY,WA,6026,-31.8048668,115.817078,4,4,4,House,House,False,2521,m2,False
2016904714,listing,/kingsley-wa-6026-2016904714,,is-sold,Sold by private treaty 09 Jul 2021,20210709,,KINGSLEY,WA,6026,-31.80944,115.804962,4,4,4,NewHouseLand,New House & Land,False,0,m2,False
2016922033,listing,/14-the-rise-woodvale-wa-6026-2016922033,850000,is-sold,Sold by private treaty 02 Jul 2021,20210702,14 The Rise,WOODVALE,WA,6026,-31.7979622,115.791405,4,4,4,House,House,False,900,m2,False
