id,listingType,url,price,tagClassName,tagText,date,street,suburb,state,postcode,lat,lng,beds,baths,parking,propertyType,propertyTypeFormatted,isRural,landSize,landUnit,isRetirement
2017269466,listing,/80-beattie-road-waggrakine-wa-6530-2017269466,575000,is-sold,Sold by private treaty 08 Feb 2023,20230208,80 Beattie Road,WAGGRAKINE,WA,6530,-28.714817,114.631462,4,4,4,House,House,True,7.62,ha,False
2017660375,listing,/8-ashton-close-mount-tarcoola-wa-6530-2017660375,425000,is-sold,Sold by private treaty 22 Feb 2023,20230222,8 Ashton Close,MOUNT TARCOOLA,WA,6530,-28.7956085,114.623207,4,4,4,House,House,False,822.0,m2,False
2017935521,listing,/3-39-utakarra-road-rangeway-wa-6530-2017935521,285000,is-sold,Sold by private treaty 09 Feb 2023,20230209,3/39 Utakarra Road,RANGEWAY,WA,6530,-28.78134,114.634109,3,3,3,House,House,False,0.0,m2,False
2017935537,listing,/21-broadbank-lane-beachlands-wa-6530-2017935537,360000,is-sold,Sold by private treaty 09 Feb 2023,20230209,21 Broadbank Lane,BEACHLANDS,WA,6530,-28.7854271,114.601616,3,3,3,House,House,False,386.0,m2,False
2018086475,listing,/11-mark-way-mount-tarcoola-wa-6530-2018086475,385000,is-sold,Sold by private treaty 13 Feb 2023,20230213,11 Mark Way,MOUNT TARCOOLA,WA,6530,-28.80582,114.627754,4,4,4,House,House,False,0.0,m2,False
2018087135,listing,/20b-glengarry-mount-tarcoola-wa-6530-2018087135,325000,is-sold,Sold by private treaty 17 Feb 2023,20230217,20B Glengarry,MOUNT TARCOOLA,WA,6530,-28.7970123,114.628319,3,3,3,House,House,False,461.0,m2,False
2018133896,listing,/36-wittenoom-street-geraldton-wa-6530-2018133896,360000,is-sold,Sold by private treaty 17 Feb 2023,20230217,36 Wittenoom Street,GERALDTON,WA,6530,-28.76642,114.621033,3,3,3,House,House,False,939.0,m2,False
2018153855,listing,/9-eakins-crescent-wandina-wa-6530-2018153855,405000,is-sold,Sold by private treaty 27 Feb 2023,20230227,9 Eakins Crescent,WANDINA,WA,6530,-28.8279247,114.637177,3,3,3,House,House,False,2070.0,m2,False
2018202041,listing,/32-wanderer-concourse-wandina-wa-6530-2018202041,420000,is-sold,Sold by private treaty 14 Feb 2023,20230214,32 Wanderer Concourse,WANDINA,WA,6530,-28.8111019,114.635506,4,4,4,House,House,False,660.0,m2,False
2018211289,listing,/13-buckingham-street-mount-tarcoola-wa-6530-2018211289,355000,is-sold,Sold by private treaty 14 Feb 2023,20230214,13 Buckingham Street,MOUNT TARCOOLA,WA,6530,-28.7990665,114.624741,4,4,4,House,House,False,0.0,m2,False
2018245655,listing,/18-houston-street-spalding-wa-6530-2018245655,290000,is-sold,Sold by private treaty 08 Feb 2023,20230208,18 Houston Street,SPALDING,WA,6530,-28.7439041,114.632324,3,3,3,House,House,False,1062.0,m2,False
2018248238,listing,/69-marines-lane-west-end-wa-6530-2018248238,92500,is-sold,Sold by private treaty 01 Mar 2023,20230301,69 Marines Lane,WEST END,WA,6530,-28.7816715,114.580292,2,2,2,House,House,False,304.0,m2,False
2018253522,listing,/2-4-6-james-street-geraldton-wa-6530-2018253522,235000,is-sold,Sold by private treaty 15 Feb 2023,20230215,2/4-6 James Street,GERALDTON,WA,6530,-28.77658,114.6211,2,2,2,ApartmentUnitFlat,Apartment / Unit / Flat,False,0.0,m2,False
2018259812,listing,/63-honeysuckle-boulevard-woorree-wa-6530-2018259812,750000,is-sold,Sold by private treaty 17 Feb 2023,20230217,63 Honeysuckle Boulevard,WOORREE,WA,6530,-28.7542572,114.658211,4,4,4,House,House,False,2006.0,m2,False
2018281423,listing,/103-mcaleer-drive-mahomets-flats-wa-6530-2018281423,175000,is-sold,Sold by private treaty 23 Feb 2023,20230223,103 Mcaleer Drive,MAHOMETS FLATS,WA,6530,-28.79394,114.6149,,,,VacantLand,Vacant land,False,800.0,m2,False
2018285045,listing,/8-rolland-drive-mount-tarcoola-wa-6530-2018285045,385000,is-sold,Sold by private treaty 08 Feb 2023,20230208,8 Rolland Drive,MOUNT TARCOOLA,WA,6530,-28.8039989,114.631653,3,3,3,House,House,False,758.0,m2,False
2018287656,listing,/13-maley-way-beachlands-wa-6530-2018287656,149000,is-sold,Sold by private treaty 08 Feb 2023,20230208,13 Maley Way,BEACHLANDS,WA,6530,-28.7876835,114.601311,3,3,3,House,House,False,747.0,m2,False
2018289793,listing,/26-463-marine-terrace-west-end-wa-6530-2018289793,189000,is-sold,Sold by private treaty 20 Feb 2023,20230220,26/463 Marine Terrace,WEST END,WA,6530,-28.7792454,114.5816,2,2,2,House,House,False,0.0,m2,False
2018318805,listing,/20a-glengarry-court-mount-tarcoola-wa-6530-2018318805,320000,is-sold,Sold by private treaty 17 Feb 2023,20230217,20A Glengarry Court,MOUNT TARCOOLA,WA,6530,-28.7970123,114.628319,3,3,3,House,House,False,445.0,m2,False
2018325323,listing,/10-sutherland-drive-mount-tarcoola-wa-6530-2018325323,510613,is-sold,Sold by private treaty 24 Feb 2023,20230224,10 Sutherland Drive,MOUNT TARCOOLA,WA,6530,-28.8038673,114.632881,4,4,4,House,House,False,755.0,m2,False
2018289097,listing,/83b-carson-terrace-geraldton-wa-6530-2018289097,335000,is-sold,Sold by private treaty 03 Mar 2023,20230303,83B Carson Terrace,GERALDTON,WA,6530,-28.7798824,114.6106,3,3,3,House,House,False,779.0,m2,False
2018269959,listing,/78-tersonia-way-strathalbyn-wa-6530-2018269959,645000,is-sold,Sold by private treaty 03 Mar 2023,20230303,78 Tersonia Way,STRATHALBYN,WA,6530,-28.7495975,114.645683,5,5,5,House,House,False,2067.0,m2,False
2018139414,listing,/27-oceanside-drive-wandina-wa-6530-2018139414,280000,is-sold,Sold by private treaty 03 Mar 2023,20230303,27 Oceanside Drive,WANDINA,WA,6530,-28.8259087,114.632393,2,2,2,House,House,False,808.0,m2,False
2017889633,listing,/16-houston-street-spalding-wa-6530-2017889633,55000,is-sold,Sold by private treaty 07 Mar 2023,20230307,16 Houston Street,SPALDING,WA,6530,-28.7441425,114.632439,,,,VacantLand,Vacant land,False,1384,m2,False
2018273052,listing,/16-conus-way-sunset-beach-wa-6530-2018273052,,is-sold,Sold by private treaty 09 Mar 2023,20230309,16 Conus Way,SUNSET BEACH,WA,6530,-28.7201462,114.622772,4,2,3,House,House,False,1097,m2,False
2017541468,listing,/294a-durlacher-street-mahomets-flats-wa-6530-2017541468,320000,is-sold,Sold by private treaty 03 Mar 2023,20230303,294A Durlacher Street,MAHOMETS FLATS,WA,6530,-28.7919617,114.617546,3,1,1,ApartmentUnitFlat,Apartment / Unit / Flat,False,832,m2,False
2018253637,listing,/26-halfmoon-drive-waggrakine-wa-6530-2018253637,285000,is-sold,Sold by private treaty 01 Mar 2023,20230301,26 Halfmoon Drive,WAGGRAKINE,WA,6530,-28.7120533,114.649513,3,1,1,House,House,False,0,m2,False
2018269561,listing,/27b-flores-road-wonthella-wa-6530-2018269561,365000,is-sold,Sold by private treaty 01 Mar 2023,20230301,27B Flores Road,WONTHELLA,WA,6530,-28.7655582,114.634453,3,1,1,ApartmentUnitFlat,Apartment / Unit / Flat,False,441,m2,False
2018247788,listing,/8-earle-place-utakarra-wa-6530-2018247788,190000,is-sold,Sold by private treaty 28 Feb 2023,20230228,8 Earle Place,UTAKARRA,WA,6530,-28.7883186,114.640373,3,1,1,House,House,False,862,m2,False
2018264153,listing,/2-47-bellimos-drive-wandina-wa-6530-2018264153,465000,is-sold,Sold by private treaty 24 Feb 2023,20230224,2/47 Bellimos Drive,WANDINA,WA,6530,-28.8257828,114.636131,3,2,2,House,House,False,549,m2,False
2018302516,listing,/34-cairncross-street-beresford-wa-6530-2018302516,330000,is-sold,Sold by private treaty 27 Feb 2023,20230227,34 Cairncross Street,BERESFORD,WA,6530,-28.7558556,114.62381,3,2,1,Duplex,Duplex,False,0,m2,False
2018316767,listing,/17a-gardner-street-spalding-wa-6530-2018316767,230000,is-sold,Sold by private treaty 25 Feb 2023,20230225,17A Gardner Street,SPALDING,WA,6530,-28.7354584,114.629463,3,2,2,House,House,False,0,m2,False
2018346643,listing,/64-mcaleer-drive-mahomets-flats-wa-6530-2018346643,315000,is-sold,Sold by private treaty 28 Feb 2023,20230228,64 Mcaleer Drive,MAHOMETS FLATS,WA,6530,-28.7906265,114.615,3,1,1,House,House,False,808,m2,False
2017712171,listing,/5-melaleuca-drive-woorree-wa-6530-2017712171,520000,is-sold,Sold by private treaty 08 Feb 2023,20230208,5 Melaleuca Drive,WOORREE,WA,6530,-28.75371,114.656517,4,2,4,House,House,False,0,m2,False
2017862459,listing,/23-wallabi-drive-wandina-wa-6530-2017862459,560000,is-sold,Sold by private treaty 07 Feb 2023,20230207,23 Wallabi Drive,WANDINA,WA,6530,-28.82365,114.635574,5,2,2,House,House,False,800,m2,False
2017936692,listing,/2-27-stroud-street-beachlands-wa-6530-2017936692,366500,is-sold,Sold by private treaty 07 Feb 2023,20230207,2/27 Stroud Street,BEACHLANDS,WA,6530,-28.7842865,114.602196,3,2,2,House,House,False,252,m2,False
2017989268,listing,/206-evans-street-beachlands-wa-6530-2017989268,200000,is-sold,Sold by private treaty 06 Feb 2023,20230206,206 Evans Street,BEACHLANDS,WA,6530,-28.783577,114.603355,3,1,2,House,House,False,773,m2,False
2018015175,listing,/5-141-augustus-street-geraldton-wa-6530-2018015175,79789,is-sold,Sold by private treaty 08 Feb 2023,20230208,5/141 Augustus Street,GERALDTON,WA,6530,-28.7799625,114.604836,1,1,1,ApartmentUnitFlat,Apartment / Unit / Flat,False,56,m2,False
2018139239,listing,/20-mellows-place-rangeway-wa-6530-2018139239,235000,is-sold,Sold by private treaty 16 Feb 2023,20230216,20 Mellows Place,RANGEWAY,WA,6530,-28.7832375,114.632027,4,1,2,House,House,False,850,m2,False
2018142815,listing,/14-marsh-place-mount-tarcoola-wa-6530-2018142815,335000,is-sold,Sold by private treaty 13 Feb 2023,20230213,14 Marsh Place,MOUNT TARCOOLA,WA,6530,-28.7961235,114.624741,4,2,1,House,House,False,807,m2,False
2018237602,listing,/14-flavio-crescent-wandina-wa-6530-2018237602,395000,is-sold,Sold by private treaty 06 Feb 2023,20230206,14 Flavio Crescent,WANDINA,WA,6530,-28.8154049,114.63179,3,2,2,House,House,False,714,m2,False
2016368104,listing,/lot-14-horwood-road-woorree-wa-6530-2016368104,,is-sold,Sold by private treaty 02 Feb 2023,20230202,Lot 14 Horwood Road,WOORREE,WA,6530,-28.7742481,114.654915,,,,VacantLand,Vacant land,False,0,m2,False
2017141216,listing,/4-bayview-street-mount-tarcoola-wa-6530-2017141216,515000,is-sold,Sold by private treaty 03 Feb 2023,20230203,4 Bayview Street,MOUNT TARCOOLA,WA,6530,-28.79808,114.621773,4,2,4,House,House,False,996,m2,False
2017622951,listing,/7-13-15-francis-street-geraldton-wa-6530-2017622951,135000,is-sold,Sold by private treaty 30 Jan 2023,20230130,7/13-15 Francis Street,GERALDTON,WA,6530,-28.7777786,114.604424,2,1,,ApartmentUnitFlat,Apartment / Unit / Flat,False,0,m2,False
2017722465,listing,/16b-osborne-street-spalding-wa-6530-2017722465,128000,is-sold,Sold by private treaty 27 Jan 2023,20230127,16B Osborne Street,SPALDING,WA,6530,-28.74063,114.634895,2,1,1,Villa,Villa,False,0,m2,False
2017791546,listing,/3-penzance-way-tarcoola-beach-wa-6530-2017791546,435000,is-sold,Sold by private treaty 31 Jan 2023,20230131,3 Penzance Way,TARCOOLA BEACH,WA,6530,-28.8206348,114.626366,4,2,2,House,House,False,725,m2,False
2017884837,listing,/36-waverley-street-mount-tarcoola-wa-6530-2017884837,985000,is-sold,Sold by private treaty 20 Jan 2023,20230120,36 Waverley Street,MOUNT TARCOOLA,WA,6530,-28.79374,114.619637,4,2,3,House,House,False,814,m2,False
2017933442,listing,/2-maidstone-street-mount-tarcoola-wa-6530-2017933442,500000,is-sold,Sold by private treaty 20 Jan 2023,20230120,2 Maidstone Street,MOUNT TARCOOLA,WA,6530,-28.797905,114.623024,4,2,2,House,House,False,923,m2,False
2017937505,listing,/2-lawley-street-spalding-wa-6530-2017937505,245000,is-sold,Sold by private treaty 17 Jan 2023,20230117,2 Lawley Street,SPALDING,WA,6530,-28.74057,114.627472,3,1,1,House,House,False,517,m2,False
2017941355,listing,/1-mcgragh-court-tarcoola-beach-wa-6530-2017941355,575000,is-sold,Sold by private treaty 01 Feb 2023,20230201,1 McGragh Court,TARCOOLA BEACH,WA,6530,-28.8110542,114.623863,3,2,6,House,House,False,809,m2,False
2018015154,listing,/19-erla-place-woorree-wa-6530-2018015154,720000,is-sold,Sold by private treaty 01 Feb 2023,20230201,19 Erla Place,WOORREE,WA,6530,-28.76208,114.654945,4,2,2,House,House,False,9804,m2,False
2018042899,listing,/176a-shenton-street-beachlands-wa-6530-2018042899,75000,is-sold,Sold by private treaty 29 Jan 2023,20230129,176A Shenton Street,BEACHLANDS,WA,6530,-28.78236,114.602783,,,,VacantLand,Vacant land,False,479,m2,False
2018049945,listing,/6-phillip-place-utakarra-wa-6530-2018049945,200000,is-sold,Sold by private treaty 18 Jan 2023,20230118,6 Phillip Place,UTAKARRA,WA,6530,-28.7795315,114.646545,3,1,2,House,House,False,0,m2,False
2018074608,listing,/3-colonen-street-wandina-wa-6530-2018074608,,is-sold,Sold by private treaty 18 Jan 2023,20230118,3 Colonen Street,WANDINA,WA,6530,-28.8154621,114.636337,4,2,2,House,House,False,673,m2,False
2018151435,listing,/9-pascoe-place-tarcoola-beach-wa-6530-2018151435,,is-sold,Sold by private treaty 02 Feb 2023,20230202,9 Pascoe Place,TARCOOLA BEACH,WA,6530,-28.813961,114.625809,3,1,1,House,House,False,0,m2,False
2018215257,listing,/4-pebble-view-sunset-beach-wa-6530-2018215257,605000,is-sold,Sold by private treaty 05 Feb 2023,20230205,4 Pebble View,SUNSET BEACH,WA,6530,-28.7168465,114.621284,5,3,2,House,House,False,599,m2,False
2018230631,listing,/10b-houston-street-spalding-wa-6530-2018230631,138000,is-sold,Sold by private treaty 01 Feb 2023,20230201,10B Houston Street,SPALDING,WA,6530,-28.7447128,114.632439,2,1,,Duplex,Duplex,False,0,m2,False
2018243423,listing,/38-waverley-street-mount-tarcoola-wa-6530-2018243423,1300000,is-sold,Sold by private treaty 19 Jan 2023,20230119,38 Waverley Street,MOUNT TARCOOLA,WA,6530,-28.7935524,114.619614,4,2,2,House,House,False,805,m2,False
2018257181,listing,/9-hill-creek-road-moresby-wa-6530-2018257181,475000,is-sold,Sold by private treaty 25 Jan 2023,20230125,9 Hill Creek Road,MORESBY,WA,6530,-28.7141743,114.667236,1,1,2,House,House,True,10001,m2,False
2018257534,listing,/14-elizabeth-street-geraldton-wa-6530-2018257534,160000,is-sold,Sold by private treaty 01 Feb 2023,20230201,14 Elizabeth Street,GERALDTON,WA,6530,-28.7807941,114.618851,2,1,,House,House,False,748,m2,False
2018348025,listing,/39-sail-boulevard-sunset-beach-wa-6530-2018348025,155000,is-sold,Sold by private treaty 24 Jan 2023,20230124,39 Sail Boulevard,SUNSET BEACH,WA,6530,-28.7168541,114.620743,,,,VacantLand,Vacant land,False,601,m2,False
2017023386,listing,/89-eastern-road-geraldton-wa-6530-2017023386,440000,is-sold,Sold by private treaty 09 Jan 2023,20230109,89 Eastern Road,GERALDTON,WA,6530,-28.777319,114.623581,5,2,2,House,House,False,2170,m2,False
2017737302,listing,/9-trigg-street-beresford-wa-6530-2017737302,420000,is-sold,Sold by private treaty 12 Jan 2023,20230112,9 Trigg Street,BERESFORD,WA,6530,-28.7505684,114.619591,3,1,1,House,House,False,705,m2,False
2017739151,listing,/3-duke-street-wonthella-wa-6530-2017739151,318000,is-sold,Sold by private treaty 05 Jan 2023,20230105,3 Duke Street,WONTHELLA,WA,6530,-28.7681446,114.62381,4,2,1,House,House,False,928,m2,False
2017905466,listing,/3-2-sardam-place-mahomets-flats-wa-6530-2017905466,218000,is-sold,Sold by private treaty 04 Jan 2023,20230104,3/2 Sardam Place,MAHOMETS FLATS,WA,6530,-28.7918262,114.610893,2,1,1,ApartmentUnitFlat,Apartment / Unit / Flat,False,0,m2,False
2017947108,listing,/8-26-johnston-street-geraldton-wa-6530-2017947108,295000,is-sold,Sold by private treaty 04 Jan 2023,20230104,8/26 Johnston Street,GERALDTON,WA,6530,-28.7782688,114.622421,2,1,2,House,House,False,282,m2,False
2017991524,listing,/16-joshua-way-karloo-wa-6530-2017991524,197000,is-sold,Sold by private treaty 04 Jan 2023,20230104,16 Joshua Way,KARLOO,WA,6530,-28.7911339,114.643021,3,1,2,House,House,False,802,m2,False
2018026789,listing,/4-albert-street-geraldton-wa-6530-2018026789,225000,is-sold,Sold by private treaty 11 Jan 2023,20230111,4 Albert Street,GERALDTON,WA,6530,-28.76947,114.620705,3,1,1,House,House,False,746,m2,False
2018054278,listing,/5-tartan-place-wandina-wa-6530-2018054278,590000,is-sold,Sold by private treaty 06 Jan 2023,20230106,5 Tartan Place,WANDINA,WA,6530,-28.8173656,114.632675,4,2,2,House,House,False,672,m2,False
2018078738,listing,/3-7-hadda-way-mahomets-flats-wa-6530-2018078738,180000,is-sold,Sold by private treaty 09 Jan 2023,20230109,3/7 Hadda Way,MAHOMETS FLATS,WA,6530,-28.7927742,114.61161,2,1,1,ApartmentUnitFlat,Apartment / Unit / Flat,False,75,m2,False
2018110039,listing,/4-letter-close-utakarra-wa-6530-2018110039,360000,is-sold,Sold by private treaty 11 Jan 2023,20230111,4 Letter Close,UTAKARRA,WA,6530,-28.7839661,114.652069,4,2,2,House,House,False,961,m2,False
2018118252,listing,/110-rifle-range-road-rangeway-wa-6530-2018118252,190000,is-sold,Sold by private treaty 11 Jan 2023,20230111,110 Rifle Range Road,RANGEWAY,WA,6530,-28.7907181,114.629517,3,1,,House,House,False,733,m2,False
2018134968,listing,/105-kenny-crescent-rangeway-wa-6530-2018134968,178000,is-sold,Sold by private treaty 10 Jan 2023,20230110,105 Kenny Crescent,RANGEWAY,WA,6530,-28.787344,114.630867,3,1,,House,House,False,0,m2,False
2018192826,listing,/9-hogan-street-spalding-wa-6530-2018192826,185000,is-sold,Sold by private treaty 11 Jan 2023,20230111,9 Hogan Street,SPALDING,WA,6530,-28.7343369,114.635017,3,1,1,House,House,False,809,m2,False
2018218072,listing,/11-colarmi-brace-wandina-wa-6530-2018218072,442000,is-sold,Sold by private treaty 16 Jan 2023,20230116,11 Colarmi Brace,WANDINA,WA,6530,-28.8130379,114.636528,4,2,2,House,House,False,627,m2,False
2018237884,listing,/15-waterwitch-outlook-wandina-wa-6530-2018237884,445000,is-sold,Sold by private treaty 12 Jan 2023,20230112,15 Waterwitch Outlook,WANDINA,WA,6530,-28.814249,114.637314,4,2,2,House,House,False,665,m2,False
2018255745,listing,/62-blencowe-road-rangeway-wa-6530-2018255745,,is-sold,Sold by private treaty 10 Jan 2023,20230110,62 Blencowe Road,RANGEWAY,WA,6530,-28.7847214,114.6356,3,1,,House,House,False,0,m2,False
2018255746,listing,/210-chapman-valley-road-waggrakine-wa-6530-2018255746,,is-sold,Sold by private treaty 10 Jan 2023,20230110,210 Chapman Valley Road,WAGGRAKINE,WA,6530,-28.7154942,114.647614,4,1,2,House,House,False,760,m2,False
2018257585,listing,/154-kempton-street-bluff-point-wa-6530-2018257585,1150000,is-sold,Sold by private treaty 06 Jan 2023,20230106,154 Kempton Street,BLUFF POINT,WA,6530,-28.7328053,114.62075,4,2,2,House,House,False,895,m2,False
2018277957,listing,/16-carter-street-rangeway-wa-6530-2018277957,130000,is-sold,Sold by private treaty 16 Jan 2023,20230116,16 Carter Street,RANGEWAY,WA,6530,-28.7795258,114.63208,3,1,1,House,House,False,853,m2,False
2018300819,listing,/139-gregory-street-beachlands-wa-6530-2018300819,435000,is-sold,Sold by private treaty 15 Jan 2023,20230115,139 Gregory Street,BEACHLANDS,WA,6530,-28.7840748,114.606743,3,1,2,House,House,False,1217,m2,False
2017556106,listing,/26-eastcott-way-tarcoola-beach-wa-6530-2017556106,355000,is-sold,Sold by private treaty 22 Dec 2022,20221222,26 Eastcott Way,TARCOOLA BEACH,WA,6530,-28.80427,114.621216,3,1,1,House,House,False,720,m2,False
2017632973,listing,/36524-brand-highway-mount-tarcoola-wa-6530-2017632973,315000,is-sold,Sold by private treaty 03 Jan 2023,20230103,36524 Brand Highway,MOUNT TARCOOLA,WA,6530,-28.8049965,114.622978,3,1,1,House,House,False,0,m2,False
2017804918,listing,/5-ada-wynd-wandina-wa-6530-2017804918,450000,is-sold,Sold by private treaty 21 Dec 2022,20221221,5 Ada Wynd,WANDINA,WA,6530,-28.8193,114.637337,4,2,2,House,House,False,748,m2,False
2017996769,listing,/121-durlacher-street-geraldton-wa-6530-2017996769,550000,is-sold,Sold by private treaty 21 Dec 2022,20221221,121 Durlacher Street,GERALDTON,WA,6530,-28.7774067,114.616066,4,4,4,ApartmentUnitFlat,Apartment / Unit / Flat,False,971,m2,False
2018023612,listing,/5-archdale-rise-wandina-wa-6530-2018023612,,is-sold,Sold by private treaty 21 Dec 2022,20221221,5 Archdale Rise,WANDINA,WA,6530,-28.8201122,114.63446,4,2,,House,House,False,754,m2,False
2018082178,listing,/215-first-street-wonthella-wa-6530-2018082178,230000,is-sold,Sold by private treaty 22 Dec 2022,20221222,215 First Street,WONTHELLA,WA,6530,-28.76038,114.626457,3,1,2,House,House,False,1012,m2,False
2018086589,listing,/227-first-street-wonthella-wa-6530-2018086589,310000,is-sold,Sold by private treaty 23 Dec 2022,20221223,227 First Street,WONTHELLA,WA,6530,-28.7604446,114.627663,3,1,1,House,House,False,1012,m2,False
2018107999,listing,/55-broome-street-spalding-wa-6530-2018107999,34000,is-sold,Sold by private treaty 28 Dec 2022,20221228,55 Broome Street,SPALDING,WA,6530,-28.738308,114.634735,,,,VacantLand,Vacant land,False,0,m2,False
2018156462,listing,/61-mark-street-beresford-wa-6530-2018156462,300000,is-sold,Sold by private treaty 26 Dec 2022,20221226,61 Mark Street,BERESFORD,WA,6530,-28.75765,114.624344,5,1,3,House,House,False,898,m2,False
2018166835,listing,/178-horwood-road-utakarra-wa-6530-2018166835,420000,is-sold,Sold by private treaty 31 Dec 2022,20221231,178 Horwood Road,UTAKARRA,WA,6530,-28.77958,114.665237,3,2,,House,House,False,0,m2,False
2018188871,listing,/1-veronica-court-strathalbyn-wa-6530-2018188871,600000,is-sold,Sold by private treaty 17 Dec 2022,20221217,1 Veronica Court,STRATHALBYN,WA,6530,-28.7554989,114.641769,4,2,3,House,House,False,2000,m2,False
2018193006,listing,/3-whitfield-street-beachlands-wa-6530-2018193006,350000,is-sold,Sold by private treaty 23 Dec 2022,20221223,3 whitfield street,BEACHLANDS,WA,6530,-28.78679,114.599968,3,1,2,House,House,False,765,m2,False
2018207632,listing,/76-eastern-road-geraldton-wa-6530-2018207632,382000,is-sold,Sold by private treaty 19 Dec 2022,20221219,76 Eastern Road,GERALDTON,WA,6530,-28.7766762,114.622047,4,1,3,House,House,False,768,m2,False
2018211282,listing,/5-sutherland-drive-mount-tarcoola-wa-6530-2018211282,345000,is-sold,Sold by private treaty 02 Jan 2023,20230102,5 Sutherland Drive,MOUNT TARCOOLA,WA,6530,-28.80316,114.632904,4,2,1,House,House,False,0,m2,False
2018223863,listing,/12-143-fitzgerald-street-geraldton-wa-6530-2018223863,126000,is-sold,Sold by private treaty 17 Dec 2022,20221217,12/143 Fitzgerald Street,GERALDTON,WA,6530,-28.783226,114.60804,1,1,,ApartmentUnitFlat,Apartment / Unit / Flat,False,0,m2,False
2018232609,listing,/4-27-stroud-street-beachlands-wa-6530-2018232609,,is-sold,Sold by private treaty 22 Dec 2022,20221222,4/27 Stroud Street,BEACHLANDS,WA,6530,-28.7842865,114.602196,3,2,2,House,House,False,0,m2,False
2018233207,listing,/37-clematis-crescent-utakarra-wa-6530-2018233207,215000,is-sold,Sold by private treaty 28 Dec 2022,20221228,37 Clematis Crescent,UTAKARRA,WA,6530,-28.7883625,114.636848,3,1,2,House,House,False,800,m2,False
2018241010,listing,/97-kenny-crescent-rangeway-wa-6530-2018241010,110000,is-sold,Sold by private treaty 20 Dec 2022,20221220,97 Kenny Crescent,RANGEWAY,WA,6530,-28.7874146,114.631607,3,1,,House,House,False,813,m2,False
2018249282,listing,/23-norman-street-mount-tarcoola-wa-6530-2018249282,385000,is-sold,Sold by private treaty 22 Dec 2022,20221222,23 Norman Street,MOUNT TARCOOLA,WA,6530,-28.803957,114.6246,4,2,2,House,House,False,0,m2,False
2018268292,listing,/3-brockagh-drive-utakarra-wa-6530-2018268292,275000,is-sold,Sold by private treaty 31 Dec 2022,20221231,3 Brockagh Drive,UTAKARRA,WA,6530,-28.7816772,114.6478,3,2,1,House,House,False,721,m2,False
2017908740,listing,/37-cooper-circuit-mount-tarcoola-wa-6530-2017908740,360000,is-sold,Sold by private treaty 09 Dec 2022,20221209,37 Cooper Circuit,MOUNT TARCOOLA,WA,6530,-28.793726,114.62191,3,1,1,House,House,False,585,m2,False
2017923227,listing,/29-alexander-street-utakarra-wa-6530-2017923227,249000,is-sold,Sold by private treaty 10 Dec 2022,20221210,29 Alexander Street,UTAKARRA,WA,6530,-28.7800922,114.646729,3,1,,House,House,False,809,m2,False
2017928444,listing,/9-blencowe-road-utakarra-wa-6530-2017928444,190000,is-sold,Sold by private treaty 12 Dec 2022,20221212,9 Blencowe Road,UTAKARRA,WA,6530,-28.7796059,114.636246,3,1,1,House,House,False,2100,m2,False
2017970155,listing,/30b-hakea-street-tarcoola-beach-wa-6530-2017970155,245000,is-sold,Sold by private treaty 15 Dec 2022,20221215,30B Hakea Street,TARCOOLA BEACH,WA,6530,-28.79739,114.618439,3,1,1,Duplex,Duplex,False,753,m2,False
2018000609,listing,/7-curtin-grove-mount-tarcoola-wa-6530-2018000609,355000,is-sold,Sold by private treaty 16 Dec 2022,20221216,7 Curtin Grove,MOUNT TARCOOLA,WA,6530,-28.8046074,114.632256,3,2,2,House,House,False,649,m2,False
2018056341,listing,/4-lucy-brace-wandina-wa-6530-2018056341,537500,is-sold,Sold by private treaty 12 Dec 2022,20221212,4 Lucy Brace,WANDINA,WA,6530,-28.8171616,114.6378,4,2,2,House,House,False,714,m2,False
2018086551,listing,/21-bennett-street-spalding-wa-6530-2018086551,270000,is-sold,Sold by private treaty 09 Dec 2022,20221209,21 Bennett Street,SPALDING,WA,6530,-28.7362633,114.6362,4,1,3,House,House,False,794,m2,False
2018086591,listing,/37-dorothy-street-geraldton-wa-6530-2018086591,260000,is-sold,Sold by private treaty 14 Dec 2022,20221214,37 Dorothy Street,GERALDTON,WA,6530,-28.7731438,114.621124,3,1,1,House,House,False,811,m2,False
2018145346,listing,/3-kane-street-mount-tarcoola-wa-6530-2018145346,280000,is-sold,Sold by private treaty 09 Dec 2022,20221209,3 Kane Street,MOUNT TARCOOLA,WA,6530,-28.8055134,114.628685,3,1,2,House,House,False,809,m2,False
2018149043,listing,/66-phelps-street-wonthella-wa-6530-2018149043,315000,is-sold,Sold by private treaty 15 Dec 2022,20221215,66 Phelps Street,WONTHELLA,WA,6530,-28.767355,114.624138,3,1,2,House,House,False,760,m2,False
2018156496,listing,/8-239-willcock-drive-mahomets-flats-wa-6530-2018156496,218000,is-sold,Sold by private treaty 13 Dec 2022,20221213,8/239 Willcock Drive,MAHOMETS FLATS,WA,6530,-28.7937241,114.614151,2,1,1,ApartmentUnitFlat,Apartment / Unit / Flat,False,228,m2,False
2018170984,listing,/11-francis-street-geraldton-wa-6530-2018170984,540000,is-sold,Sold by private treaty 13 Dec 2022,20221213,11 Francis Street,GERALDTON,WA,6530,-28.7775784,114.604141,4,2,,House,House,False,736,m2,False
2018216233,listing,/4-137-george-road-beresford-wa-6530-2018216233,122000,is-sold,Sold by private treaty 16 Dec 2022,20221216,4/137 George Road,BERESFORD,WA,6530,-28.7635727,114.618874,2,1,1,ApartmentUnitFlat,Apartment / Unit / Flat,False,0,m2,False
2018230407,listing,/14-wisteria-parade-moresby-wa-6530-2018230407,,is-sold,Sold by private treaty 16 Dec 2022,20221216,14 Wisteria Parade,MORESBY,WA,6530,-28.73749,114.661621,4,2,2,House,House,False,2028,m2,False
2018232111,listing,/6-hary-close-utakarra-wa-6530-2018232111,365000,is-sold,Sold by private treaty 13 Dec 2022,20221213,6 Hary Close,UTAKARRA,WA,6530,-28.7844524,114.65197,4,2,2,House,House,False,828,m2,False
2018235820,listing,/6-mills-road-moresby-wa-6530-2018235820,615000,is-sold,Sold by private treaty 09 Dec 2022,20221209,6 Mills Road,MORESBY,WA,6530,-28.72405,114.668663,2,1,3,House,House,False,0,m2,False
2018244176,listing,/65-glendinning-road-tarcoola-beach-wa-6530-2018244176,,is-sold,Sold by private treaty 12 Dec 2022,20221212,65 Glendinning Road,TARCOOLA BEACH,WA,6530,-28.81316,114.624,4,2,3,House,House,False,925,m2,False
2018250199,listing,/1-thornhill-lane-beachlands-wa-6530-2018250199,480000,is-sold,Sold by private treaty 15 Dec 2022,20221215,1 Thornhill Lane,BEACHLANDS,WA,6530,-28.7840271,114.599922,4,2,2,House,House,False,434,m2,False
2018264821,listing,/2-30-simpson-street-beresford-wa-6530-2018264821,240000,is-sold,Sold by private treaty 13 Dec 2022,20221213,2/30 Simpson Street,BERESFORD,WA,6530,-28.7616634,114.618713,2,1,1,House,House,False,149,m2,False
2017520200,listing,/119-glendinning-road-tarcoola-beach-wa-6530-2017520200,740000,is-sold,Sold by private treaty 02 Dec 2022,20221202,119 Glendinning Road,TARCOOLA BEACH,WA,6530,-28.8195152,114.625648,4,2,9,House,House,False,822,m2,False
2017641088,listing,/27-half-moon-drive-waggrakine-wa-6530-2017641088,60000,is-sold,Sold by private treaty 03 Dec 2022,20221203,27 Half Moon Drive,WAGGRAKINE,WA,6530,-28.7122536,114.649658,,,,VacantLand,Vacant land,False,833,m2,False
2017940142,listing,/26-hill-creek-road-moresby-wa-6530-2017940142,340000,is-sold,Sold by private treaty 02 Dec 2022,20221202,26 Hill Creek Road,MORESBY,WA,6530,-28.7167339,114.668114,,,,VacantLand,Vacant land,False,0,m2,False
2018075879,listing,/8-wandoo-street-rangeway-wa-6530-2018075879,270000,is-sold,Sold by private treaty 06 Dec 2022,20221206,8 Wandoo Street,RANGEWAY,WA,6530,-28.781456,114.631859,3,1,3,House,House,False,805,m2,False
2018084470,listing,/4-bofey-close-utakarra-wa-6530-2018084470,360000,is-sold,Sold by private treaty 07 Dec 2022,20221207,4 Bofey Close,UTAKARRA,WA,6530,-28.7831745,114.651741,4,2,2,House,House,False,748,m2,False
2018098978,listing,/30-mabel-street-beresford-wa-6530-2018098978,465000,is-sold,Sold by private treaty 02 Dec 2022,20221202,30 Mabel Street,BERESFORD,WA,6530,-28.7508869,114.622025,3,2,2,House,House,False,0,m2,False
2018102155,listing,/4-3-sardam-place-mahomets-flats-wa-6530-2018102155,230000,is-sold,Sold by private treaty 05 Dec 2022,20221205,4/3 Sardam Place,MAHOMETS FLATS,WA,6530,-28.7921944,114.611633,2,1,1,ApartmentUnitFlat,Apartment / Unit / Flat,False,0,m2,False
2018112204,listing,/35b-harrison-street-bluff-point-wa-6530-2018112204,306000,is-sold,Sold by private treaty 08 Dec 2022,20221208,35b Harrison Street,BLUFF POINT,WA,6530,-28.73544,114.623291,3,1,2,Duplex,Duplex,False,398,m2,False
2018130188,listing,/17-weeloo-road-waggrakine-wa-6530-2018130188,395000,is-sold,Sold by private treaty 02 Dec 2022,20221202,17 Weeloo Road,WAGGRAKINE,WA,6530,-28.72152,114.643921,4,2,2,House,House,False,800,m2,False
2018132766,listing,/15-141-augustus-street-geraldton-wa-6530-2018132766,105000,is-sold,Sold by private treaty 07 Dec 2022,20221207,15/141 Augustus Street,GERALDTON,WA,6530,-28.7799625,114.604836,2,1,1,ApartmentUnitFlat,Apartment / Unit / Flat,False,62,m2,False
2018136749,listing,/28-pearson-street-mount-tarcoola-wa-6530-2018136749,390000,is-sold,Sold by private treaty 08 Dec 2022,20221208,28 Pearson Street,MOUNT TARCOOLA,WA,6530,-28.8019142,114.626785,4,2,2,House,House,False,804,m2,False
2018148626,listing,/5-driftwood-road-sunset-beach-wa-6530-2018148626,83000,is-sold,Sold by private treaty 07 Dec 2022,20221207,5 Driftwood Road,SUNSET BEACH,WA,6530,-28.7163658,114.622559,,,,VacantLand,Vacant land,False,432,m2,False
2018148724,listing,/9-cobia-street-sunset-beach-wa-6530-2018148724,108000,is-sold,Sold by private treaty 07 Dec 2022,20221207,9 Cobia Street,SUNSET BEACH,WA,6530,-28.7163658,114.622559,,,,VacantLand,Vacant land,False,570,m2,False
2018162729,listing,/19-trant-road-moresby-wa-6530-2018162729,700000,is-sold,Sold by private treaty 05 Dec 2022,20221205,19 Trant Road,MORESBY,WA,6530,-28.72978,114.668396,4,2,2,House,House,True,10000,m2,False
2018178857,listing,/33-10-caprice-road-geraldton-wa-6530-2018178857,280000,is-sold,Sold by private treaty 05 Dec 2022,20221205,33/10 Caprice Road,GERALDTON,WA,6530,-28.7761211,114.618523,2,1,,House,House,False,0,m2,False
2018204046,listing,/8-232-willcock-drive-mahomets-flats-wa-6530-2018204046,205000,is-sold,Sold by private treaty 05 Dec 2022,20221205,8/232 Willcock Drive,MAHOMETS FLATS,WA,6530,-28.79215,114.612747,2,1,1,House,House,False,0,m2,False
2018208385,listing,/10-mugana-crescent-waggrakine-wa-6530-2018208385,390000,is-sold,Sold by private treaty 07 Dec 2022,20221207,10 Mugana Crescent,WAGGRAKINE,WA,6530,-28.7192631,114.64798,4,2,2,House,House,False,739,m2,False
2018225438,listing,/3b-mallee-court-mount-tarcoola-wa-6530-2018225438,335000,is-sold,Sold by private treaty 02 Dec 2022,20221202,3B Mallee Court,MOUNT TARCOOLA,WA,6530,-28.7987976,114.628685,3,1,1,House,House,False,0,m2,False
2018225461,listing,/25-oceanside-drive-wandina-wa-6530-2018225461,545000,is-sold,Sold by private treaty 03 Dec 2022,20221203,25 Oceanside Drive,WANDINA,WA,6530,-28.82612,114.632515,5,2,2,House,House,False,817,m2,False
2018237499,listing,/2-12-johnston-street-geraldton-wa-6530-2018237499,122500,is-sold,Sold by private treaty 08 Dec 2022,20221208,2/12 Johnston Street,GERALDTON,WA,6530,-28.7782478,114.6211,2,1,,ApartmentUnitFlat,Apartment / Unit / Flat,False,0,m2,False
2017692061,listing,/12-wahn-avenue-waggrakine-wa-6530-2017692061,455000,is-sold,Sold by private treaty 30 Nov 2022,20221130,12 Wahn Avenue,WAGGRAKINE,WA,6530,-28.720932,114.643,4,2,2,House,House,False,710,m2,False
2017768646,listing,/11-seacrest-street-tarcoola-beach-wa-6530-2017768646,390000,is-sold,Sold by private treaty 28 Nov 2022,20221128,11 Seacrest Street,TARCOOLA BEACH,WA,6530,-28.81476,114.625092,4,1,,House,House,False,769,m2,False
2017924097,listing,/106-david-road-waggrakine-wa-6530-2017924097,460000,is-sold,Sold by private treaty 28 Nov 2022,20221128,106 David Road,WAGGRAKINE,WA,6530,-28.7070465,114.6455,3,1,2,House,House,True,4.14,ha,False
2017949173,listing,/14-crowtherton-street-bluff-point-wa-6530-2017949173,900000,is-sold,Sold by private treaty 30 Nov 2022,20221130,14 Crowtherton Street,BLUFF POINT,WA,6530,-28.7312775,114.622581,4,2,2,House,House,False,2026,m2,False
2018008149,listing,/17-forden-street-mount-tarcoola-wa-6530-2018008149,280000,is-sold,Sold by private treaty 25 Nov 2022,20221125,17 Forden Street,MOUNT TARCOOLA,WA,6530,-28.8032722,114.629242,3,1,1,House,House,False,936,m2,False
2018008911,listing,/159-gregory-street-beachlands-wa-6530-2018008911,350000,is-sold,Sold by private treaty 29 Nov 2022,20221129,159 Gregory Street,BEACHLANDS,WA,6530,-28.7856865,114.606789,3,1,2,House,House,False,888,m2,False
2018021206,listing,/10-gilmore-street-mount-tarcoola-wa-6530-2018021206,317000,is-sold,Sold by private treaty 26 Nov 2022,20221126,10 Gilmore Street,MOUNT TARCOOLA,WA,6530,-28.8061028,114.624969,3,1,2,House,House,False,0,m2,False
2018070783,listing,/35-diosma-street-rangeway-wa-6530-2018070783,170000,is-sold,Sold by private treaty 29 Nov 2022,20221129,35 Diosma Street,RANGEWAY,WA,6530,-28.7880516,114.629196,4,1,2,House,House,False,865,m2,False
2018079203,listing,/6-brittania-parade-wandina-wa-6530-2018079203,517000,is-sold,Sold by private treaty 30 Nov 2022,20221130,6 Brittania Parade,WANDINA,WA,6530,-28.819685,114.63546,4,2,2,House,House,False,785,m2,False
2018093599,listing,/158-kempton-street-bluff-point-wa-6530-2018093599,950000,is-sold,Sold by private treaty 26 Nov 2022,20221126,158 Kempton Street,BLUFF POINT,WA,6530,-28.7319965,114.620636,4,2,4,House,House,False,913,m2,False
2018098948,listing,/1-norman-street-mount-tarcoola-wa-6530-2018098948,530000,is-sold,Sold by private treaty 30 Nov 2022,20221130,1 Norman Street,MOUNT TARCOOLA,WA,6530,-28.8016968,114.623489,5,2,2,House,House,False,950,m2,False
2018102545,listing,/32-oceanside-drive-wandina-wa-6530-2018102545,415000,is-sold,Sold by private treaty 28 Nov 2022,20221128,32 Oceanside Drive,WANDINA,WA,6530,-28.8251743,114.632439,4,2,2,House,House,False,804,m2,False
2018151871,listing,/8-hood-street-wandina-wa-6530-2018151871,390000,is-sold,Sold by private treaty 28 Nov 2022,20221128,8 Hood Street,WANDINA,WA,6530,-28.8086586,114.632492,4,2,4,House,House,False,740,m2,False
2018158209,listing,/17-lawley-street-spalding-wa-6530-2018158209,199000,is-sold,Sold by private treaty 29 Nov 2022,20221129,17 Lawley Street,SPALDING,WA,6530,-28.7390327,114.627617,3,1,2,House,House,False,810,m2,False
2018174841,listing,/148-fitzgerald-street-beachlands-wa-6530-2018174841,260000,is-sold,Sold by private treaty 25 Nov 2022,20221125,148 Fitzgerald Street,BEACHLANDS,WA,6530,-28.7836018,114.607239,,,1,VacantLand,Vacant land,False,699,m2,False
2018177710,listing,/59-dorothy-street-geraldton-wa-6530-2018177710,285000,is-sold,Sold by private treaty 30 Nov 2022,20221130,59 Dorothy Street,GERALDTON,WA,6530,-28.77502,114.622238,3,1,1,House,House,False,809,m2,False
2018178493,listing,/61c-harrison-street-bluff-point-wa-6530-2018178493,45000,is-sold,Sold by private treaty 01 Dec 2022,20221201,61C Harrison Street,BLUFF POINT,WA,6530,-28.7328224,114.623138,,,2,VacantLand,Vacant land,False,400,m2,False
2018184650,listing,/7-macey-court-mount-tarcoola-wa-6530-2018184650,340000,is-sold,Sold by private treaty 28 Nov 2022,20221128,7 Macey Court,MOUNT TARCOOLA,WA,6530,-28.7957859,114.6278,4,1,1,House,House,False,717,m2,False
2018218418,listing,/40-bosuns-crescent-west-end-wa-6530-2018218418,195000,is-sold,Sold by private treaty 02 Dec 2022,20221202,40 Bosuns Crescent,WEST END,WA,6530,-28.7810478,114.580376,2,1,,House,House,False,0,m2,False
2018222879,listing,/12-7-forrest-street-geraldton-wa-6530-2018222879,810000,is-sold,Sold by private treaty 27 Nov 2022,20221127,12/7 Forrest Street,GERALDTON,WA,6530,-28.76913,114.611061,2,2,2,ApartmentUnitFlat,Apartment / Unit / Flat,False,0,m2,False
2017298925,listing,/8-10-cunningham-street-west-end-wa-6530-2017298925,370000,is-sold,Sold by private treaty 21 Nov 2022,20221121,8/10 Cunningham Street,WEST END,WA,6530,-28.778923,114.601822,3,1,2,ApartmentUnitFlat,Apartment / Unit / Flat,False,340,m2,False
2017630981,listing,/71a-71b-forrest-street-geraldton-wa-6530-2017630981,,is-sold,Sold by private treaty 18 Nov 2022,20221118,71A & 71B Forrest Street,GERALDTON,WA,6530,-28.7715454,114.613861,4,2,,House,House,False,0,m2,False
2017862341,listing,/211-sixth-street-wonthella-wa-6530-2017862341,900000,is-sold,Sold by private treaty 21 Nov 2022,20221121,211 Sixth Street,WONTHELLA,WA,6530,-28.76574,114.626038,10,10,,House,House,False,2023,m2,False
2017863098,listing,/231a-fifth-street-wonthella-wa-6530-2017863098,177000,is-sold,Sold by private treaty 25 Nov 2022,20221125,231A Fifth Street,WONTHELLA,WA,6530,-28.7645988,114.628235,2,1,,House,House,False,562,m2,False
2017879034,listing,/63-brockagh-drive-utakarra-wa-6530-2017879034,335000,is-sold,Sold by private treaty 22 Nov 2022,20221122,63 Brockagh Drive,UTAKARRA,WA,6530,-28.7845631,114.649422,4,2,2,House,House,False,800,m2,False
2017894340,listing,/7-o-connor-street-bluff-point-wa-6530-2017894340,435000,is-sold,Sold by private treaty 18 Nov 2022,20221118,7 O'Connor Street,BLUFF POINT,WA,6530,-28.7329941,114.62442,3,2,1,House,House,False,822,m2,False
2017949535,listing,/69-assen-street-utakarra-wa-6530-2017949535,240000,is-sold,Sold by private treaty 25 Nov 2022,20221125,69 Assen Street,UTAKARRA,WA,6530,-28.7888241,114.64019,3,1,2,House,House,False,800,m2,False
2018006287,listing,/15-donegal-street-utakarra-wa-6530-2018006287,399000,is-sold,Sold by private treaty 22 Nov 2022,20221122,15 Donegal Street,UTAKARRA,WA,6530,-28.7832355,114.649117,4,2,2,House,House,False,800,m2,False
2018010861,listing,/8-shepheard-close-mount-tarcoola-wa-6530-2018010861,425000,is-sold,Sold by private treaty 21 Nov 2022,20221121,8 Shepheard Close,MOUNT TARCOOLA,WA,6530,-28.7911777,114.619987,4,2,2,House,House,False,647,m2,False
2018050321,listing,/239-sixth-st-wonthella-wa-6530-2018050321,287000,is-sold,Sold by private treaty 20 Nov 2022,20221120,239 Sixth St,WONTHELLA,WA,6530,-28.7658157,114.629005,2,1,3,House,House,False,1012,m2,False
2018101855,listing,/134-fitzgerald-street-beachlands-wa-6530-2018101855,335000,is-sold,Sold by private treaty 23 Nov 2022,20221123,134 Fitzgerald Street,BEACHLANDS,WA,6530,-28.7825165,114.6073,3,2,1,House,House,False,618,m2,False
2018108143,listing,/15-curtin-grove-mount-tarcoola-wa-6530-2018108143,343000,is-sold,Sold by private treaty 21 Nov 2022,20221121,15 Curtin Grove,MOUNT TARCOOLA,WA,6530,-28.8052654,114.632164,4,1,1,House,House,False,600,m2,False
2018114508,listing,/4-erla-place-woorree-wa-6530-2018114508,432000,is-sold,Sold by private treaty 21 Nov 2022,20221121,4 Erla Place,WOORREE,WA,6530,-28.76661,114.656281,3,2,2,House,House,True,1.01,ha,False
2018130383,listing,/57-tallarook-way-waggrakine-wa-6530-2018130383,405000,is-sold,Sold by private treaty 24 Nov 2022,20221124,57 Tallarook Way,WAGGRAKINE,WA,6530,-28.7177925,114.647423,4,2,4,House,House,False,967,m2,False
2018146585,listing,/13-james-street-geraldton-wa-6530-2018146585,310000,is-sold,Sold by private treaty 22 Nov 2022,20221122,13 James Street,GERALDTON,WA,6530,-28.7775955,114.621376,3,1,2,House,House,False,655,m2,False
2018152441,listing,/8-cook-rise-mount-tarcoola-wa-6530-2018152441,129000,is-sold,Sold by private treaty 24 Nov 2022,20221124,8 Cook Rise,MOUNT TARCOOLA,WA,6530,-28.80876,114.627731,,,,VacantLand,Vacant land,False,701,m2,False
2018166501,listing,/3-125-railway-street-bluff-point-wa-6530-2018166501,145000,is-sold,Sold by private treaty 23 Nov 2022,20221123,3/125 Railway Street,BLUFF POINT,WA,6530,-28.7361069,114.626411,2,1,,ApartmentUnitFlat,Apartment / Unit / Flat,False,0,m2,False
2018187494,listing,/45-francis-street-beachlands-wa-6530-2018187494,560000,is-sold,Sold by private treaty 19 Nov 2022,20221119,45 Francis Street,BEACHLANDS,WA,6530,-28.7800236,114.604515,3,1,2,House,House,False,733,m2,False
2018195952,listing,/33-castlefin-road-utakarra-wa-6530-2018195952,40000,is-sold,Sold by private treaty 22 Nov 2022,20221122,33 Castlefin Road,UTAKARRA,WA,6530,-28.7822361,114.650963,,,,VacantLand,Vacant land,False,800,m2,False
2018208276,listing,/234a-second-street-wonthella-wa-6530-2018208276,260000,is-sold,Sold by private treaty 24 Nov 2022,20221124,234A Second Street,WONTHELLA,WA,6530,-28.76206,114.6287,3,1,,House,House,False,441,m2,False
2016543924,listing,/158-chapman-valley-road-waggrakine-wa-6530-2016543924,55000,is-sold,Sold by private treaty 15 Nov 2022,20221115,158 Chapman Valley Road,WAGGRAKINE,WA,6530,-28.7172985,114.642754,,,,VacantLand,Vacant land,False,763,m2,False
2017770213,listing,/1-28-seaview-boulevard-wandina-wa-6530-2017770213,,is-sold,Sold by private treaty 14 Nov 2022,20221114,1/28 Seaview Boulevard,WANDINA,WA,6530,-28.8221,114.629158,3,2,1,House,House,False,522,m2,False
2017795146,listing,/26-castlefin-road-utakarra-wa-6530-2017795146,335000,is-sold,Sold by private treaty 18 Nov 2022,20221118,26 Castlefin Road,UTAKARRA,WA,6530,-28.782444,114.651436,4,2,2,House,House,False,783,m2,False
2017827857,listing,/112b-moloney-street-utakarra-wa-6530-2017827857,294000,is-sold,Sold by private treaty 14 Nov 2022,20221114,112B Moloney Street,UTAKARRA,WA,6530,-28.7847271,114.647713,3,2,2,House,House,False,551,m2,False
2017910421,listing,/21-bennett-street-spalding-wa-6530-2017910421,,is-sold,Sold by private treaty 15 Nov 2022,20221115,21 Bennett Street,SPALDING,WA,6530,-28.7362633,114.6362,4,1,3,House,House,False,794,m2,False
2017924340,listing,/356-durlacher-street-mount-tarcoola-wa-6530-2017924340,395000,is-sold,Sold by private treaty 16 Nov 2022,20221116,356 Durlacher Street,MOUNT TARCOOLA,WA,6530,-28.7925663,114.6246,4,2,4,House,House,False,700,m2,False
2017949133,listing,/1-37a-yarraman-road-waggrakine-wa-6530-2017949133,360000,is-sold,Sold by private treaty 14 Nov 2022,20221114,1/37A Yarraman Road,WAGGRAKINE,WA,6530,-28.72232,114.635834,3,2,2,House,House,False,363,m2,False
2017949167,listing,/2-37b-yarraman-road-waggrakine-wa-6530-2017949167,360000,is-sold,Sold by private treaty 14 Nov 2022,20221114,2/37B Yarraman Road,WAGGRAKINE,WA,6530,-28.72232,114.635834,3,2,2,House,House,False,343,m2,False
2017958728,listing,/6-tiltili-rise-moresby-wa-6530-2017958728,440000,is-sold,Sold by private treaty 14 Nov 2022,20221114,6 Tiltili Rise,MORESBY,WA,6530,-28.71138,114.664032,3,1,2,House,House,True,1.05,ha,False
2017959946,listing,/30-waldeck-street-geraldton-wa-6530-2017959946,365000,is-sold,Sold by private treaty 14 Nov 2022,20221114,30 Waldeck Street,GERALDTON,WA,6530,-28.7769337,114.619171,3,2,2,House,House,False,1285,m2,False
2017967344,listing,/18-seastar-cove-sunset-beach-wa-6530-2017967344,176000,is-sold,Sold by private treaty 15 Nov 2022,20221115,18 Seastar Cove,SUNSET BEACH,WA,6530,-28.7176132,114.620308,,,,VacantLand,Vacant land,False,653,m2,False
2017981927,listing,/15-nagle-close-mount-tarcoola-wa-6530-2017981927,415000,is-sold,Sold by private treaty 16 Nov 2022,20221116,15 Nagle Close,MOUNT TARCOOLA,WA,6530,-28.7920723,114.621994,4,2,2,House,House,False,585,m2,False
2017984579,listing,/28-rolland-drive-mount-tarcoola-wa-6530-2017984579,401000,is-sold,Sold by private treaty 14 Nov 2022,20221114,28 Rolland Drive,MOUNT TARCOOLA,WA,6530,-28.8022423,114.632584,4,2,2,House,House,False,914,m2,False
2018014754,listing,/10-3-sanford-street-geraldton-wa-6530-2018014754,420000,is-sold,Sold by private treaty 17 Nov 2022,20221117,10/3 Sanford Street,GERALDTON,WA,6530,-28.7718353,114.615089,3,2,2,ApartmentUnitFlat,Apartment / Unit / Flat,False,0,m2,False
2018043443,listing,/1-nerrel-street-waggrakine-wa-6530-2018043443,276000,is-sold,Sold by private treaty 18 Nov 2022,20221118,1 Nerrel Street,WAGGRAKINE,WA,6530,-28.722683,114.632721,3,1,2,House,House,False,856,m2,False
2018095155,listing,/5-lockyer-road-tarcoola-beach-wa-6530-2018095155,,is-sold,Sold by private treaty 18 Nov 2022,20221118,5 Lockyer Road,TARCOOLA BEACH,WA,6530,-28.8092079,114.624138,3,1,1,House,House,False,842,m2,False
2018099692,listing,/6-forden-street-mount-tarcoola-wa-6530-2018099692,315000,is-sold,Sold by private treaty 17 Nov 2022,20221117,6 Forden Street,MOUNT TARCOOLA,WA,6530,-28.8046513,114.628731,3,1,1,House,House,False,853,m2,False
2018120605,listing,/11-acacia-street-mount-tarcoola-wa-6530-2018120605,315000,is-sold,Sold by private treaty 16 Nov 2022,20221116,11 Acacia Street,MOUNT TARCOOLA,WA,6530,-28.7990685,114.628036,3,1,,House,House,False,753,m2,False
2018131189,listing,/28-moorings-loop-sunset-beach-wa-6530-2018131189,465000,is-sold,Sold by private treaty 17 Nov 2022,20221117,28 Moorings Loop,SUNSET BEACH,WA,6530,-28.716383,114.625458,4,2,2,House,House,False,581,m2,False
2018159345,listing,/40-felicia-street-rangeway-wa-6530-2018159345,38000,is-sold,Sold by private treaty 11 Nov 2022,20221111,40 Felicia Street,RANGEWAY,WA,6530,-28.7892742,114.628273,,,,VacantLand,Vacant land,False,971,m2,False
2017369717,listing,/lot-14-horwood-road-woorree-wa-6530-2017369717,480000,is-sold,Sold by private treaty 10 Nov 2022,20221110,Lot 14 Horwood Road,WOORREE,WA,6530,-28.7772942,114.6494,,,,VacantLand,Vacant land,True,7.02,ha,False
2017476426,listing,/7-30-tuart-street-rangeway-wa-6530-2017476426,130000,is-sold,Sold by private treaty 09 Nov 2022,20221109,7/30 Tuart Street,RANGEWAY,WA,6530,-28.7843342,114.635178,2,1,1,ApartmentUnitFlat,Apartment / Unit / Flat,False,157,m2,False
2017690692,listing,/18-archer-street-utakarra-wa-6530-2017690692,220000,is-sold,Sold by private treaty 11 Nov 2022,20221111,18 Archer Street,UTAKARRA,WA,6530,-28.7841721,114.637779,3,1,1,House,House,False,804,m2,False
2017704491,listing,/23-castlefin-road-utakarra-wa-6530-2017704491,340000,is-sold,Sold by private treaty 07 Nov 2022,20221107,23 Castlefin Road,UTAKARRA,WA,6530,-28.7832336,114.651,4,2,2,House,House,False,750,m2,False
2017823165,listing,/229a-first-street-wonthella-wa-6530-2017823165,220000,is-sold,Sold by private treaty 07 Nov 2022,20221107,229A First Street,WONTHELLA,WA,6530,-28.76032,114.627907,3,1,1,House,House,False,721,m2,False
2017823206,listing,/43a-simpson-street-beresford-wa-6530-2017823206,165000,is-sold,Sold by private treaty 10 Nov 2022,20221110,43A Simpson Street,BERESFORD,WA,6530,-28.7604752,114.618011,2,1,,ApartmentUnitFlat,Apartment / Unit / Flat,False,0,m2,False
2017867459,listing,/54-seaview-boulevard-wandina-wa-6530-2017867459,385000,is-sold,Sold by private treaty 08 Nov 2022,20221108,54 Seaview Boulevard,WANDINA,WA,6530,-28.8241386,114.630959,3,1,,House,House,False,820,m2,False
2017875855,listing,/87a-brede-street-geraldton-wa-6530-2017875855,,is-sold,Sold by private treaty 07 Nov 2022,20221107,87A Brede Street,GERALDTON,WA,6530,-28.77766,114.619064,3,1,,House,House,False,442,m2,False
2017937432,listing,/27-conus-way-sunset-beach-wa-6530-2017937432,480000,is-sold,Sold by private treaty 08 Nov 2022,20221108,27 Conus Way,SUNSET BEACH,WA,6530,-28.7206745,114.623672,3,2,2,House,House,False,827,m2,False
2017940456,listing,/4-pearson-street-mount-tarcoola-wa-6530-2017940456,395000,is-sold,Sold by private treaty 04 Nov 2022,20221104,4 Pearson Street,MOUNT TARCOOLA,WA,6530,-28.8041344,114.626549,4,1,1,House,House,False,809,m2,False
2017951880,listing,/209-chapman-valley-road-waggrakine-wa-6530-2017951880,330000,is-sold,Sold by private treaty 04 Nov 2022,20221104,209 Chapman Valley Road,WAGGRAKINE,WA,6530,-28.7151833,114.647011,4,2,2,House,House,False,781,m2,False
2017990486,listing,/13-bronzewing-turn-wandina-wa-6530-2017990486,385000,is-sold,Sold by private treaty 11 Nov 2022,20221111,13 Bronzewing Turn,WANDINA,WA,6530,-28.8068867,114.632164,4,2,2,House,House,False,598,m2,False
2018049175,listing,/64-bellimos-drive-wandina-wa-6530-2018049175,455000,is-sold,Sold by private treaty 08 Nov 2022,20221108,64 Bellimos Drive,WANDINA,WA,6530,-28.8262711,114.638008,4,2,2,House,House,False,848,m2,False
2018058209,listing,/24-ego-creek-loop-waggrakine-wa-6530-2018058209,387500,is-sold,Sold by private treaty 08 Nov 2022,20221108,24 Ego Creek Loop,WAGGRAKINE,WA,6530,-28.7136974,114.653481,4,2,2,House,House,False,700,m2,False
2018063033,listing,/36-bonamia-road-utakarra-wa-6530-2018063033,220000,is-sold,Sold by private treaty 09 Nov 2022,20221109,36 Bonamia Road,UTAKARRA,WA,6530,-28.7851334,114.6381,3,1,1,House,House,False,851,m2,False
2018066018,listing,/69-tallarook-way-waggrakine-wa-6530-2018066018,330000,is-sold,Sold by private treaty 05 Nov 2022,20221105,69 Tallarook Way,WAGGRAKINE,WA,6530,-28.7185936,114.646591,4,2,2,House,House,False,822,m2,False
2018073477,listing,/8-mallee-court-mount-tarcoola-wa-6530-2018073477,,is-sold,Sold by private treaty 03 Nov 2022,20221103,8 Mallee Court,MOUNT TARCOOLA,WA,6530,-28.7982216,114.62822,4,2,2,House,House,False,0,m2,False
2018100407,listing,/28-jenark-road-woorree-wa-6530-2018100407,465000,is-sold,Sold by private treaty 10 Nov 2022,20221110,28 Jenark Road,WOORREE,WA,6530,-28.7677879,114.652115,4,1,2,House,House,False,8515,m2,False
2018116602,listing,/9-garnet-brace-wandina-wa-6530-2018116602,400000,is-sold,Sold by private treaty 08 Nov 2022,20221108,9 Garnet Brace,WANDINA,WA,6530,-28.8169231,114.63694,4,2,2,House,House,False,672,m2,False
2018148572,listing,/1-ulmus-street-rangeway-wa-6530-2018148572,,is-sold,Sold by private treaty 08 Nov 2022,20221108,1 Ulmus Street,RANGEWAY,WA,6530,-28.7899513,114.626877,4,2,1,House,House,False,761,m2,False
2016835733,listing,/55-298-chapman-road-beresford-wa-6530-2016835733,150000,is-sold,Sold by private treaty 02 Nov 2022,20221102,55/298 Chapman Road,BERESFORD,WA,6530,-28.7496986,114.620186,1,1,1,Villa,Villa,False,72,m2,False
2017627807,listing,/25-quarry-street-geraldton-wa-6530-2017627807,160000,is-sold,Sold by private treaty 27 Oct 2022,20221027,25 Quarry Street,GERALDTON,WA,6530,-28.7715054,114.619453,2,1,1,House,House,False,670,m2,False
2017766167,listing,/14-mark-way-mount-tarcoola-wa-6530-2017766167,335000,is-sold,Sold by private treaty 28 Oct 2022,20221028,14 Mark Way,MOUNT TARCOOLA,WA,6530,-28.8062916,114.627525,4,2,4,House,House,False,811,m2,False
2017810103,listing,/15-watterson-road-tarcoola-beach-wa-6530-2017810103,,is-sold,Sold by private treaty 27 Oct 2022,20221027,15 Watterson Road,TARCOOLA BEACH,WA,6530,-28.813118,114.625648,3,1,,House,House,False,0,m2,False
2017832582,listing,/9-3-sardam-place-mahomets-flats-wa-6530-2017832582,190000,is-sold,Sold by private treaty 28 Oct 2022,20221028,9/3 Sardam Place,MAHOMETS FLATS,WA,6530,-28.7921944,114.611633,3,1,1,House,House,False,81,m2,False
2017893800,listing,/65-blencowe-road-utakarra-wa-6530-2017893800,288000,is-sold,Sold by private treaty 25 Oct 2022,20221025,65 Blencowe Road,UTAKARRA,WA,6530,-28.7848969,114.636131,4,2,3,House,House,False,801,m2,False
2017926365,listing,/115-francis-street-beachlands-wa-6530-2017926365,245000,is-sold,Sold by private treaty 28 Oct 2022,20221028,115 Francis Street,BEACHLANDS,WA,6530,-28.78606,114.605072,3,1,1,House,House,False,0,m2,False
2017944061,listing,/12-harrison-street-bluff-point-wa-6530-2017944061,429000,is-sold,Sold by private treaty 26 Oct 2022,20221026,12 Harrison Street,BLUFF POINT,WA,6530,-28.7381344,114.623207,4,1,,House,House,False,0,m2,False
2017982438,listing,/63-whitfield-street-beachlands-wa-6530-2017982438,140000,is-sold,Sold by private treaty 02 Nov 2022,20221102,63 Whitfield Street,BEACHLANDS,WA,6530,-28.7862988,114.606041,2,1,,House,House,False,728,m2,False
2017999347,listing,/37-mark-street-beresford-wa-6530-2017999347,424000,is-sold,Sold by private treaty 24 Oct 2022,20221024,37 Mark Street,BERESFORD,WA,6530,-28.7578278,114.620888,4,1,1,House,House,False,813,m2,False
2018005249,listing,/25-eastcott-way-tarcoola-beach-wa-6530-2018005249,425000,is-sold,Sold by private treaty 31 Oct 2022,20221031,25 Eastcott Way,TARCOOLA BEACH,WA,6530,-28.8032265,114.620659,3,2,3,House,House,False,721,m2,False
2018022405,listing,/69-bayview-street-mount-tarcoola-wa-6530-2018022405,450000,is-sold,Sold by private treaty 31 Oct 2022,20221031,69 Bayview Street,MOUNT TARCOOLA,WA,6530,-28.80409,114.623909,5,2,2,House,House,False,785,m2,False
2018049626,listing,/14-tappak-street-waggrakine-wa-6530-2018049626,400000,is-sold,Sold by private treaty 31 Oct 2022,20221031,14 Tappak Street,WAGGRAKINE,WA,6530,-28.7210045,114.644386,4,2,2,House,House,False,1001,m2,False
2018058688,listing,/129-horwood-road-woorree-wa-6530-2018058688,780000,is-sold,Sold by private treaty 31 Oct 2022,20221031,129 Horwood Road,WOORREE,WA,6530,-28.7770767,114.660423,6,3,3,House,House,False,5609,m2,False
2018097478,listing,/40a-mcaleer-drive-mahomets-flats-wa-6530-2018097478,234000,is-sold,Sold by private treaty 25 Oct 2022,20221025,40A McAleer Drive,MAHOMETS FLATS,WA,6530,-28.78868,114.613121,2,1,1,House,House,False,0,m2,False
2018101875,listing,/3-139-augustus-street-geraldton-wa-6530-2018101875,80000,is-sold,Sold by private treaty 24 Oct 2022,20221024,3/139 Augustus Street,GERALDTON,WA,6530,-28.7797527,114.605255,2,1,1,House,House,False,0,m2,False
2018103154,listing,/30-sutherland-drive-mount-tarcoola-wa-6530-2018103154,400000,is-sold,Sold by private treaty 26 Oct 2022,20221026,30 Sutherland Drive,MOUNT TARCOOLA,WA,6530,-28.8056812,114.632439,4,2,2,House,House,False,773,m2,False
2018123543,listing,/132-kempton-street-bluff-point-wa-6530-2018123543,780000,is-sold,Sold by private treaty 01 Nov 2022,20221101,132 Kempton Street,BLUFF POINT,WA,6530,-28.73513,114.62043,4,1,3,House,House,False,1111,m2,False
2018149047,listing,/27-candlebark-drive-strathalbyn-wa-6530-2018149047,680000,is-sold,Sold by private treaty 26 Oct 2022,20221026,27 Candlebark Drive,STRATHALBYN,WA,6530,-28.7552528,114.648659,4,2,2,House,House,False,2003,m2,False
2018153592,listing,/3-patio-place-geraldton-wa-6530-2018153592,,is-sold,Sold by private treaty 31 Oct 2022,20221031,3 Patio Place,GERALDTON,WA,6530,-28.7775154,114.616394,2,1,,ApartmentUnitFlat,Apartment / Unit / Flat,False,298,m2,False
2017370122,listing,/7-bennett-street-spalding-wa-6530-2017370122,200000,is-sold,Sold by private treaty 19 Oct 2022,20221019,7 Bennett Street,SPALDING,WA,6530,-28.7377739,114.636223,4,1,2,House,House,False,794,m2,False
2017593134,listing,/2-torquay-place-tarcoola-beach-wa-6530-2017593134,530000,is-sold,Sold by private treaty 24 Oct 2022,20221024,2 Torquay Place,TARCOOLA BEACH,WA,6530,-28.8203831,114.626015,4,2,1,House,House,False,746,m2,False
2017634829,listing,/7-232-willcock-drive-mahomets-flats-wa-6530-2017634829,213000,is-sold,Sold by private treaty 21 Oct 2022,20221021,7/232 Willcock Drive,MAHOMETS FLATS,WA,6530,-28.79215,114.612747,3,1,1,ApartmentUnitFlat,Apartment / Unit / Flat,False,0,m2,False
2017739207,listing,/26-sutcliffe-road-waggrakine-wa-6530-2017739207,360000,is-sold,Sold by private treaty 20 Oct 2022,20221020,26 Sutcliffe Road,WAGGRAKINE,WA,6530,-28.7144928,114.650696,4,2,2,House,House,False,770,m2,False
2017745601,listing,/10-torquay-place-tarcoola-beach-wa-6530-2017745601,400000,is-sold,Sold by private treaty 21 Oct 2022,20221021,10 Torquay Place,TARCOOLA BEACH,WA,6530,-28.82011,114.626877,3,2,1,House,House,False,725,m2,False
2017818578,listing,/12-newhaven-street-mount-tarcoola-wa-6530-2017818578,403000,is-sold,Sold by private treaty 21 Oct 2022,20221021,12 Newhaven Street,MOUNT TARCOOLA,WA,6530,-28.7978973,114.62397,3,3,2,House,House,False,0,m2,False
2017897614,listing,/118-mitchell-street-spalding-wa-6530-2017897614,275000,is-sold,Sold by private treaty 24 Oct 2022,20221024,118 Mitchell Street,SPALDING,WA,6530,-28.7423935,114.635178,3,1,,House,House,False,794,m2,False
2017919901,listing,/62-volute-street-sunset-beach-wa-6530-2017919901,472500,is-sold,Sold by private treaty 24 Oct 2022,20221024,62 Volute Street,SUNSET BEACH,WA,6530,-28.7208538,114.620987,3,2,1,House,House,False,809,m2,False
2017921700,listing,/13-ashton-close-mount-tarcoola-wa-6530-2017921700,420000,is-sold,Sold by private treaty 20 Oct 2022,20221020,13 Ashton Close,MOUNT TARCOOLA,WA,6530,-28.79516,114.622673,4,2,2,House,House,False,754,m2,False
2017977324,listing,/3-eastern-close-geraldton-wa-6530-2017977324,415000,is-sold,Sold by private treaty 21 Oct 2022,20221021,3 Eastern Close,GERALDTON,WA,6530,-28.7696667,114.61792,3,1,2,House,House,False,789,m2,False
2018014727,listing,/1-13-walter-street-beresford-wa-6530-2018014727,290000,is-sold,Sold by private treaty 23 Oct 2022,20221023,1/13 Walter Street,BERESFORD,WA,6530,-28.7569,114.621,3,1,2,House,House,False,375,m2,False
2018058805,listing,/14-abelia-street-rangeway-wa-6530-2018058805,31200,is-sold,Sold by private treaty 18 Oct 2022,20221018,14 Abelia Street,RANGEWAY,WA,6530,-28.787508,114.625946,,,,VacantLand,Vacant land,False,971,m2,False
2018071428,listing,/10-sexton-drive-moresby-wa-6530-2018071428,715000,is-sold,Sold by private treaty 24 Oct 2022,20221024,10 Sexton Drive,MORESBY,WA,6530,-28.7186165,114.665009,4,2,2,House,House,True,1.11,ha,False
2018072695,listing,/25-pearson-street-mount-tarcoola-wa-6530-2018072695,400000,is-sold,Sold by private treaty 21 Oct 2022,20221021,25 Pearson Street,MOUNT TARCOOLA,WA,6530,-28.8021641,114.627243,4,2,2,House,House,False,828,m2,False
2018077126,listing,/87-horwood-road-woorree-wa-6530-2018077126,549000,is-sold,Sold by private treaty 19 Oct 2022,20221019,87 Horwood Road,WOORREE,WA,6530,-28.7767773,114.655914,2,1,6,House,House,True,10000,m2,False
2018084087,listing,/217-first-street-wonthella-wa-6530-2018084087,225000,is-sold,Sold by private treaty 18 Oct 2022,20221018,217 First Street,WONTHELLA,WA,6530,-28.76042,114.626686,2,1,2,House,House,False,1012,m2,False
2018104206,listing,/4-odgers-street-spalding-wa-6530-2018104206,295000,is-sold,Sold by private treaty 18 Oct 2022,20221018,4 Odgers Street,SPALDING,WA,6530,-28.7428532,114.629517,4,1,3,House,House,False,810,m2,False
2018131926,listing,/13-sutherland-drive-mount-tarcoola-wa-6530-2018131926,481000,is-sold,Sold by private treaty 21 Oct 2022,20221021,13 Sutherland Drive,MOUNT TARCOOLA,WA,6530,-28.80393,114.633438,4,2,4,House,House,False,759,m2,False
2018139440,listing,/18-green-street-spalding-wa-6530-2018139440,355000,is-sold,Sold by private treaty 18 Oct 2022,20221018,18 Green Street,SPALDING,WA,6530,-28.73425,114.630013,,,,VacantLand,Vacant land,True,1.44,ha,False
2018170003,listing,/9-driftwood-road-sunset-beach-wa-6530-2018170003,93000,is-sold,Sold by private treaty 21 Oct 2022,20221021,9 Driftwood Road,SUNSET BEACH,WA,6530,-28.7163658,114.622559,,,,VacantLand,Vacant land,False,0,m2,False
2013724336,listing,/28-ego-creek-loop-waggrakine-wa-6530-2013724336,79999,is-sold,Sold by private treaty 15 Oct 2022,20221015,28 Ego Creek Loop,WAGGRAKINE,WA,6530,-28.7133541,114.653496,,,,VacantLand,Vacant land,False,709,m2,False
2016761170,listing,/156-hall-road-waggrakine-wa-6530-2016761170,269000,is-sold,Sold by private treaty 17 Oct 2022,20221017,156 Hall Road,WAGGRAKINE,WA,6530,-28.7051945,114.639076,,,,VacantLand,Vacant land,True,2.41,ha,False
2017242902,listing,/11-4-bosley-street-sunset-beach-wa-6530-2017242902,190000,is-sold,Sold by private treaty 11 Oct 2022,20221011,11/4 Bosley Street,SUNSET BEACH,WA,6530,-28.7243519,114.621552,2,1,,Villa,Villa,False,0,m2,False
2017548987,listing,/lot-41-17-vincent-street-spalding-wa-6530-2017548987,45000,is-sold,Sold by private treaty 12 Oct 2022,20221012,Lot 41/17 Vincent Street,SPALDING,WA,6530,-28.7370033,114.62896,,,,VacantLand,Vacant land,False,1265,m2,False
2017636564,listing,/8-king-street-wonthella-wa-6530-2017636564,285000,is-sold,Sold by private treaty 12 Oct 2022,20221012,8 King Street,WONTHELLA,WA,6530,-28.76773,114.623138,3,1,2,House,House,False,911,m2,False
2017723079,listing,/26-glenview-st-mount-tarcoola-wa-6530-2017723079,550000,is-sold,Sold by private treaty 14 Oct 2022,20221014,26 Glenview St,MOUNT TARCOOLA,WA,6530,-28.7995777,114.6265,6,3,1,House,House,False,937,m2,False
2017770046,listing,/2-shamrock-street-wandina-wa-6530-2017770046,940000,is-sold,Sold by private treaty 14 Oct 2022,20221014,2 Shamrock Street,WANDINA,WA,6530,-28.8119946,114.634087,5,3,4,House,House,False,1548,m2,False
2017889794,listing,/53-glenview-street-mount-tarcoola-wa-6530-2017889794,329000,is-sold,Sold by private treaty 14 Oct 2022,20221014,53 Glenview Street,MOUNT TARCOOLA,WA,6530,-28.8022957,114.626129,3,2,,House,House,False,800,m2,False
2017910397,listing,/5-sander-street-tarcoola-beach-wa-6530-2017910397,450000,is-sold,Sold by private treaty 17 Oct 2022,20221017,5 Sander Street,TARCOOLA BEACH,WA,6530,-28.8165531,114.625092,4,2,2,House,House,False,790,m2,False
2017914945,listing,/156-anderson-street-spalding-wa-6530-2017914945,235000,is-sold,Sold by private treaty 13 Oct 2022,20221013,156 Anderson Street,SPALDING,WA,6530,-28.74351,114.6336,3,1,2,House,House,False,809,m2,False
2017921461,listing,/8-castlefin-road-utakarra-wa-6530-2017921461,370000,is-sold,Sold by private treaty 17 Oct 2022,20221017,8 Castlefin Road,UTAKARRA,WA,6530,-28.7848072,114.651459,4,2,2,House,House,False,795,m2,False
2017960631,listing,/24-galilee-way-woorree-wa-6530-2017960631,450000,is-sold,Sold by private treaty 13 Oct 2022,20221013,24 Galilee Way,WOORREE,WA,6530,-28.7713223,114.662506,3,1,2,House,House,True,10000,m2,False
2017967439,listing,/10-hammond-place-spalding-wa-6530-2017967439,106000,is-sold,Sold by private treaty 13 Oct 2022,20221013,10 Hammond Place,SPALDING,WA,6530,-28.73466,114.636719,3,1,1,House,House,False,0,m2,False
2017971054,listing,/2b-cairncross-street-beresford-wa-6530-2017971054,190000,is-sold,Sold by private treaty 11 Oct 2022,20221011,2B Cairncross Street,BERESFORD,WA,6530,-28.75916,114.62397,2,1,1,House,House,False,0,m2,False
2018011708,listing,/14-pollard-street-beachlands-wa-6530-2018011708,580000,is-sold,Sold by private treaty 17 Oct 2022,20221017,14 Pollard Street,BEACHLANDS,WA,6530,-28.7795086,114.601219,3,2,2,House,House,False,274,m2,False
2018015514,listing,/4-earle-place-utakarra-wa-6530-2018015514,195000,is-sold,Sold by private treaty 11 Oct 2022,20221011,4 Earle Place,UTAKARRA,WA,6530,-28.7883568,114.639961,4,1,,House,House,False,805,m2,False
2018034808,listing,/33-tamblyn-street-spalding-wa-6530-2018034808,178000,is-sold,Sold by private treaty 14 Oct 2022,20221014,33 Tamblyn Street,SPALDING,WA,6530,-28.7353916,114.631004,3,1,1,House,House,False,0,m2,False
2018037815,listing,/262-george-road-beresford-wa-6530-2018037815,,is-sold,Sold by private treaty 11 Oct 2022,20221011,262 George Road,BERESFORD,WA,6530,-28.75064,114.620987,4,1,1,House,House,False,958,m2,False
2018073480,listing,/122-david-road-waggrakine-wa-6530-2018073480,605000,is-sold,Sold by private treaty 13 Oct 2022,20221013,122 David Road,WAGGRAKINE,WA,6530,-28.70565,114.645226,4,2,4,House,House,True,4.21,ha,False
2018104914,listing,/44-crawford-street-spalding-wa-6530-2018104914,130500,is-sold,Sold by private treaty 14 Oct 2022,20221014,44 Crawford Street,SPALDING,WA,6530,-28.7442665,114.631004,3,1,1,House,House,False,913,m2,False
2017500233,listing,/13-hakea-street-tarcoola-beach-wa-6530-2017500233,336000,is-sold,Sold by private treaty 10 Oct 2022,20221010,13 Hakea Street,TARCOOLA BEACH,WA,6530,-28.7987347,114.618294,4,2,1,House,House,False,811,m2,False
2017555951,listing,/46-felicia-street-rangeway-wa-6530-2017555951,125000,is-sold,Sold by private treaty 10 Oct 2022,20221010,46 Felicia Street,RANGEWAY,WA,6530,-28.7895737,114.628822,3,1,1,House,House,False,864,m2,False
2017613960,listing,/97-rifle-range-road-rangeway-wa-6530-2017613960,195000,is-sold,Sold by private treaty 08 Oct 2022,20221008,97 Rifle Range Road,RANGEWAY,WA,6530,-28.78898,114.630119,3,1,1,House,House,False,801,m2,False
2017641148,listing,/3-whittaker-close-waggrakine-wa-6530-2017641148,60000,is-sold,Sold by private treaty 04 Oct 2022,20221004,3 Whittaker Close,WAGGRAKINE,WA,6530,-28.71396,114.65049,,,,VacantLand,Vacant land,False,833,m2,False
2017721626,listing,/3-wellington-road-woorree-wa-6530-2017721626,215000,is-sold,Sold by private treaty 11 Oct 2022,20221011,3 Wellington Road,WOORREE,WA,6530,-28.7777977,114.666031,,,,VacantLand,Vacant land,True,1.04,ha,False
2017785398,listing,/5-marianthus-close-strathalbyn-wa-6530-2017785398,515000,is-sold,Sold by private treaty 05 Oct 2022,20221005,5 Marianthus Close,STRATHALBYN,WA,6530,-28.758028,114.647545,5,2,4,House,House,False,2000,m2,False
2017787601,listing,/33-strathalbyn-road-strathalbyn-wa-6530-2017787601,710000,is-sold,Sold by private treaty 04 Oct 2022,20221004,33 Strathalbyn Road,STRATHALBYN,WA,6530,-28.74647,114.643669,4,2,6,House,House,False,2077,m2,False
2017843469,listing,/34-utakarra-road-rangeway-wa-6530-2017843469,255000,is-sold,Sold by private treaty 05 Oct 2022,20221005,34 Utakarra Road,RANGEWAY,WA,6530,-28.7821465,114.6337,3,1,1,House,House,False,806,m2,False
2017849094,listing,/8-40-simpson-street-beresford-wa-6530-2017849094,185000,is-sold,Sold by private treaty 07 Oct 2022,20221007,8/40 Simpson Street,BERESFORD,WA,6530,-28.76089,114.618523,2,1,1,House,House,False,0,m2,False
2017881271,listing,/51-pinyali-way-waggrakine-wa-6530-2017881271,297500,is-sold,Sold by private treaty 07 Oct 2022,20221007,51 Pinyali Way,WAGGRAKINE,WA,6530,-28.7161,114.64933,3,1,2,House,House,False,838,m2,False
2017929453,listing,/31-castlefin-road-utakarra-wa-6530-2017929453,306000,is-sold,Sold by private treaty 07 Oct 2022,20221007,31 Castlefin Road,UTAKARRA,WA,6530,-28.7824574,114.651047,4,2,2,House,House,False,0,m2,False
2017950537,listing,/133-fitzgerald-street-geraldton-wa-6530-2017950537,370000,is-sold,Sold by private treaty 10 Oct 2022,20221010,133 Fitzgerald Street,GERALDTON,WA,6530,-28.7825031,114.607811,4,1,1,House,House,False,576,m2,False
2017951970,listing,/21-pinyali-way-waggrakine-wa-6530-2017951970,,is-sold,Sold by private treaty 09 Oct 2022,20221009,21 Pinyali Way,WAGGRAKINE,WA,6530,-28.715126,114.649513,3,1,3,House,House,False,800,m2,False
2017967334,listing,/22-broadfield-close-utakarra-wa-6530-2017967334,56000,is-sold,Sold by private treaty 10 Oct 2022,20221010,22 Broadfield Close,UTAKARRA,WA,6530,-28.78598,114.639778,,,,VacantLand,Vacant land,False,1020,m2,False
2017980855,listing,/35-abraham-street-karloo-wa-6530-2017980855,45000,is-sold,Sold by private treaty 04 Oct 2022,20221004,35 Abraham Street,KARLOO,WA,6530,-28.7931957,114.641312,,,,VacantLand,Vacant land,False,820,m2,False
2018029938,listing,/1-howes-street-rangeway-wa-6530-2018029938,195000,is-sold,Sold by private treaty 08 Oct 2022,20221008,1 Howes Street,RANGEWAY,WA,6530,-28.7853374,114.627571,4,1,2,House,House,False,815,m2,False
2018036839,listing,/8-dolphin-street-mount-tarcoola-wa-6530-2018036839,593000,is-sold,Sold by private treaty 03 Oct 2022,20221003,8 Dolphin Street,MOUNT TARCOOLA,WA,6530,-28.8062572,114.624069,4,2,2,House,House,False,898,m2,False
2018112325,listing,/9-nyrang-road-sunset-beach-wa-6530-2018112325,,is-sold,Sold by private treaty 09 Oct 2022,20221009,9 Nyrang Road,SUNSET BEACH,WA,6530,-28.72658,114.627571,3,1,2,House,House,False,883,m2,False
2018114533,listing,/8-323-325-willcock-drive-tarcoola-beach-wa-6530-2018114533,,is-sold,Sold by private treaty 09 Oct 2022,20221009,8/323-325 Willcock Drive,TARCOOLA BEACH,WA,6530,-28.8007145,114.619316,3,2,2,House,House,False,0,m2,False
2018177619,listing,/26-nerrel-street-waggrakine-wa-6530-2018177619,390000,is-sold,Sold by private treaty 04 Oct 2022,20221004,26 Nerrel Street,WAGGRAKINE,WA,6530,-28.7230015,114.636154,4,2,,House,House,False,0,m2,False
2017070830,listing,/154-utakarra-road-utakarra-wa-6530-2017070830,75000,is-sold,Sold by private treaty 01 Oct 2022,20221001,154 Utakarra Road,UTAKARRA,WA,6530,-28.7774887,114.6452,,,,VacantLand,Vacant land,False,1372,m2,False
2017091475,listing,/11-moloney-street-utakarra-wa-6530-2017091475,75500,is-sold,Sold by private treaty 29 Sep 2022,20220929,11 Moloney Street,UTAKARRA,WA,6530,-28.786972,114.6558,,,,VacantLand,Vacant land,False,4000,m2,False
2017143277,listing,/73-bayly-street-wonthella-wa-6530-2017143277,75000,is-sold,Sold by private treaty 27 Sep 2022,20220927,73 Bayly Street,WONTHELLA,WA,6530,-28.7707977,114.623268,,,,VacantLand,Vacant land,False,809,m2,False
2017368160,listing,/176-brede-street-geraldton-wa-6530-2017368160,199000,is-sold,Sold by private treaty 27 Sep 2022,20220927,176 Brede Street,GERALDTON,WA,6530,-28.78646,114.6201,3,1,,House,House,False,1053,m2,False
2017464009,listing,/211-first-street-wonthella-wa-6530-2017464009,105000,is-sold,Sold by private treaty 27 Sep 2022,20220927,211 First Street,WONTHELLA,WA,6530,-28.76029,114.62606,,,,VacantLand,Vacant land,False,1012,m2,False
2017555439,listing,/12-beattie-road-waggrakine-wa-6530-2017555439,250000,is-sold,Sold by private treaty 28 Sep 2022,20220928,12 Beattie Road,WAGGRAKINE,WA,6530,-28.7215137,114.6317,3,1,2,House,House,False,809,m2,False
2017711361,listing,/18-phillips-road-geraldton-wa-6530-2017711361,575000,is-sold,Sold by private treaty 28 Sep 2022,20220928,18 Phillips Road,GERALDTON,WA,6530,-28.7795143,114.646843,4,3,2,House,House,False,2200,m2,False
2017788331,listing,/16-141-augustus-street-geraldton-wa-6530-2017788331,90000,is-sold,Sold by private treaty 28 Sep 2022,20220928,16/141 Augustus Street,GERALDTON,WA,6530,-28.779995,114.604881,2,1,1,ApartmentUnitFlat,Apartment / Unit / Flat,False,0,m2,False
2017838048,listing,/17-evana-terrace-wandina-wa-6530-2017838048,,is-sold,Sold by private treaty 27 Sep 2022,20220927,17 Evana Terrace,WANDINA,WA,6530,-28.8312244,114.637428,4,2,2,House,House,False,2034,m2,False
2017930268,listing,/29a-flores-road-wonthella-wa-6530-2017930268,370000,is-sold,Sold by private treaty 30 Sep 2022,20220930,29A Flores Road,WONTHELLA,WA,6530,-28.7655354,114.634254,3,2,2,ApartmentUnitFlat,Apartment / Unit / Flat,False,0,m2,False
2017930283,listing,/25-flores-road-wonthella-wa-6530-2017930283,370000,is-sold,Sold by private treaty 30 Sep 2022,20220930,25 Flores Road,WONTHELLA,WA,6530,-28.7658157,114.634529,3,2,2,ApartmentUnitFlat,Apartment / Unit / Flat,False,0,m2,False
2017931322,listing,/29b-flores-road-wonthella-wa-6530-2017931322,370000,is-sold,Sold by private treaty 30 Sep 2022,20220930,29B Flores Road,WONTHELLA,WA,6530,-28.7654781,114.634064,3,2,2,House,House,False,0,m2,False
2017938672,listing,/7-omega-place-spalding-wa-6530-2017938672,240000,is-sold,Sold by private treaty 03 Oct 2022,20221003,7 Omega Place,SPALDING,WA,6530,-28.7393417,114.634735,3,1,2,House,House,False,889,m2,False
2017958854,listing,/31-wahn-avenue-waggrakine-wa-6530-2017958854,355000,is-sold,Sold by private treaty 03 Oct 2022,20221003,31 Wahn Avenue,WAGGRAKINE,WA,6530,-28.71887,114.642509,3,2,2,House,House,False,749,m2,False
2018014826,listing,/28-henry-street-beresford-wa-6530-2018014826,510000,is-sold,Sold by private treaty 27 Sep 2022,20220927,28 Henry Street,BERESFORD,WA,6530,-28.7553768,114.61834,3,2,1,House,House,False,830,m2,False
2018026138,listing,/93-gunners-lane-west-end-wa-6530-2018026138,135000,is-sold,Sold by private treaty 27 Sep 2022,20220927,93 Gunners Lane,WEST END,WA,6530,-28.78253,114.580826,3,1,1,House,House,False,0,m2,False
2018027374,listing,/4-pascoe-place-tarcoola-beach-wa-6530-2018027374,,is-sold,Sold by private treaty 30 Sep 2022,20220930,4 Pascoe Place,TARCOOLA BEACH,WA,6530,-28.81452,114.625343,4,2,2,House,House,False,740,m2,False
2018027588,listing,/20-barrett-drive-wandina-wa-6530-2018027588,,is-sold,Sold by private treaty 29 Sep 2022,20220929,20 Barrett Drive,WANDINA,WA,6530,-28.80898,114.625389,,,,VacantLand,Vacant land,False,737,m2,False
2018074728,listing,/7-shamrock-street-wandina-wa-6530-2018074728,,is-sold,Sold by private treaty 27 Sep 2022,20220927,7 Shamrock Street,WANDINA,WA,6530,-28.8113518,114.633553,4,2,2,House,House,False,727,m2,False
2018086326,listing,/5-rustic-court-strathalbyn-wa-6530-2018086326,665000,is-sold,Sold by private treaty 02 Oct 2022,20221002,5 Rustic Court,STRATHALBYN,WA,6530,-28.7487946,114.645874,5,2,2,House,House,False,2044,m2,False
2017525756,listing,/23-137-george-road-beresford-wa-6530-2017525756,120000,is-sold,Sold by private treaty 21 Sep 2022,20220921,23/137 George Road,BERESFORD,WA,6530,-28.7635727,114.618874,,1,,ApartmentUnitFlat,Apartment / Unit / Flat,False,49,m2,False
2017578811,listing,/5-erla-place-woorree-wa-6530-2017578811,399000,is-sold,Sold by private treaty 16 Sep 2022,20220916,5 Erla Place,WOORREE,WA,6530,-28.7662,114.655037,2,1,1,House,House,True,1.01,ha,False
2017599909,listing,/3-bogle-way-spalding-wa-6530-2017599909,94000,is-sold,Sold by private treaty 20 Sep 2022,20220920,3 Bogle Way,SPALDING,WA,6530,-28.7398853,114.6287,3,1,,House,House,False,805,m2,False
2017748350,listing,/4-william-street-geraldton-wa-6530-2017748350,149000,is-sold,Sold by private treaty 23 Sep 2022,20220923,4 William Street,GERALDTON,WA,6530,-28.77737,114.622269,3,1,1,House,House,False,768,m2,False
2017768596,listing,/37-ashton-close-mount-tarcoola-wa-6530-2017768596,350000,is-sold,Sold by private treaty 19 Sep 2022,20220919,37 Ashton Close,MOUNT TARCOOLA,WA,6530,-28.7932663,114.623627,4,2,1,House,House,False,0,m2,False
2017793771,listing,/6-lunt-court-tarcoola-beach-wa-6530-2017793771,,is-sold,Sold by private treaty 17 Sep 2022,20220917,6 Lunt Court,TARCOOLA BEACH,WA,6530,-28.8080082,114.623718,5,2,2,House,House,False,850,m2,False
2017876407,listing,/41-acacia-street-mount-tarcoola-wa-6530-2017876407,390000,is-sold,Sold by private treaty 23 Sep 2022,20220923,41 Acacia Street,MOUNT TARCOOLA,WA,6530,-28.79992,114.630913,4,2,2,House,House,False,453,m2,False
2017891214,listing,/3-6-dordrecht-place-mahomets-flats-wa-6530-2017891214,265000,is-sold,Sold by private treaty 26 Sep 2022,20220926,3/6 Dordrecht Place,MAHOMETS FLATS,WA,6530,-28.7931232,114.612366,3,1,1,House,House,False,388,m2,False
2017899744,listing,/12-gertrude-street-geraldton-wa-6530-2017899744,,is-sold,Sold by private treaty 16 Sep 2022,20220916,12 Gertrude Street,GERALDTON,WA,6530,-28.7789879,114.6176,3,1,,House,House,False,736,m2,False
2017912797,listing,/6-cook-rise-wandina-wa-6530-2017912797,125000,is-sold,Sold by private treaty 16 Sep 2022,20220916,6 Cook Rise,WANDINA,WA,6530,-28.8091984,114.628708,,,,VacantLand,Vacant land,False,702,m2,False
2017938869,listing,/9-hale-street-rangeway-wa-6530-2017938869,,is-sold,Sold by private treaty 16 Sep 2022,20220916,9 Hale Street,RANGEWAY,WA,6530,-28.78636,114.63121,3,1,4,House,House,False,809,m2,False
2017965944,listing,/225-fourth-street-wonthella-wa-6530-2017965944,290000,is-sold,Sold by private treaty 16 Sep 2022,20220916,225 Fourth Street,WONTHELLA,WA,6530,-28.763689,114.627434,3,1,3,House,House,False,1012,m2,False
2017970955,listing,/7-challener-st-rangeway-wa-6530-2017970955,130000,is-sold,Sold by private treaty 21 Sep 2022,20220921,7 Challener St,RANGEWAY,WA,6530,-28.7802181,114.631981,4,1,1,House,House,False,810,m2,False
2017991539,listing,/18-woodman-street-utakarra-wa-6530-2017991539,200000,is-sold,Sold by private treaty 20 Sep 2022,20220920,18 Woodman Street,UTAKARRA,WA,6530,-28.7787971,114.648354,3,1,2,House,House,False,809,m2,False
2017991697,listing,/8-olive-street-mahomets-flats-wa-6530-2017991697,,is-sold,Sold by private treaty 18 Sep 2022,20220918,8 Olive Street,MAHOMETS FLATS,WA,6530,-28.79636,114.617783,3,2,2,House,House,False,0,m2,False
2018008427,listing,/woorree-wa-6530-2018008427,,is-sold,Sold 23 Sep 2022,20220923,,WOORREE,WA,6530,-28.7682934,114.659027,5,3,15,House,House,False,7256,m2,False
2018018318,listing,/7-morningstar-grange-wandina-wa-6530-2018018318,462500,is-sold,Sold by private treaty 20 Sep 2022,20220920,7 Morningstar Grange,WANDINA,WA,6530,-28.817894,114.635628,4,2,2,House,House,False,660,m2,False
2018033080,listing,/280b-sixth-street-wonthella-wa-6530-2018033080,155000,is-sold,Sold by private treaty 20 Sep 2022,20220920,280B Sixth Street,WONTHELLA,WA,6530,-28.7664928,114.633766,2,1,3,ApartmentUnitFlat,Apartment / Unit / Flat,False,1012,m2,False
2018033969,listing,/22-foster-place-mount-tarcoola-wa-6530-2018033969,,is-sold,Sold by private treaty 19 Sep 2022,20220919,22 Foster Place,MOUNT TARCOOLA,WA,6530,-28.795332,114.627945,3,2,2,House,House,False,734,m2,False
2018040242,listing,/5-gardner-street-spalding-wa-6530-2018040242,225000,is-sold,Sold by private treaty 20 Sep 2022,20220920,5 Gardner Street,SPALDING,WA,6530,-28.7353745,114.630577,3,1,2,House,House,False,805,m2,False
2017436763,listing,/26-nagle-close-mount-tarcoola-wa-6530-2017436763,,is-sold,Sold by private treaty 12 Sep 2022,20220912,26 Nagle Close,MOUNT TARCOOLA,WA,6530,-28.7926826,114.6231,4,2,4,House,House,False,806,m2,False
2017467320,listing,/38a-mabel-street-beresford-wa-6530-2017467320,165000,is-sold,Sold by private treaty 09 Sep 2022,20220909,38A Mabel Street,BERESFORD,WA,6530,-28.7510853,114.622887,2,1,2,Duplex,Duplex,False,61,m2,False
2017467345,listing,/38b-mabel-street-beresford-wa-6530-2017467345,165000,is-sold,Sold by private treaty 09 Sep 2022,20220909,38B Mabel Street,BERESFORD,WA,6530,-28.7510853,114.622887,2,1,1,Duplex,Duplex,False,0,m2,False
2017512041,listing,/9-wilton-close-mount-tarcoola-wa-6530-2017512041,,is-sold,Sold by private treaty 14 Sep 2022,20220914,9 Wilton Close,MOUNT TARCOOLA,WA,6530,-28.8032627,114.627525,3,1,1,House,House,False,1035,m2,False
2017619476,listing,/167d-george-road-beresford-wa-6530-2017619476,212500,is-sold,Sold by private treaty 13 Sep 2022,20220913,167D George Road,BERESFORD,WA,6530,-28.7612381,114.61895,2,1,1,ApartmentUnitFlat,Apartment / Unit / Flat,False,0,m2,False
2017739143,listing,/32-cypress-street-rangeway-wa-6530-2017739143,190000,is-sold,Sold by private treaty 14 Sep 2022,20220914,32 Cypress Street,RANGEWAY,WA,6530,-28.78213,114.6265,2,1,1,House,House,False,1018,m2,False
2017777547,listing,/64-kempton-street-bluff-point-wa-6530-2017777547,1620000,is-sold,Sold by private treaty 09 Sep 2022,20220909,64 Kempton Street,BLUFF POINT,WA,6530,-28.7420616,114.619339,4,2,6,House,House,False,1499,m2,False
2017802153,listing,/10-calythrix-court-strathalbyn-wa-6530-2017802153,545000,is-sold,Sold by private treaty 15 Sep 2022,20220915,10 Calythrix Court,STRATHALBYN,WA,6530,-28.75646,114.6455,5,2,4,House,House,False,2031,m2,False
2017816908,listing,/7-romeo-pass-wandina-wa-6530-2017816908,650000,is-sold,Sold by private treaty 12 Sep 2022,20220912,7 Romeo Pass,WANDINA,WA,6530,-28.81314,114.635551,4,2,5,House,House,False,1510,m2,False
2017817997,listing,/2-roebuck-street-mahomets-flats-wa-6530-2017817997,380000,is-sold,Sold by private treaty 14 Sep 2022,20220914,2 Roebuck Street,MAHOMETS FLATS,WA,6530,-28.79626,114.618408,4,2,2,House,House,False,791,m2,False
2017891822,listing,/2-stone-street-spalding-wa-6530-2017891822,305000,is-sold,Sold by private treaty 13 Sep 2022,20220913,2 Stone Street,SPALDING,WA,6530,-28.73718,114.635872,3,1,2,House,House,False,779,m2,False
2017894197,listing,/20-norman-street-mount-tarcoola-wa-6530-2017894197,310000,is-sold,Sold by private treaty 13 Sep 2022,20220913,20 Norman Street,MOUNT TARCOOLA,WA,6530,-28.80368,114.624046,3,1,2,House,House,False,845,m2,False
2017903596,listing,/53-columbus-boulevard-wandina-wa-6530-2017903596,380000,is-sold,Sold by private treaty 14 Sep 2022,20220914,53 Columbus Boulevard,WANDINA,WA,6530,-28.8199368,114.6368,4,2,2,House,House,False,845,m2,False
2017962003,listing,/22-portacello-circle-wandina-wa-6530-2017962003,,is-sold,Sold by private treaty 12 Sep 2022,20220912,22 Portacello Circle,WANDINA,WA,6530,-28.8266068,114.635826,3,2,2,House,House,False,526,m2,False
2017983406,listing,/15-glenfin-street-utakarra-wa-6530-2017983406,45000,is-sold,Sold by private treaty 12 Sep 2022,20220912,15 Glenfin Street,UTAKARRA,WA,6530,-28.7824078,114.649536,,,,VacantLand,Vacant land,False,819,m2,False
2017997673,listing,/5b-hadda-way-mahomets-flats-wa-6530-2017997673,,is-sold,Sold by private treaty 12 Sep 2022,20220912,5B Hadda Way,MAHOMETS FLATS,WA,6530,-28.7924747,114.610878,3,2,2,House,House,False,0,m2,False
2018014735,listing,/15-eve-street-beresford-wa-6530-2018014735,425000,is-sold,Sold by private treaty 15 Sep 2022,20220915,15 Eve Street,BERESFORD,WA,6530,-28.7519569,114.619034,3,1,1,House,House,False,1012,m2,False
2018040784,listing,/6-26-johnston-street-geraldton-wa-6530-2018040784,330000,is-sold,Sold by private treaty 13 Sep 2022,20220913,6/26 Johnston Street,GERALDTON,WA,6530,-28.7782688,114.622421,3,2,2,ApartmentUnitFlat,Apartment / Unit / Flat,False,0,m2,False
2018050313,listing,/188-brede-street-geraldton-wa-6530-2018050313,410000,is-sold,Sold by private treaty 14 Sep 2022,20220914,188 Brede Street,GERALDTON,WA,6530,-28.7876244,114.620262,4,2,,House,House,False,957,m2,False
2018051856,listing,/33-pearson-st-mount-tarcoola-wa-6530-2018051856,380000,is-sold,Sold by private treaty 11 Sep 2022,20220911,33 Pearson St,MOUNT TARCOOLA,WA,6530,-28.8018932,114.627991,4,2,1,House,House,False,758,m2,False
2017308377,listing,/7-macranda-place-woorree-wa-6530-2017308377,160000,is-sold,Sold by private treaty 31 Aug 2022,20220831,7 Macranda Place,WOORREE,WA,6530,-28.7584438,114.656006,,,,VacantLand,Vacant land,False,2002,m2,False
2017318839,listing,/34-bennett-street-spalding-wa-6530-2017318839,135000,is-sold,Sold by private treaty 09 Sep 2022,20220909,34 Bennett Street,SPALDING,WA,6530,-28.7348824,114.636063,3,1,1,House,House,False,800,m2,False
2017349131,listing,/22-137-george-road-beresford-wa-6530-2017349131,140000,is-sold,Sold by private treaty 05 Sep 2022,20220905,22/137 George Road,BERESFORD,WA,6530,-28.7635727,114.618874,2,1,,ApartmentUnitFlat,Apartment / Unit / Flat,False,0,m2,False
2017466232,listing,/33-lorna-street-beresford-wa-6530-2017466232,555000,is-sold,Sold by private treaty 31 Aug 2022,20220831,33 Lorna Street,BERESFORD,WA,6530,-28.7524357,114.62075,3,2,2,House,House,False,871,m2,False
2017583502,listing,/5-hallet-place-bluff-point-wa-6530-2017583502,308000,is-sold,Sold by private treaty 03 Sep 2022,20220903,5 Hallet Place,BLUFF POINT,WA,6530,-28.7322865,114.626205,4,2,,House,House,False,824,m2,False
2017660954,listing,/1-129-george-road-beresford-wa-6530-2017660954,405000,is-sold,Sold by private treaty 31 Aug 2022,20220831,1/129 George Road,BERESFORD,WA,6530,-28.7645473,114.61869,3,2,2,House,House,False,427,m2,False
2017714806,listing,/8-eakins-crescent-wandina-wa-6530-2017714806,710000,is-sold,Sold by private treaty 06 Sep 2022,20220906,8 Eakins Crescent,WANDINA,WA,6530,-28.82849,114.636246,4,2,2,House,House,False,2294,m2,False
2017735087,listing,/1-tudor-place-spalding-wa-6530-2017735087,,is-sold,Sold by private treaty 09 Sep 2022,20220909,1 Tudor Place,SPALDING,WA,6530,-28.7439671,114.6246,4,1,2,House,House,False,791,m2,False
2017765409,listing,/475-chapman-road-bluff-point-wa-6530-2017765409,240000,is-sold,Sold by private treaty 05 Sep 2022,20220905,475 Chapman Road,BLUFF POINT,WA,6530,-28.7333221,114.626305,2,1,1,House,House,False,0,m2,False
2017876612,listing,/204-first-street-wonthella-wa-6530-2017876612,,is-sold,Sold by private treaty 08 Sep 2022,20220908,204 First Street,WONTHELLA,WA,6530,-28.7608318,114.625435,2,1,1,House,House,False,1012,m2,False
2017903360,listing,/11-harris-court-mount-tarcoola-wa-6530-2017903360,430000,is-sold,Sold by private treaty 09 Sep 2022,20220909,11 Harris Court,MOUNT TARCOOLA,WA,6530,-28.7934551,114.620888,5,2,,House,House,False,638,m2,False
2017921726,listing,/140-zodiac-lane-west-end-wa-6530-2017921726,145000,is-sold,Sold by private treaty 31 Aug 2022,20220831,140 Zodiac Lane,WEST END,WA,6530,-28.7815323,114.582565,3,1,1,House,House,False,302,m2,False
2017950126,listing,/30b-newman-street-spalding-wa-6530-2017950126,165000,is-sold,Sold by private treaty 31 Aug 2022,20220831,30B Newman Street,SPALDING,WA,6530,-28.7430687,114.628159,3,1,1,ApartmentUnitFlat,Apartment / Unit / Flat,False,555,m2,False
2017954816,listing,/22-ajax-drive-wandina-wa-6530-2017954816,435000,is-sold,Sold by private treaty 09 Sep 2022,20220909,22 Ajax Drive,WANDINA,WA,6530,-28.81776,114.63604,4,2,2,House,House,False,742,m2,False
2017967438,listing,/284-david-road-waggrakine-wa-6530-2017967438,720000,is-sold,Sold by private treaty 03 Sep 2022,20220903,284 David Road,WAGGRAKINE,WA,6530,-28.6915512,114.6464,4,2,2,House,House,True,2.04,ha,False
2017983624,listing,/13-solomon-circle-karloo-wa-6530-2017983624,250000,is-sold,Sold by private treaty 05 Sep 2022,20220905,13 Solomon Circle,KARLOO,WA,6530,-28.7909622,114.642372,3,1,2,House,House,False,1001,m2,False
2017987102,listing,/13-flavio-crescent-wandina-wa-6530-2017987102,407500,is-sold,Sold by private treaty 06 Sep 2022,20220906,13 Flavio Crescent,WANDINA,WA,6530,-28.8158646,114.631836,4,2,2,House,House,False,638,m2,False
2018004522,listing,/12-derna-parade-wandina-wa-6530-2018004522,,is-sold,Sold by private treaty 08 Sep 2022,20220908,12 Derna Parade,WANDINA,WA,6530,-28.8146763,114.632141,4,2,2,House,House,False,700,m2,False
2018009890,listing,/8-wattle-avenue-geraldton-wa-6530-2018009890,450000,is-sold,Sold by private treaty 06 Sep 2022,20220906,8 Wattle Avenue,GERALDTON,WA,6530,-28.7834644,114.62159,3,1,3,House,House,False,794,m2,False
2018031310,listing,/23-charles-street-bluff-point-wa-6530-2018031310,455000,is-sold,Sold by private treaty 07 Sep 2022,20220907,23 Charles Street,BLUFF POINT,WA,6530,-28.733799,114.625,6,3,2,House,House,False,814,m2,False
2017501803,listing,/66-glenview-street-mount-tarcoola-wa-6530-2017501803,325000,is-sold,Sold by private treaty 26 Aug 2022,20220826,66 Glenview Street,MOUNT TARCOOLA,WA,6530,-28.8042812,114.625458,3,1,1,House,House,False,904,m2,False
2017511800,listing,/3-victoria-street-geraldton-wa-6530-2017511800,420000,is-sold,Sold by private treaty 29 Aug 2022,20220829,3 Victoria Street,GERALDTON,WA,6530,-28.7722263,114.616158,4,2,1,House,House,False,852,m2,False
2017555403,listing,/7-acacia-street-mount-tarcoola-wa-6530-2017555403,,is-sold,Sold by private treaty 30 Aug 2022,20220830,7 Acacia Street,MOUNT TARCOOLA,WA,6530,-28.7990055,114.627594,4,2,2,House,House,False,746,m2,False
2017588268,listing,/23-dean-street-beresford-wa-6530-2017588268,370000,is-sold,Sold by private treaty 26 Aug 2022,20220826,23 Dean Street,BERESFORD,WA,6530,-28.7539883,114.620888,1,1,1,House,House,False,1185,m2,False
2017708833,listing,/14-198-chapman-road-beresford-wa-6530-2017708833,327500,is-sold,Sold by private treaty 30 Aug 2022,20220830,14/198 Chapman Road,BERESFORD,WA,6530,-28.7584934,114.616341,3,1,1,Villa,Villa,False,0,m2,False
2017739196,listing,/77-blencowe-road-utakarra-wa-6530-2017739196,180000,is-sold,Sold by private treaty 30 Aug 2022,20220830,77 Blencowe Road,UTAKARRA,WA,6530,-28.7859974,114.636063,3,1,1,House,House,False,801,m2,False
2017834936,listing,/18-whitworth-drive-sunset-beach-wa-6530-2017834936,350000,is-sold,Sold by private treaty 28 Aug 2022,20220828,18 Whitworth Drive,SUNSET BEACH,WA,6530,-28.7183533,114.624535,3,1,6,House,House,False,800,m2,False
2017850171,listing,/7-fleetwing-street-wandina-wa-6530-2017850171,540000,is-sold,Sold by private treaty 26 Aug 2022,20220826,7 Fleetwing Street,WANDINA,WA,6530,-28.8082047,114.630753,5,2,2,House,House,False,627,m2,False
2017861920,listing,/24-colonen-street-wandina-wa-6530-2017861920,517500,is-sold,Sold by private treaty 25 Aug 2022,20220825,24 Colonen Street,WANDINA,WA,6530,-28.8158379,114.638916,4,2,4,House,House,False,693,m2,False
2017865416,listing,/14-gorgon-road-sunset-beach-wa-6530-2017865416,,is-sold,Sold by private treaty 27 Aug 2022,20220827,14 Gorgon Road,SUNSET BEACH,WA,6530,-28.7258167,114.626106,4,1,2,House,House,False,870,m2,False
2017869301,listing,/13-donegal-street-utakarra-wa-6530-2017869301,390000,is-sold,Sold by private treaty 24 Aug 2022,20220824,13 Donegal Street,UTAKARRA,WA,6530,-28.7832966,114.648911,4,2,2,House,House,False,800,m2,False
2017871859,listing,/18-castlefin-road-utakarra-wa-6530-2017871859,330000,is-sold,Sold by private treaty 26 Aug 2022,20220826,18 Castlefin Road,UTAKARRA,WA,6530,-28.783493,114.651413,4,2,2,House,House,False,728,m2,False
2017888680,listing,/3-waldeck-street-geraldton-wa-6530-2017888680,,is-sold,Sold by private treaty 26 Aug 2022,20220826,3 Waldeck Street,GERALDTON,WA,6530,-28.77793,114.616791,3,1,2,House,House,False,783,m2,False
2017889640,listing,/247-second-street-wonthella-wa-6530-2017889640,340000,is-sold,Sold by private treaty 26 Aug 2022,20220826,247 Second Street,WONTHELLA,WA,6530,-28.7615242,114.629913,4,1,,House,House,False,1012,m2,False
2017890900,listing,/44-lawley-street-spalding-wa-6530-2017890900,70000,is-sold,Sold by private treaty 25 Aug 2022,20220825,44 Lawley Street,SPALDING,WA,6530,-28.7360764,114.628914,1,1,,House,House,False,899,m2,False
2017967131,listing,/279a-fifth-street-wonthella-wa-6530-2017967131,159000,is-sold,Sold by private treaty 30 Aug 2022,20220830,279A Fifth Street,WONTHELLA,WA,6530,-28.76477,114.633377,2,1,1,Duplex,Duplex,False,0,m2,False
2018000693,listing,/10-mabel-street-beresford-wa-6530-2018000693,595000,is-sold,Sold by private treaty 28 Aug 2022,20220828,10 Mabel Street,BERESFORD,WA,6530,-28.7499981,114.619766,3,1,2,House,House,False,877,m2,False
2018015476,listing,/4-green-street-bluff-point-wa-6530-2018015476,,is-sold,Sold by private treaty 24 Aug 2022,20220824,4 Green Street,BLUFF POINT,WA,6530,-28.7338581,114.627014,3,1,2,House,House,False,779,m2,False
2018024351,listing,/216-seventh-street-wonthella-wa-6530-2018024351,,is-sold,Sold by private treaty 26 Aug 2022,20220826,216 Seventh Street,WONTHELLA,WA,6530,-28.76741,114.6265,4,2,2,House,House,False,1012,m2,False
2018029815,listing,/64-mitchell-street-spalding-wa-6530-2018029815,205000,is-sold,Sold by private treaty 30 Aug 2022,20220830,64 Mitchell Street,SPALDING,WA,6530,-28.74139,114.628349,4,1,,House,House,False,893,m2,False
2014154761,listing,/22-sanford-street-geraldton-wa-6530-2014154761,300000,is-sold,Sold by private treaty 19 Aug 2022,20220819,22 Sanford Street,GERALDTON,WA,6530,-28.77262,114.614014,4,1,2,House,House,False,617,m2,False
2017187266,listing,/28-bayview-street-mount-tarcoola-wa-6530-2017187266,780000,is-sold,Sold by private treaty 22 Aug 2022,20220822,28 Bayview Street,MOUNT TARCOOLA,WA,6530,-28.80022,114.62175,5,2,2,House,House,False,996,m2,False
2017201497,listing,/1-goldsworthy-crescent-spalding-wa-6530-2017201497,,is-sold,Sold by private treaty 19 Aug 2022,20220819,1 Goldsworthy Crescent,SPALDING,WA,6530,-28.7383175,114.633743,3,1,2,House,House,False,791,m2,False
2017572230,listing,/39-bedford-street-spalding-wa-6530-2017572230,210000,is-sold,Sold by private treaty 22 Aug 2022,20220822,39 Bedford Street,SPALDING,WA,6530,-28.74466,114.630165,3,1,2,House,House,False,809,m2,False
2017669736,listing,/26-pope-street-beresford-wa-6530-2017669736,435000,is-sold,Sold by private treaty 22 Aug 2022,20220822,26 Pope Street,BERESFORD,WA,6530,-28.7557487,114.622559,4,2,2,House,House,False,833,m2,False
2017680043,listing,/28c-albert-street-geraldton-wa-6530-2017680043,235000,is-sold,Sold by private treaty 22 Aug 2022,20220822,28C Albert Street,GERALDTON,WA,6530,-28.76748,114.621643,3,1,1,House,House,False,0,m2,False
2017697475,listing,/3-wildwave-bend-wandina-wa-6530-2017697475,387000,is-sold,Sold by private treaty 19 Aug 2022,20220819,3 Wildwave Bend,WANDINA,WA,6530,-28.8094215,114.633774,4,2,2,House,House,False,673,m2,False
2017824170,listing,/4-a-b-francisco-close-mahomets-flats-wa-6530-2017824170,499000,is-sold,Sold by private treaty 19 Aug 2022,20220819,4 A & B Francisco Close,MAHOMETS FLATS,WA,6530,-28.793581,114.613564,6,2,2,House,House,False,805,m2,False
2017836908,listing,/44-sunnybanks-drive-strathalbyn-wa-6530-2017836908,445000,is-sold,Sold by private treaty 20 Aug 2022,20220820,44 Sunnybanks Drive,STRATHALBYN,WA,6530,-28.758297,114.644386,4,2,3,House,House,False,2000,m2,False
2017865432,listing,/8-defiance-corner-wandina-wa-6530-2017865432,125000,is-sold,Sold by private treaty 19 Aug 2022,20220819,8 Defiance Corner,WANDINA,WA,6530,-28.8132534,114.63398,,,,VacantLand,Vacant land,False,703,m2,False
2017906531,listing,/7-castlefin-road-utakarra-wa-6530-2017906531,352000,is-sold,Sold by private treaty 22 Aug 2022,20220822,7 Castlefin Road,UTAKARRA,WA,6530,-28.78477,114.651,4,2,2,House,House,False,0,m2,False
2017908940,listing,/120-burges-street-beachlands-wa-6530-2017908940,345000,is-sold,Sold by private treaty 18 Aug 2022,20220818,120 Burges Street,BEACHLANDS,WA,6530,-28.7855835,114.601357,4,2,2,House,House,False,388,m2,False
2017921722,listing,/75-gregory-geraldton-wa-6530-2017921722,300000,is-sold,Sold by private treaty 19 Aug 2022,20220819,75 Gregory,GERALDTON,WA,6530,-28.7796669,114.60614,3,1,1,House,House,False,660,m2,False
2017923697,listing,/20-dean-street-beresford-wa-6530-2017923697,,is-sold,Sold by private treaty 23 Aug 2022,20220823,20 Dean Street,BERESFORD,WA,6530,-28.7547,114.620522,2,1,1,House,House,False,1032,m2,False
2017961234,listing,/9-hemsley-place-bluff-point-wa-6530-2017961234,480000,is-sold,Sold by private treaty 17 Aug 2022,20220817,9 Hemsley Place,BLUFF POINT,WA,6530,-28.7348652,114.624229,4,3,3,House,House,False,800,m2,False
2017966446,listing,/11-poole-close-mount-tarcoola-wa-6530-2017966446,,is-sold,Sold by private treaty 18 Aug 2022,20220818,11 Poole Close,MOUNT TARCOOLA,WA,6530,-28.80578,114.627525,4,2,1,House,House,False,810,m2,False
2017980618,listing,/75-webber-road-moresby-wa-6530-2017980618,685000,is-sold,Sold by private treaty 23 Aug 2022,20220823,75 Webber Road,MORESBY,WA,6530,-28.7355824,114.663986,4,2,2,House,House,False,2227,m2,False
2017982130,listing,/3-grant-street-beachlands-wa-6530-2017982130,,is-sold,Sold by private treaty 19 Aug 2022,20220819,3 Grant Street,BEACHLANDS,WA,6530,-28.7835732,114.605583,3,2,1,House,House,False,567,m2,False
2017988948,listing,/12-bushby-close-mount-tarcoola-wa-6530-2017988948,,is-sold,Sold by private treaty 21 Aug 2022,20220821,12 Bushby Close,MOUNT TARCOOLA,WA,6530,-28.8043346,114.629707,4,2,2,House,House,False,840,m2,False
2018071978,listing,/1-78-eastern-road-geraldton-wa-6530-2018071978,360000,is-sold,Sold by private treaty 23 Aug 2022,20220823,1/78 Eastern Road,GERALDTON,WA,6530,-28.7767735,114.622177,4,2,4,House,House,False,354,m2,False
2017291531,listing,/8-198-durlacher-street-geraldton-wa-6530-2017291531,365000,is-sold,Sold by private treaty 10 Aug 2022,20220810,8/198 Durlacher Street,GERALDTON,WA,6530,-28.7828884,114.616623,3,2,2,House,House,False,308,m2,False
2017432857,listing,/h-311-chapman-road-bluff-point-wa-6530-2017432857,200000,is-sold,Sold by private treaty 11 Aug 2022,20220811,H/311 Chapman Road,BLUFF POINT,WA,6530,-28.7469311,114.619873,2,1,1,ApartmentUnitFlat,Apartment / Unit / Flat,False,0,m2,False
2017478026,listing,/2-skipper-port-sunset-beach-wa-6530-2017478026,90000,is-sold,Sold by private treaty 12 Aug 2022,20220812,2 Skipper Port,SUNSET BEACH,WA,6530,-28.7160778,114.6238,,,,VacantLand,Vacant land,False,584,m2,False
2017520380,listing,/43-crawford-street-spalding-wa-6530-2017520380,170000,is-sold,Sold by private treaty 12 Aug 2022,20220812,43 Crawford Street,SPALDING,WA,6530,-28.744688,114.630585,3,1,1,House,House,False,826,m2,False
2017622706,listing,/10-joshua-way-karloo-wa-6530-2017622706,264000,is-sold,Sold by private treaty 16 Aug 2022,20220816,10 Joshua Way,KARLOO,WA,6530,-28.7905636,114.642883,3,1,2,House,House,False,800,m2,False
2017723802,listing,/9-bronzewing-turn-wandina-wa-6530-2017723802,407000,is-sold,Sold by private treaty 16 Aug 2022,20220816,9 Bronzewing Turn,WANDINA,WA,6530,-28.8072281,114.632164,4,2,2,House,House,False,608,m2,False
2017737129,listing,/33-bayview-street-mount-tarcoola-wa-6530-2017737129,420000,is-sold,Sold by private treaty 13 Aug 2022,20220813,33 Bayview Street,MOUNT TARCOOLA,WA,6530,-28.8007431,114.622467,3,1,2,House,House,False,900,m2,False
2017789754,listing,/10-ajax-drive-wandina-wa-6530-2017789754,,is-sold,Sold by private treaty 11 Aug 2022,20220811,10 Ajax Drive,WANDINA,WA,6530,-28.8191071,114.636131,4,2,2,House,House,False,694,m2,False
2017811656,listing,/32a-sherlock-way-rangeway-wa-6530-2017811656,149000,is-sold,Sold by private treaty 16 Aug 2022,20220816,32A Sherlock Way,RANGEWAY,WA,6530,-28.79054,114.633,2,1,1,Duplex,Duplex,False,0,m2,False
2017819024,listing,/13-alera-street-wandina-wa-6530-2017819024,426000,is-sold,Sold by private treaty 16 Aug 2022,20220816,13 Alera Street,WANDINA,WA,6530,-28.818121,114.639122,4,2,2,House,House,False,684,m2,False
2017863170,listing,/8-41-blencowe-road-utakarra-wa-6530-2017863170,230000,is-sold,Sold by private treaty 17 Aug 2022,20220817,8/41 Blencowe Road,UTAKARRA,WA,6530,-28.7833748,114.636383,3,2,2,ApartmentUnitFlat,Apartment / Unit / Flat,False,0,m2,False
2017877866,listing,/7-mayne-place-tarcoola-beach-wa-6530-2017877866,360000,is-sold,Sold by private treaty 11 Aug 2022,20220811,7 Mayne Place,TARCOOLA BEACH,WA,6530,-28.80689,114.622887,4,1,1,House,House,False,731,m2,False
2017891538,listing,/7-bell-court-mount-tarcoola-wa-6530-2017891538,435000,is-sold,Sold by private treaty 17 Aug 2022,20220817,7 Bell Court,MOUNT TARCOOLA,WA,6530,-28.80769,114.629448,4,2,4,House,House,False,975,m2,False
2017905719,listing,/12-forden-street-mount-tarcoola-wa-6530-2017905719,336000,is-sold,Sold by private treaty 15 Aug 2022,20220815,12 Forden Street,MOUNT TARCOOLA,WA,6530,-28.8038235,114.628708,3,1,1,House,House,False,832,m2,False
2017912066,listing,/2-15-carter-street-geraldton-wa-6530-2017912066,,is-sold,Sold by private treaty 17 Aug 2022,20220817,2/15 Carter street,GERALDTON,WA,6530,-28.7790031,114.6323,2,1,2,ApartmentUnitFlat,Apartment / Unit / Flat,False,37,m2,False
2017915622,listing,/83-mitchell-street-spalding-wa-6530-2017915622,200500,is-sold,Sold by private treaty 14 Aug 2022,20220814,83 Mitchell Street,SPALDING,WA,6530,-28.7418613,114.630867,3,1,2,House,House,False,877,m2,False
2017952700,listing,/226-sixth-street-wonthella-wa-6530-2017952700,300000,is-sold,Sold by private treaty 17 Aug 2022,20220817,226 Sixth Street,WONTHELLA,WA,6530,-28.766325,114.627594,4,2,1,House,House,False,941,m2,False
2017980864,listing,/36-coffee-pot-drive-waggrakine-wa-6530-2017980864,575000,is-sold,Sold by private treaty 12 Aug 2022,20220812,36 Coffee Pot Drive,WAGGRAKINE,WA,6530,-28.7054424,114.669777,3,2,2,House,House,True,2,ha,False
2017981874,listing,/28-malcolm-street-bluff-point-wa-6530-2017981874,590000,is-sold,Sold by private treaty 11 Aug 2022,20220811,28 Malcolm Street,BLUFF POINT,WA,6530,-28.7330647,114.621681,3,1,2,House,House,False,1268,m2,False
2017990395,listing,/28-yarraman-road-waggrakine-wa-6530-2017990395,,is-sold,Sold by private treaty 13 Aug 2022,20220813,28 Yarraman Road,WAGGRAKINE,WA,6530,-28.721817,114.634995,3,2,2,House,House,False,728,m2,False
2017408631,listing,/116-abraham-street-karloo-wa-6530-2017408631,170000,is-sold,Sold by private treaty 05 Aug 2022,20220805,116 Abraham Street,KARLOO,WA,6530,-28.78928,114.6407,3,1,2,House,House,False,865,m2,False
2017586492,listing,/1-137-george-road-beresford-wa-6530-2017586492,145000,is-sold,Sold by private treaty 05 Aug 2022,20220805,1/137 George Road,BERESFORD,WA,6530,-28.7635727,114.618874,2,1,,ApartmentUnitFlat,Apartment / Unit / Flat,False,65,m2,False
2017623761,listing,/227b-sixth-street-wonthella-wa-6530-2017623761,175000,is-sold,Sold by private treaty 10 Aug 2022,20220810,227B Sixth Street,WONTHELLA,WA,6530,-28.76577,114.627586,2,1,1,House,House,False,703,m2,False
2017624194,listing,/12-marsh-place-mount-tarcoola-wa-6530-2017624194,313000,is-sold,Sold by private treaty 08 Aug 2022,20220808,12 Marsh Place,MOUNT TARCOOLA,WA,6530,-28.7961178,114.624443,3,1,1,House,House,False,800,m2,False
2017746144,listing,/42-eastern-road-geraldton-wa-6530-2017746144,305000,is-sold,Sold by private treaty 02 Aug 2022,20220802,42 Eastern Road,GERALDTON,WA,6530,-28.7740517,114.61908,3,2,2,House,House,False,794,m2,False
