id,listingType,url,price,tagClassName,tagText,date,street,suburb,state,postcode,lat,lng,beds,baths,parking,propertyType,propertyTypeFormatted,isRural,landSize,landUnit,isRetirement
2018331635,listing,/3-koluri-court-lindisfarne-tas-7015-2018331635,2500000,is-sold,Sold by private treaty 27 Feb 2023,20230227,3 Koluri Court,LINDISFARNE,TAS,7015,-42.85084,147.346985,3,3,3,House,House,False,1585.0,m2,False
2018117774,listing,/1-3-lowlynn-court-geilston-bay-tas-7015-2018117774,,is-sold,Sold by private treaty 01 Mar 2023,20230301,1/3 Lowlynn Court,GEILSTON BAY,TAS,7015,-42.8282356,147.3431,3,3,3,House,House,False,402.0,m2,False
2018045531,listing,/45-walana-street-geilston-bay-tas-7015-2018045531,750000,is-sold,Sold by private treaty 09 Jan 2023,20230109,45 Walana Street,GEILSTON BAY,TAS,7015,-42.8381233,147.3624,4,4,4,House,House,False,690.0,m2,False
2018110049,listing,/136-flagstaff-gully-road-lindisfarne-tas-7015-2018110049,730000,is-sold,Sold by private treaty 23 Jan 2023,20230123,136 Flagstaff Gully Road,LINDISFARNE,TAS,7015,-42.85253,147.377914,4,4,4,House,House,False,640.0,m2,False
2018167694,listing,/3-thoona-street-geilston-bay-tas-7015-2018167694,,is-sold,Sold by private treaty 06 Feb 2023,20230206,3 Thoona Street,GEILSTON BAY,TAS,7015,-42.8366547,147.360825,4,4,4,House,House,False,756.0,m2,False
2018194030,listing,/5-141-gordons-hill-road-lindisfarne-tas-7015-2018194030,,is-sold,Sold by private treaty 13 Jan 2023,20230113,5/141 Gordons Hill Road,LINDISFARNE,TAS,7015,-42.85068,147.370239,2,2,2,Villa,Villa,False,311.0,m2,False
2018194289,listing,/60-karoola-road-lindisfarne-tas-7015-2018194289,745000,is-sold,Sold by private treaty 22 Feb 2023,20230222,60 Karoola Road,LINDISFARNE,TAS,7015,-42.84344,147.359955,3,3,3,House,House,False,969.0,m2,False
2018213151,listing,/13-tianna-road-lindisfarne-tas-7015-2018213151,690000,is-sold,Sold by private treaty 31 Jan 2023,20230131,13 Tianna Road,LINDISFARNE,TAS,7015,-42.8450356,147.349,3,3,3,House,House,False,1002.0,m2,False
2018226199,listing,/90-clinton-road-geilston-bay-tas-7015-2018226199,756800,is-sold,Sold by private treaty 10 Jan 2023,20230110,90 Clinton Road,GEILSTON BAY,TAS,7015,-42.8281555,147.347626,3,3,3,House,House,False,1012.0,m2,False
2018239967,listing,/1-13a-raminea-road-lindisfarne-tas-7015-2018239967,,is-sold,Sold by private treaty 24 Jan 2023,20230124,1/13A Raminea Road,LINDISFARNE,TAS,7015,-42.8458824,147.352646,2,2,2,House,House,False,287.0,m2,False
2018241501,listing,/10-avoca-street-lindisfarne-tas-7015-2018241501,700000,is-sold,Sold by private treaty 16 Feb 2023,20230216,10 Avoca Street,LINDISFARNE,TAS,7015,-42.85123,147.370682,3,3,3,House,House,False,723.0,m2,False
2018247411,listing,/17-nietta-road-lindisfarne-tas-7015-2018247411,675000,is-sold,Sold by private treaty 20 Feb 2023,20230220,17 Nietta Road,LINDISFARNE,TAS,7015,-42.85058,147.3632,2,2,2,House,House,False,751.0,m2,False
2018257012,listing,/48-siandra-crescent-geilston-bay-tas-7015-2018257012,650500,is-sold,Sold by private treaty 18 Jan 2023,20230118,48 Siandra Crescent,GEILSTON BAY,TAS,7015,-42.83625,147.35437,3,3,3,House,House,False,647.0,m2,False
2018261869,listing,/17-katrina-court-lindisfarne-tas-7015-2018261869,,is-sold,Sold by private treaty 10 Feb 2023,20230210,17 Katrina Court,LINDISFARNE,TAS,7015,-42.8499222,147.369965,4,4,4,House,House,False,1077.0,m2,False
2018262901,listing,/1-8-milford-street-lindisfarne-tas-7015-2018262901,,is-sold,Sold by private treaty 20 Feb 2023,20230220,1/8 Milford Street,LINDISFARNE,TAS,7015,-42.84724,147.356262,2,2,2,House,House,False,342.0,m2,False
2018278230,listing,/18-lowelly-road-lindisfarne-tas-7015-2018278230,800000,is-sold,Sold by private treaty 10 Feb 2023,20230210,18 Lowelly Road,LINDISFARNE,TAS,7015,-42.8481522,147.3614,3,3,3,House,House,False,723.0,m2,False
2018283001,listing,/13-florelyn-terrace-geilston-bay-tas-7015-2018283001,724000,is-sold,Sold by private treaty 07 Feb 2023,20230207,13 Florelyn Terrace,GEILSTON BAY,TAS,7015,-42.8298836,147.349518,4,4,4,House,House,False,701.0,m2,False
2018305741,listing,/9-3-nietta-road-lindisfarne-tas-7015-2018305741,416000,is-sold,Sold by private treaty 22 Feb 2023,20230222,9/3 Nietta Road,LINDISFARNE,TAS,7015,-42.8503,147.36145,2,2,2,ApartmentUnitFlat,Apartment / Unit / Flat,False,81.0,m2,False
2018320954,listing,/3-topham-street-rose-bay-tas-7015-2018320954,950000,is-sold,Sold by private treaty 09 Feb 2023,20230209,3 Topham Street,ROSE BAY,TAS,7015,-42.8583336,147.354111,3,3,3,House,House,False,465.0,m2,False
2018365433,listing,/170-derwent-avenue-lindisfarne-tas-7015-2018365433,800000,is-sold,Sold by private treaty 02 Mar 2023,20230302,170 Derwent Avenue,LINDISFARNE,TAS,7015,-42.8465042,147.343445,3,3,3,House,House,False,797.0,m2,False
2017875637,listing,/4-40-topham-street-rose-bay-tas-7015-2017875637,,is-sold,Sold by private treaty 23 Nov 2022,20221123,4/40 Topham Street,ROSE BAY,TAS,7015,-42.8608437,147.354233,2,2,2,ApartmentUnitFlat,Apartment / Unit / Flat,False,129.0,m2,False
2017894190,listing,/57-kaoota-road-rose-bay-tas-7015-2017894190,900000,is-sold,Sold by private treaty 22 Dec 2022,20221222,57 Kaoota Road,ROSE BAY,TAS,7015,-42.85798,147.357361,3,3,3,House,House,False,797.0,m2,False
2018060559,listing,/7-manly-avenue-lindisfarne-tas-7015-2018060559,780000,is-sold,Sold by private treaty 20 Dec 2022,20221220,7 Manly Avenue,LINDISFARNE,TAS,7015,-42.85286,147.366,4,4,4,House,House,False,531.0,m2,False
2018074521,listing,/27-nelumie-street-lindisfarne-tas-7015-2018074521,900000,is-sold,Sold by private treaty 01 Dec 2022,20221201,27 Nelumie Street,LINDISFARNE,TAS,7015,-42.8437462,147.352448,3,3,3,House,House,False,663.0,m2,False
2018087266,listing,/8-rowitta-road-lindisfarne-tas-7015-2018087266,720000,is-sold,Sold by private treaty 09 Jan 2023,20230109,8 Rowitta Road,LINDISFARNE,TAS,7015,-42.84482,147.3546,3,3,3,House,House,False,405.0,m2,False
2018104462,listing,/22-eurobin-street-geilston-bay-tas-7015-2018104462,785000,is-sold,Sold by private treaty 22 Nov 2022,20221122,22 Eurobin Street,GEILSTON BAY,TAS,7015,-42.8344727,147.361145,3,3,3,House,House,False,668.0,m2,False
2018119814,listing,/66-derwent-avenue-geilston-bay-tas-7015-2018119814,740000,is-sold,Sold by private treaty 23 Dec 2022,20221223,66 Derwent Avenue,GEILSTON BAY,TAS,7015,-42.84174,147.343384,3,3,3,House,House,False,781.0,m2,False
2018122537,listing,/9-hillmorton-road-lindisfarne-tas-7015-2018122537,,is-sold,Sold by private treaty 08 Jan 2023,20230108,9 Hillmorton Road,LINDISFARNE,TAS,7015,-42.84921,147.375549,4,4,4,House,House,False,682.0,m2,False
2018148554,listing,/12-walana-street-geilston-bay-tas-7015-2018148554,715000,is-sold,Sold by private treaty 23 Dec 2022,20221223,12 Walana Street,GEILSTON BAY,TAS,7015,-42.8365135,147.361465,3,3,3,House,House,False,627.0,m2,False
2018167831,listing,/96-malunna-road-lindisfarne-tas-7015-2018167831,807500,is-sold,Sold by private treaty 21 Nov 2022,20221121,96 Malunna Road,LINDISFARNE,TAS,7015,-42.84771,147.367767,3,3,3,House,House,False,634.0,m2,False
2018181449,listing,/26-manly-avenue-lindisfarne-tas-7015-2018181449,700000,is-sold,Sold by private treaty 22 Dec 2022,20221222,26 Manly Avenue,LINDISFARNE,TAS,7015,-42.85266,147.36792,4,4,4,House,House,False,576.0,m2,False
2018181499,listing,/1-44-topham-street-rose-bay-tas-7015-2018181499,575000,is-sold,Sold by private treaty 03 Jan 2023,20230103,1/44 Topham Street,ROSE BAY,TAS,7015,-42.86146,147.353653,2,2,2,ApartmentUnitFlat,Apartment / Unit / Flat,False,230.0,m2,False
2018181753,listing,/12-musgrove-road-geilston-bay-tas-7015-2018181753,1410000,is-sold,Sold at auction 01 Dec 2022,20221201,12 Musgrove Road,GEILSTON BAY,TAS,7015,-42.83934,147.344208,3,3,3,House,House,False,566.0,m2,False
2018199909,listing,/8-st-helens-street-lindisfarne-tas-7015-2018199909,795000,is-sold,Sold by private treaty 25 Nov 2022,20221125,8 St Helens Street,LINDISFARNE,TAS,7015,-42.8529739,147.365387,4,4,4,House,House,False,592.0,m2,False
2018209458,listing,/83-gordons-hill-road-lindisfarne-tas-7015-2018209458,630000,is-sold,Sold by private treaty 03 Jan 2023,20230103,83 Gordons Hill Road,LINDISFARNE,TAS,7015,-42.8554077,147.372757,3,3,3,House,House,False,548.0,m2,False
2018211007,listing,/1-52-malunna-road-lindisfarne-tas-7015-2018211007,1175000,is-sold,Sold by private treaty 30 Nov 2022,20221130,1/52 Malunna Road,LINDISFARNE,TAS,7015,-42.8458481,147.360245,3,3,3,ApartmentUnitFlat,Apartment / Unit / Flat,False,373.0,m2,False
2018212438,listing,/33-corinna-road-lindisfarne-tas-7015-2018212438,720000,is-sold,Sold by private treaty 15 Dec 2022,20221215,33 Corinna Road,LINDISFARNE,TAS,7015,-42.8425446,147.355453,3,3,3,House,House,False,564.0,m2,False
2018214100,listing,/25a-talune-street-lindisfarne-tas-7015-2018214100,,is-sold,Sold by private treaty 23 Nov 2022,20221123,25a Talune Street,LINDISFARNE,TAS,7015,-42.85089,147.345627,3,3,3,House,House,False,1581.0,m2,False
2018215886,listing,/86-karoola-road-lindisfarne-tas-7015-2018215886,,is-sold,Sold by private treaty 27 Dec 2022,20221227,86 Karoola Road,LINDISFARNE,TAS,7015,-42.8452263,147.36264,3,3,3,House,House,False,1151.0,m2,False
2018236739,listing,/2-15-topham-street-rose-bay-tas-7015-2018236739,525000,is-sold,Sold by private treaty 15 Dec 2022,20221215,2/15 Topham Street,ROSE BAY,TAS,7015,-42.8593521,147.353439,2,2,2,House,House,False,0.0,m2,False
2017879303,listing,/1-87-east-derwent-highway-lindisfarne-tas-7015-2017879303,450000,is-sold,Sold by private treaty 10 Oct 2022,20221010,1/87 East Derwent Highway,LINDISFARNE,TAS,7015,-42.85283,147.357925,2,2,2,ApartmentUnitFlat,Apartment / Unit / Flat,False,102.0,m2,False
2017948165,listing,/46-karoola-road-lindisfarne-tas-7015-2017948165,765000,is-sold,Sold by private treaty 10 Oct 2022,20221010,46 Karoola Road,LINDISFARNE,TAS,7015,-42.84254,147.358582,3,3,3,House,House,False,903.0,m2,False
2017955541,listing,/4-ford-parade-lindisfarne-tas-7015-2017955541,1600000,is-sold,Sold by private treaty 24 Oct 2022,20221024,4 Ford Parade,LINDISFARNE,TAS,7015,-42.85059,147.352966,3,3,3,House,House,False,572.0,m2,False
2018015500,listing,/2-6-ballawinnie-road-lindisfarne-tas-7015-2018015500,721000,is-sold,Sold by private treaty 03 Nov 2022,20221103,2/6 Ballawinnie Road,LINDISFARNE,TAS,7015,-42.8504333,147.358841,3,3,3,Villa,Villa,False,349.0,m2,False
2018047995,listing,/5-marion-court-lindisfarne-tas-7015-2018047995,790000,is-sold,Sold by private treaty 21 Oct 2022,20221021,5 Marion Court,LINDISFARNE,TAS,7015,-42.84479,147.366119,4,4,4,House,House,False,751.0,m2,False
2018059707,listing,/62-malunna-road-lindisfarne-tas-7015-2018059707,829000,is-sold,Sold by private treaty 16 Nov 2022,20221116,62 Malunna Road,LINDISFARNE,TAS,7015,-42.8463135,147.362183,4,4,4,House,House,False,807.0,m2,False
2018089195,listing,/57-loatta-road-rose-bay-tas-7015-2018089195,711000,is-sold,Sold by private treaty 03 Oct 2022,20221003,57 Loatta Road,ROSE BAY,TAS,7015,-42.8545761,147.361328,3,3,3,House,House,False,720.0,m2,False
2018090210,listing,/19-elwood-drive-lindisfarne-tas-7015-2018090210,930000,is-sold,Sold by private treaty 14 Nov 2022,20221114,19 Elwood Drive,LINDISFARNE,TAS,7015,-42.8546677,147.36647,5,5,5,House,House,False,590.0,m2,False
2018096499,listing,/20a-east-derwent-highway-rose-bay-tas-7015-2018096499,950000,is-sold,Sold by private treaty 08 Oct 2022,20221008,20A East Derwent Highway,ROSE BAY,TAS,7015,-42.85897,147.356354,4,4,4,House,House,False,406.0,m2,False
2018103644,listing,/61-lindhill-avenue-geilston-bay-tas-7015-2018103644,750000,is-sold,Sold by private treaty 10 Oct 2022,20221010,61 Lindhill Avenue,GEILSTON BAY,TAS,7015,-42.841198,147.358246,4,4,4,House,House,False,582.0,m2,False
2018107961,listing,/65-begonia-street-lindisfarne-tas-7015-2018107961,795000,is-sold,Sold by private treaty 12 Oct 2022,20221012,65 Begonia Street,LINDISFARNE,TAS,7015,-42.8467255,147.371216,3,3,3,House,House,False,592.0,m2,False
2018108022,listing,/1-102-gordons-hill-road-lindisfarne-tas-7015-2018108022,656000,is-sold,Sold by private treaty 09 Oct 2022,20221009,1/102 Gordons Hill Road,LINDISFARNE,TAS,7015,-42.8525963,147.369522,3,3,3,Villa,Villa,False,447.0,m2,False
2018108378,listing,/2-4a-lenna-st-rose-bay-tas-7015-2018108378,386000,is-sold,Sold by private treaty 11 Oct 2022,20221011,2/4A Lenna St,ROSE BAY,TAS,7015,-42.8583069,147.3567,1,1,1,ApartmentUnitFlat,Apartment / Unit / Flat,False,178.0,m2,False
2018134879,listing,/117-flagstaff-gully-road-lindisfarne-tas-7015-2018134879,550000,is-sold,Sold by private treaty 16 Nov 2022,20221116,117 Flagstaff Gully Road,LINDISFARNE,TAS,7015,-42.8531952,147.379257,3,3,3,House,House,False,553.0,m2,False
2018148552,listing,/17-greenacres-road-geilston-bay-tas-7015-2018148552,845000,is-sold,Sold by private treaty 16 Nov 2022,20221116,17 Greenacres Road,GEILSTON BAY,TAS,7015,-42.83993,147.357544,3,3,3,House,House,False,655.0,m2,False
2018149419,listing,/4-34-clinton-road-geilston-bay-tas-7015-2018149419,712000,is-sold,Sold by private treaty 25 Oct 2022,20221025,4/34 Clinton Road,GEILSTON BAY,TAS,7015,-42.83182,147.351913,3,3,3,Townhouse,Townhouse,False,249.0,m2,False
2018150185,listing,/17-florelyn-terrace-geilston-bay-tas-7015-2018150185,,is-sold,Sold by private treaty 15 Nov 2022,20221115,17 Florelyn Terrace,GEILSTON BAY,TAS,7015,-42.82943,147.349442,4,4,4,House,House,False,1229.0,m2,False
2018152201,listing,/18-fairfield-road-geilston-bay-tas-7015-2018152201,780000,is-sold,Sold by private treaty 01 Nov 2022,20221101,18 Fairfield Road,GEILSTON BAY,TAS,7015,-42.8362427,147.357971,4,4,4,House,House,False,746.0,m2,False
2018168841,listing,/1-74-clinton-road-geilston-bay-tas-7015-2018168841,751000,is-sold,Sold by private treaty 16 Nov 2022,20221116,1/74 Clinton Road,GEILSTON BAY,TAS,7015,-42.8292847,147.34877,3,3,3,ApartmentUnitFlat,Apartment / Unit / Flat,False,0.0,m2,False
2018170020,listing,/45-begonia-street-lindisfarne-tas-7015-2018170020,880000,is-sold,Sold by private treaty 14 Nov 2022,20221114,45 Begonia Street,LINDISFARNE,TAS,7015,-42.8455925,147.369476,4,4,4,House,House,False,617.0,m2,False
2017795054,listing,/9-annabella-court-geilston-bay-tas-7015-2017795054,250000,is-sold,Sold by private treaty 02 Sep 2022,20220902,9 Annabella Court,GEILSTON BAY,TAS,7015,-42.8260345,147.342621,,,,VacantLand,Vacant land,False,1887.0,m2,False
2017796159,listing,/202-east-derwent-highway-lindisfarne-tas-7015-2017796159,680000,is-sold,Sold by private treaty 15 Sep 2022,20220915,202 East Derwent Highway,LINDISFARNE,TAS,7015,-42.8443375,147.3566,3,3,3,House,House,False,496.0,m2,False
2017839101,listing,/1-3a-loatta-road-lindisfarne-tas-7015-2017839101,960000,is-sold,Sold by private treaty 01 Sep 2022,20220901,1/3a Loatta Road,LINDISFARNE,TAS,7015,-42.85049,147.36499,3,3,3,House,House,False,0.0,m2,False
2017913650,listing,/32-golf-links-road-geilston-bay-tas-7015-2017913650,600000,is-sold,Sold by private treaty 07 Sep 2022,20220907,32 Golf Links Road,GEILSTON BAY,TAS,7015,-42.8384,147.355652,3,3,3,House,House,False,668.0,m2,False
2017935273,listing,/1-42-topham-street-rose-bay-tas-7015-2017935273,585000,is-sold,Sold by private treaty 13 Sep 2022,20220913,1/42 Topham Street,ROSE BAY,TAS,7015,-42.86125,147.353653,2,2,2,ApartmentUnitFlat,Apartment / Unit / Flat,False,216.0,m2,False
2017938545,listing,/4-3-cyrus-court-rose-bay-tas-7015-2017938545,720000,is-sold,Sold by private treaty 15 Sep 2022,20220915,4/3 Cyrus Court,ROSE BAY,TAS,7015,-42.86062,147.356476,2,2,2,ApartmentUnitFlat,Apartment / Unit / Flat,False,316.0,m2,False
2017944436,listing,/1-91-gordons-hill-road-lindisfarne-tas-7015-2017944436,560000,is-sold,Sold by private treaty 27 Sep 2022,20220927,1/91 Gordons Hill Road,LINDISFARNE,TAS,7015,-42.84812,147.363968,2,2,2,Villa,Villa,False,281.0,m2,False
2017972399,listing,/36-natone-street-lindisfarne-tas-7015-2017972399,575000,is-sold,Sold by private treaty 06 Sep 2022,20220906,36 Natone Street,LINDISFARNE,TAS,7015,-42.8476334,147.348175,2,2,2,House,House,False,400.0,m2,False
2017976687,listing,/5-thoona-street-geilston-bay-tas-7015-2017976687,910000,is-sold,Sold by private treaty 09 Sep 2022,20220909,5 Thoona Street,GEILSTON BAY,TAS,7015,-42.8366928,147.36058,3,3,3,House,House,False,1452.0,m2,False
2018000455,listing,/8-talune-street-lindisfarne-tas-7015-2018000455,1200000,is-sold,Sold by private treaty 08 Sep 2022,20220908,8 Talune Street,LINDISFARNE,TAS,7015,-42.84876,147.345016,2,2,2,House,House,False,1614.0,m2,False
2018016374,listing,/3-musgrove-road-geilston-bay-tas-7015-2018016374,715000,is-sold,Sold by private treaty 21 Sep 2022,20220921,3 Musgrove Road,GEILSTON BAY,TAS,7015,-42.84023,147.344467,3,3,3,House,House,False,670.0,m2,False
2018016879,listing,/62-loatta-road-rose-bay-tas-7015-2018016879,1170000,is-sold,Sold by private treaty 15 Sep 2022,20220915,62 Loatta Road,ROSE BAY,TAS,7015,-42.85549,147.360687,4,4,4,House,House,False,626.0,m2,False
2018019271,listing,/54-lindhill-avenue-geilston-bay-tas-7015-2018019271,705000,is-sold,Sold by private treaty 30 Aug 2022,20220830,54 Lindhill Avenue,GEILSTON BAY,TAS,7015,-42.84071,147.358536,3,3,3,House,House,False,599.0,m2,False
2018029733,listing,/27-talune-street-lindisfarne-tas-7015-2018029733,1505000,is-sold,Sold by private treaty 05 Sep 2022,20220905,27 Talune Street,LINDISFARNE,TAS,7015,-42.84972,147.3465,4,4,4,House,House,False,622.0,m2,False
2018042529,listing,/34-astor-drive-geilston-bay-tas-7015-2018042529,708000,is-sold,Sold by private treaty 26 Sep 2022,20220926,34 Astor Drive,GEILSTON BAY,TAS,7015,-42.8370171,147.353256,3,3,3,House,House,False,0.0,m2,False
2018047545,listing,/55-fairfield-road-geilston-bay-tas-7015-2018047545,810000,is-sold,Sold by private treaty 28 Sep 2022,20220928,55 Fairfield Road,GEILSTON BAY,TAS,7015,-42.83926,147.357742,3,3,3,House,House,False,828.0,m2,False
2018052185,listing,/58-st-helens-street-lindisfarne-tas-7015-2018052185,1111000,is-sold,Sold by private treaty 29 Sep 2022,20220929,58 St Helens Street,LINDISFARNE,TAS,7015,-42.8554153,147.369766,5,5,5,House,House,False,661.0,m2,False
2018059849,listing,/99-clinton-road-geilston-bay-tas-7015-2018059849,556000,is-sold,Sold by private treaty 29 Sep 2022,20220929,99 Clinton Road,GEILSTON BAY,TAS,7015,-42.8276558,147.346664,2,2,2,House,House,False,698.0,m2,False
2018060325,listing,/24-cedar-street-lindisfarne-tas-7015-2018060325,690000,is-sold,Sold by private treaty 20 Sep 2022,20220920,24 Cedar Street,LINDISFARNE,TAS,7015,-42.84912,147.3688,2,2,2,House,House,False,652.0,m2,False
2018067581,listing,/1-greenacres-road-geilston-bay-tas-7015-2018067581,770000,is-sold,Sold by private treaty 29 Sep 2022,20220929,1 Greenacres Road,GEILSTON BAY,TAS,7015,-42.8392868,147.359039,3,3,3,House,House,False,630.0,m2,False
2017145315,listing,/c-72-malunna-road-lindisfarne-tas-7015-2017145315,1100000,is-sold,Sold by private treaty 01 Aug 2022,20220801,C/72 Malunna Road,LINDISFARNE,TAS,7015,-42.8466034,147.363327,3,3,3,House,House,False,0.0,m2,False
2017804290,listing,/151-derwent-avenue-lindisfarne-tas-7015-2017804290,905000,is-sold,Sold by private treaty 02 Aug 2022,20220802,151 Derwent Avenue,LINDISFARNE,TAS,7015,-42.8485031,147.3474,3,3,3,House,House,False,1242.0,m2,False
2017835913,listing,/50-east-derwent-highway-rose-bay-tas-7015-2017835913,755500,is-sold,Sold by private treaty 18 Aug 2022,20220818,50 East Derwent Highway,ROSE BAY,TAS,7015,-42.8563881,147.357208,3,3,3,House,House,False,702.0,m2,False
2017840314,listing,/16-andreas-place-geilston-bay-tas-7015-2017840314,805000,is-sold,Sold by private treaty 14 Jul 2022,20220714,16 Andreas Place,GEILSTON BAY,TAS,7015,-42.8334045,147.346054,3,3,3,House,House,False,774.0,m2,False
2017851488,listing,/25-cornwall-street-rose-bay-tas-7015-2017851488,1200000,is-sold,Sold by private treaty 25 Jul 2022,20220725,25 Cornwall Street,ROSE BAY,TAS,7015,-42.85851,147.359146,3,3,3,House,House,False,668.0,m2,False
2017880287,listing,/24-cornwall-street-rose-bay-tas-7015-2017880287,,is-sold,Sold by private treaty 12 Jul 2022,20220712,24 Cornwall Street,ROSE BAY,TAS,7015,-42.8583,147.358612,5,5,5,House,House,False,670.0,m2,False
2017895643,listing,/34-cottesloe-street-lindisfarne-tas-7015-2017895643,796000,is-sold,Sold by private treaty 22 Jul 2022,20220722,34 Cottesloe Street,LINDISFARNE,TAS,7015,-42.8520279,147.3652,3,3,3,House,House,False,579.0,m2,False
2017898611,listing,/10-oliver-avenue-lindisfarne-tas-7015-2017898611,990000,is-sold,Sold by private treaty 22 Aug 2022,20220822,10 Oliver Avenue,LINDISFARNE,TAS,7015,-42.847332,147.349,5,5,5,House,House,False,856.0,m2,False
2017898807,listing,/48-piper-road-geilston-bay-tas-7015-2017898807,,is-sold,Sold by private treaty 22 Jul 2022,20220722,48 Piper Road,GEILSTON BAY,TAS,7015,-42.81887,147.337158,2,2,2,House,House,True,2.81,ha,False
2017903256,listing,/1-2-ford-parade-lindisfarne-tas-7015-2017903256,1220000,is-sold,Sold by private treaty 08 Aug 2022,20220808,1/2 Ford Parade,LINDISFARNE,TAS,7015,-42.8507042,147.352478,3,3,3,House,House,False,444.0,m2,False
2017909405,listing,/82a-east-derwent-highway-lindisfarne-tas-7015-2017909405,,is-sold,Sold by private treaty 19 Aug 2022,20220819,82A East Derwent Highway,LINDISFARNE,TAS,7015,-42.852478,147.35997,3,3,3,Townhouse,Townhouse,False,487.0,m2,False
2017910939,listing,/244-derwent-avenue-lindisfarne-tas-7015-2017910939,1010000,is-sold,Sold by private treaty 21 Jul 2022,20220721,244 Derwent Avenue,LINDISFARNE,TAS,7015,-42.8436661,147.3574,3,3,3,House,House,False,623.0,m2,False
2017938572,listing,/1-163-derwent-avenue-lindisfarne-tas-7015-2017938572,715000,is-sold,Sold by private treaty 03 Aug 2022,20220803,1/163 Derwent Avenue,LINDISFARNE,TAS,7015,-42.84785,147.350021,3,3,3,ApartmentUnitFlat,Apartment / Unit / Flat,False,287.0,m2,False
2017944844,listing,/2-jove-court-lindisfarne-tas-7015-2017944844,950000,is-sold,Sold by private treaty 23 Jul 2022,20220723,2 Jove Court,LINDISFARNE,TAS,7015,-42.8516769,147.3767,4,4,4,House,House,False,1133.0,m2,False
2017953533,listing,/2-ambleside-lindisfarne-tas-7015-2017953533,,is-sold,Sold by private treaty 18 Aug 2022,20220818,2 Ambleside,LINDISFARNE,TAS,7015,-42.84615,147.3403,4,4,4,House,House,False,1214.0,m2,False
2017955492,listing,/211-east-derwent-highway-lindisfarne-tas-7015-2017955492,733000,is-sold,Sold by private treaty 03 Aug 2022,20220803,211 East Derwent Highway,LINDISFARNE,TAS,7015,-42.84467,147.356186,3,3,3,House,House,False,652.0,m2,False
2017984560,listing,/3-sovereign-court-geilston-bay-tas-7015-2017984560,920000,is-sold,Sold by private treaty 08 Aug 2022,20220808,3 Sovereign Court,GEILSTON BAY,TAS,7015,-42.8360252,147.355591,5,5,5,House,House,False,741.0,m2,False
2017984575,listing,/53-esplanade-lindisfarne-tas-7015-2017984575,2600000,is-sold,Sold by private treaty 30 Aug 2022,20220830,53 Esplanade,LINDISFARNE,TAS,7015,-42.85276,147.357346,5,5,5,House,House,False,2352.0,m2,False
2018013806,listing,/34-cottesloe-street-lindisfarne-tas-7015-2018013806,796000,is-sold,Sold by private treaty 22 Jul 2022,20220722,34 Cottesloe Street,LINDISFARNE,TAS,7015,-42.8520279,147.3652,3,3,3,House,House,False,579.0,m2,False
2018048200,listing,/211-east-derwent-highway-lindisfarne-tas-7015-2018048200,733000,is-sold,Sold by private treaty 02 Aug 2022,20220802,211 East Derwent Highway,LINDISFARNE,TAS,7015,-42.84467,147.356186,3,3,3,House,House,False,652.0,m2,False
2017671413,listing,/5-14a-lowelly-road-lindisfarne-tas-7015-2017671413,515000,is-sold,Sold by private treaty 08 Jun 2022,20220608,5/14A Lowelly Road,LINDISFARNE,TAS,7015,-42.8478165,147.361267,2,2,2,ApartmentUnitFlat,Apartment / Unit / Flat,False,118.0,m2,False
2017696215,listing,/28-robin-court-lindisfarne-tas-7015-2017696215,890000,is-sold,Sold by private treaty 11 Jul 2022,20220711,28 Robin Court,LINDISFARNE,TAS,7015,-42.8433075,147.367767,5,5,5,House,House,False,648.0,m2,False
2017757422,listing,/52-wellington-road-lindisfarne-tas-7015-2017757422,770000,is-sold,Sold by private treaty 20 Jun 2022,20220620,52 Wellington Road,LINDISFARNE,TAS,7015,-42.845356,147.350845,3,3,3,House,House,False,635.0,m2,False
2017788788,listing,/164-derwent-avenue-lindisfarne-tas-7015-2017788788,1025000,is-sold,Sold by private treaty 07 Jun 2022,20220607,164 Derwent Avenue,LINDISFARNE,TAS,7015,-42.84668,147.3428,4,4,4,House,House,False,1328.0,m2,False
2017806178,listing,/8-34a-clinton-road-geilston-bay-tas-7015-2017806178,670000,is-sold,Sold by private treaty 30 Jun 2022,20220630,8/34A Clinton Road,GEILSTON BAY,TAS,7015,-42.8321571,147.349915,3,3,3,Townhouse,Townhouse,False,258.0,m2,False
2017808922,listing,/68-begonia-street-lindisfarne-tas-7015-2017808922,850000,is-sold,Sold by private treaty 10 Jun 2022,20220610,68 Begonia Street,LINDISFARNE,TAS,7015,-42.84641,147.368164,4,4,4,House,House,False,561.0,m2,False
2017820745,listing,/6-sunhaven-avenue-geilston-bay-tas-7015-2017820745,876000,is-sold,Sold by private treaty 14 Jun 2022,20220614,6 Sunhaven Avenue,GEILSTON BAY,TAS,7015,-42.8400459,147.344971,4,4,4,House,House,False,713.0,m2,False
2017822255,listing,/26-lowanna-road-lindisfarne-tas-7015-2017822255,,is-sold,Sold by private treaty 30 Jun 2022,20220630,26 Lowanna Road,LINDISFARNE,TAS,7015,-42.8402824,147.3549,4,4,4,House,House,False,883.0,m2,False
2017828730,listing,/8-loatta-road-lindisfarne-tas-7015-2017828730,767000,is-sold,Sold by private treaty 30 May 2022,20220530,8 Loatta Road,LINDISFARNE,TAS,7015,-42.85081,147.363571,2,2,2,House,House,False,564.0,m2,False
2017838413,listing,/5-10-lowelly-road-lindisfarne-tas-7015-2017838413,750000,is-sold,Sold by private treaty 09 Jun 2022,20220609,5/10 Lowelly Road,LINDISFARNE,TAS,7015,-42.8471642,147.36058,3,3,3,ApartmentUnitFlat,Apartment / Unit / Flat,False,429.0,m2,False
2017839216,listing,/133-flagstaff-gully-road-lindisfarne-tas-7015-2017839216,797000,is-sold,Sold by private treaty 06 Jun 2022,20220606,133 Flagstaff Gully Road,LINDISFARNE,TAS,7015,-42.8521576,147.378189,4,4,4,House,House,False,761.0,m2,False
2017839936,listing,/3a-esplanade-lindisfarne-tas-7015-2017839936,795000,is-sold,Sold by private treaty 21 Jun 2022,20220621,3a Esplanade,LINDISFARNE,TAS,7015,-42.8487778,147.353821,3,3,3,House,House,False,444.0,m2,False
2017840087,listing,/44-piper-road-geilston-bay-tas-7015-2017840087,1350000,is-sold,Sold by private treaty 15 Jun 2022,20220615,44 Piper Road,GEILSTON BAY,TAS,7015,-42.8203239,147.339417,5,5,5,House,House,True,2.03,ha,False
2017840264,listing,/116-karoola-road-lindisfarne-tas-7015-2017840264,1195000,is-sold,Sold by private treaty 08 Jun 2022,20220608,116 Karoola Road,LINDISFARNE,TAS,7015,-42.84524,147.365646,4,4,4,House,House,False,1133.0,m2,False
2017840801,listing,/20-oliver-avenue-lindisfarne-tas-7015-2017840801,870000,is-sold,Sold by private treaty 04 Jun 2022,20220604,20 Oliver Avenue,LINDISFARNE,TAS,7015,-42.8463936,147.34938,3,3,3,House,House,False,878.0,m2,False
2017841379,listing,/29-st-helens-street-lindisfarne-tas-7015-2017841379,750500,is-sold,Sold by private treaty 06 Jun 2022,20220606,29 St Helens Street,LINDISFARNE,TAS,7015,-42.85507,147.368683,3,3,3,House,House,False,650.0,m2,False
2017861661,listing,/31-cornwall-street-rose-bay-tas-7015-2017861661,885000,is-sold,Sold by private treaty 08 Jul 2022,20220708,31 Cornwall Street,ROSE BAY,TAS,7015,-42.8580627,147.359314,3,3,3,House,House,False,668.0,m2,False
2017872731,listing,/2-153-derwent-avenue-lindisfarne-tas-7015-2017872731,691550,is-sold,Sold by private treaty 23 Jun 2022,20220623,2/153 Derwent Avenue,LINDISFARNE,TAS,7015,-42.8487053,147.347641,3,3,3,House,House,False,324.0,m2,False
2018013718,listing,/31-cornwall-street-rose-bay-tas-7015-2018013718,885000,is-sold,Sold by private treaty 08 Jul 2022,20220708,31 Cornwall Street,ROSE BAY,TAS,7015,-42.8580627,147.359314,3,3,3,House,House,False,668.0,m2,False
2018024942,listing,/24-cornwall-street-rose-bay-tas-7015-2018024942,1115000,is-sold,Sold by private treaty 29 Jun 2022,20220629,24 Cornwall Street,ROSE BAY,TAS,7015,-42.85828,147.3586,5,5,5,House,House,False,670.0,m2,False
2017575821,listing,/6-derwent-avenue-geilston-bay-tas-7015-2017575821,670000,is-sold,Sold by private treaty 14 Apr 2022,20220414,6 Derwent Avenue,GEILSTON BAY,TAS,7015,-42.84012,147.351181,3,3,3,House,House,False,668.0,m2,False
2017596881,listing,/1-106-gordons-hill-road-lindisfarne-tas-7015-2017596881,600000,is-sold,Sold by private treaty 14 Apr 2022,20220414,1/106 Gordons Hill Road,LINDISFARNE,TAS,7015,-42.8520775,147.36969,3,3,3,Villa,Villa,False,403.0,m2,False
2017639682,listing,/18-radiata-drive-lindisfarne-tas-7015-2017639682,1160000,is-sold,Sold by private treaty 24 May 2022,20220524,18 Radiata Drive,LINDISFARNE,TAS,7015,-42.8541031,147.375275,4,4,4,House,House,False,1186.0,m2,False
2017642630,listing,/17-elwood-drive-lindisfarne-tas-7015-2017642630,943000,is-sold,Sold by private treaty 23 May 2022,20220523,17 Elwood Drive,LINDISFARNE,TAS,7015,-42.8544579,147.366409,5,5,5,House,House,False,772.0,m2,False
2017658097,listing,/12-east-derwent-highway-rose-bay-tas-7015-2017658097,655000,is-sold,Sold by private treaty 20 Apr 2022,20220420,12 East Derwent Highway,ROSE BAY,TAS,7015,-42.8595047,147.355789,3,3,3,House,House,False,508.0,m2,False
2017674765,listing,/82-east-derwent-highway-lindisfarne-tas-7015-2017674765,721500,is-sold,Sold by private treaty 22 Apr 2022,20220422,82 East Derwent Highway,LINDISFARNE,TAS,7015,-42.8525276,147.35994,3,3,3,ApartmentUnitFlat,Apartment / Unit / Flat,False,522.0,m2,False
2017677669,listing,/3-20-topham-street-rose-bay-tas-7015-2017677669,794000,is-sold,Sold by private treaty 14 Apr 2022,20220414,3/20 Topham Street,ROSE BAY,TAS,7015,-42.85949,147.354156,3,3,3,ApartmentUnitFlat,Apartment / Unit / Flat,False,280.0,m2,False
2017685919,listing,/20-malunna-road-lindisfarne-tas-7015-2017685919,825000,is-sold,Sold by private treaty 20 Apr 2022,20220420,20 Malunna Road,LINDISFARNE,TAS,7015,-42.8430939,147.356812,4,4,4,House,House,False,500.0,m2,False
2017694263,listing,/31-adina-street-geilston-bay-tas-7015-2017694263,675000,is-sold,Sold by private treaty 17 May 2022,20220517,31 Adina Street,GEILSTON BAY,TAS,7015,-42.8405571,147.360474,3,3,3,House,House,False,658.0,m2,False
2017711599,listing,/9-walana-street-geilston-bay-tas-7015-2017711599,752000,is-sold,Sold by private treaty 09 May 2022,20220509,9 Walana Street,GEILSTON BAY,TAS,7015,-42.8358727,147.361038,3,3,3,House,House,False,604.0,m2,False
2017715489,listing,/2-27-beach-road-lindisfarne-tas-7015-2017715489,541000,is-sold,Sold by private treaty 04 May 2022,20220504,2/27 Beach Road,LINDISFARNE,TAS,7015,-42.84727,147.364456,2,2,2,ApartmentUnitFlat,Apartment / Unit / Flat,False,284.0,m2,False
2017715759,listing,/176-flagstaff-gully-road-lindisfarne-tas-7015-2017715759,872500,is-sold,Sold by private treaty 12 Apr 2022,20220412,176 Flagstaff Gully Road,LINDISFARNE,TAS,7015,-42.84906,147.3772,4,4,4,House,House,False,663.0,m2,False
2017720278,listing,/99-malunna-road-lindisfarne-tas-7015-2017720278,766000,is-sold,Sold by private treaty 12 Apr 2022,20220412,99 Malunna Road,LINDISFARNE,TAS,7015,-42.8463821,147.366135,3,3,3,House,House,False,630.0,m2,False
2017724786,listing,/7-balandra-court-geilston-bay-tas-7015-2017724786,674444,is-sold,Sold by private treaty 29 Apr 2022,20220429,7 Balandra Court,GEILSTON BAY,TAS,7015,-42.83711,147.354385,3,3,3,House,House,False,589.0,m2,False
2017737350,listing,/5-130-gordons-hill-road-lindisfarne-tas-7015-2017737350,700000,is-sold,Sold by private treaty 24 Apr 2022,20220424,5/130 Gordons Hill Road,LINDISFARNE,TAS,7015,-42.8511467,147.366837,2,2,2,ApartmentUnitFlat,Apartment / Unit / Flat,False,297.0,m2,False
2017754330,listing,/3-12a-east-derwent-highway-rose-bay-tas-7015-2017754330,660000,is-sold,Sold by private treaty 23 May 2022,20220523,3/12A East Derwent Highway,ROSE BAY,TAS,7015,-42.8596268,147.356125,2,2,2,ApartmentUnitFlat,Apartment / Unit / Flat,False,339.0,m2,False
2017758040,listing,/73-geilston-creek-road-geilston-bay-tas-7015-2017758040,875000,is-sold,Sold by private treaty 05 May 2022,20220505,73 Geilston Creek Road,GEILSTON BAY,TAS,7015,-42.8335953,147.358978,4,4,4,House,House,False,627.0,m2,False
2017758372,listing,/9-lynch-street-geilston-bay-tas-7015-2017758372,710000,is-sold,Sold by private treaty 17 May 2022,20220517,9 Lynch Street,GEILSTON BAY,TAS,7015,-42.840744,147.3595,3,3,3,House,House,False,583.0,m2,False
2017769960,listing,/178-flagstaff-gully-road-lindisfarne-tas-7015-2017769960,572000,is-sold,Sold by private treaty 09 May 2022,20220509,178 Flagstaff Gully Road,LINDISFARNE,TAS,7015,-42.84886,147.377182,2,2,2,House,House,False,663.0,m2,False
2017772382,listing,/55-cornwall-street-rose-bay-tas-7015-2017772382,1700000,is-sold,Sold by private treaty 08 May 2022,20220508,55 Cornwall Street,ROSE BAY,TAS,7015,-42.85583,147.360184,4,4,4,House,House,False,741.0,m2,False
2017224768,listing,/21-henley-street-lindisfarne-tas-7015-2017224768,568000,is-sold,Sold by private treaty 29 Mar 2022,20220329,21 Henley Street,LINDISFARNE,TAS,7015,-42.85197,147.367218,3,3,3,House,House,False,554.0,m2,False
2017547731,listing,/13-lowlynn-court-geilston-bay-tas-7015-2017547731,290000,is-sold,Sold by private treaty 25 Mar 2022,20220325,13 Lowlynn Court,GEILSTON BAY,TAS,7015,-42.8282623,147.343124,,,,VacantLand,Vacant land,False,581.0,m2,False
2017575910,listing,/4-banawarra-street-geilston-bay-tas-7015-2017575910,840000,is-sold,Sold by private treaty 07 Mar 2022,20220307,4 Banawarra Street,GEILSTON BAY,TAS,7015,-42.8344574,147.357925,3,3,3,House,House,False,690.0,m2,False
2017608319,listing,/3-clunie-close-lindisfarne-tas-7015-2017608319,725000,is-sold,Sold by private treaty 24 Mar 2022,20220324,3 Clunie Close,LINDISFARNE,TAS,7015,-42.84114,147.353592,3,3,3,House,House,False,726.0,m2,False
2017611337,listing,/7-corinna-road-lindisfarne-tas-7015-2017611337,975000,is-sold,Sold by private treaty 09 Mar 2022,20220309,7 Corinna Road,LINDISFARNE,TAS,7015,-42.8446,147.3584,3,3,3,House,House,False,600.0,m2,False
2017625984,listing,/6-natone-street-lindisfarne-tas-7015-2017625984,1450000,is-sold,Sold by private treaty 07 Mar 2022,20220307,6 Natone Street,LINDISFARNE,TAS,7015,-42.850502,147.348251,4,4,4,House,House,False,988.0,m2,False
2017631521,listing,/39-derwent-avenue-geilston-bay-tas-7015-2017631521,810000,is-sold,Sold by private treaty 09 Mar 2022,20220309,39 Derwent Avenue,GEILSTON BAY,TAS,7015,-42.8407555,147.3451,3,3,3,House,House,False,837.0,m2,False
2017642314,listing,/20-radiata-drive-lindisfarne-tas-7015-2017642314,945000,is-sold,Sold by private treaty 31 Mar 2022,20220331,20 Radiata Drive,LINDISFARNE,TAS,7015,-42.85394,147.375488,4,4,4,House,House,False,1028.0,m2,False
2017647032,listing,/36-sunhaven-avenue-geilston-bay-tas-7015-2017647032,746000,is-sold,Sold by private treaty 16 Mar 2022,20220316,36 Sunhaven Avenue,GEILSTON BAY,TAS,7015,-42.83947,147.347763,3,3,3,House,House,False,597.0,m2,False
2017653174,listing,/7-kaoota-road-rose-bay-tas-7015-2017653174,1510000,is-sold,Sold by private treaty 14 Mar 2022,20220314,7 Kaoota Road,ROSE BAY,TAS,7015,-42.8541679,147.358582,4,4,4,House,House,False,678.0,m2,False
2017658042,listing,/8-geilston-creek-road-geilston-bay-tas-7015-2017658042,611800,is-sold,Sold by private treaty 22 Mar 2022,20220322,8 Geilston Creek Road,GEILSTON BAY,TAS,7015,-42.834713,147.351364,2,2,2,House,House,False,351.0,m2,False
2017659829,listing,/248-geilston-bay-road-geilston-bay-tas-7015-2017659829,745000,is-sold,Sold by private treaty 20 Mar 2022,20220320,248 Geilston Bay Road,GEILSTON BAY,TAS,7015,-42.83447,147.348419,3,3,3,House,House,False,541.0,m2,False
2017666535,listing,/31-bellemont-court-geilston-bay-tas-7015-2017666535,280000,is-sold,Sold by private treaty 25 Mar 2022,20220325,31 Bellemont Court,GEILSTON BAY,TAS,7015,-42.827343,147.348328,,,,VacantLand,Vacant land,False,845.0,m2,False
2017677058,listing,/26-robin-court-lindisfarne-tas-7015-2017677058,935000,is-sold,Sold by private treaty 12 Apr 2022,20220412,26 Robin Court,LINDISFARNE,TAS,7015,-42.8435059,147.367767,3,3,3,House,House,False,673.0,m2,False
2017681373,listing,/3-3-cyrus-court-rose-bay-tas-7015-2017681373,750000,is-sold,Sold by private treaty 26 Mar 2022,20220326,3/3 Cyrus Court,ROSE BAY,TAS,7015,-42.8605881,147.356674,3,3,3,House,House,False,381.0,m2,False
2017681419,listing,/1-20-topham-street-rose-bay-tas-7015-2017681419,980000,is-sold,Sold by private treaty 28 Mar 2022,20220328,1/20 Topham Street,ROSE BAY,TAS,7015,-42.8594246,147.354553,3,3,3,House,House,False,395.0,m2,False
2017691341,listing,/3-52-malunna-road-lindisfarne-tas-7015-2017691341,,is-sold,Sold by private treaty 04 Apr 2022,20220404,3/52 Malunna Road,LINDISFARNE,TAS,7015,-42.8458328,147.360245,3,3,3,Townhouse,Townhouse,False,405.0,m2,False
2017691345,listing,/4-atwell-court-lindisfarne-tas-7015-2017691345,1252000,is-sold,Sold by private treaty 03 Apr 2022,20220403,4 Atwell Court,LINDISFARNE,TAS,7015,-42.85034,147.366241,5,5,5,House,House,False,545.0,m2,False
2017696442,listing,/26-raminea-road-lindisfarne-tas-7015-2017696442,506000,is-sold,Sold by private treaty 06 Apr 2022,20220406,26 Raminea Road,LINDISFARNE,TAS,7015,-42.8450241,147.3537,,,,VacantLand,Vacant land,False,490.0,m2,False
2017708519,listing,/78-kaoota-road-rose-bay-tas-7015-2017708519,1262000,is-sold,Sold by private treaty 12 Apr 2022,20220412,78 Kaoota Road,ROSE BAY,TAS,7015,-42.8594437,147.357468,3,3,3,House,House,False,700.0,m2,False
2017339764,listing,/24-wassell-place-lindisfarne-tas-7015-2017339764,275000,is-sold,Sold by private treaty 10 Feb 2022,20220210,24 Wassell Place,LINDISFARNE,TAS,7015,-42.8550873,147.375565,,,,VacantLand,Vacant land,False,1462.0,m2,False
2017512716,listing,/30-east-derwent-highway-rose-bay-tas-7015-2017512716,1000000,is-sold,Sold by private treaty 07 Feb 2022,20220207,30 East Derwent Highway,ROSE BAY,TAS,7015,-42.85797,147.356628,4,4,4,House,House,False,754.0,m2,False
2017519996,listing,/1-sarean-court-geilston-bay-tas-7015-2017519996,1135000,is-sold,Sold by private treaty 26 Jan 2022,20220126,1 Sarean Court,GEILSTON BAY,TAS,7015,-42.8369141,147.34314,4,4,4,House,House,False,1709.0,m2,False
2017527084,listing,/4-moirunna-road-lindisfarne-tas-7015-2017527084,905000,is-sold,Sold by private treaty 24 Jan 2022,20220124,4 Moirunna Road,LINDISFARNE,TAS,7015,-42.8449326,147.350845,3,3,3,House,House,False,935.0,m2,False
2017538436,listing,/112-derwent-avenue-lindisfarne-tas-7015-2017538436,830000,is-sold,Sold by private treaty 31 Jan 2022,20220131,112 Derwent Avenue,LINDISFARNE,TAS,7015,-42.8437462,147.339279,3,3,3,House,House,False,690.0,m2,False
2017543419,listing,/23-wassell-place-lindisfarne-tas-7015-2017543419,842000,is-sold,Sold by private treaty 19 Feb 2022,20220219,23 Wassell Place,LINDISFARNE,TAS,7015,-42.85415,147.377777,4,4,4,House,House,False,1238.0,m2,False
2017543535,listing,/40-sunhaven-avenue-geilston-bay-tas-7015-2017543535,752000,is-sold,Sold by private treaty 07 Feb 2022,20220207,40 Sunhaven Avenue,GEILSTON BAY,TAS,7015,-42.83954,147.348221,2,2,2,House,House,False,597.0,m2,False
2017549541,listing,/94-malunna-road-lindisfarne-tas-7015-2017549541,865000,is-sold,Sold by private treaty 01 Feb 2022,20220201,94 Malunna Road,LINDISFARNE,TAS,7015,-42.8476753,147.367477,4,4,4,House,House,False,782.0,m2,False
2017555602,listing,/4-141-gordons-hill-road-lindisfarne-tas-7015-2017555602,682500,is-sold,Sold by private treaty 28 Feb 2022,20220228,4/141 Gordons Hill Road,LINDISFARNE,TAS,7015,-42.8510132,147.370361,2,2,2,ApartmentUnitFlat,Apartment / Unit / Flat,False,334.0,m2,False
2017558402,listing,/7-derwent-avenue-geilston-bay-tas-7015-2017558402,751000,is-sold,Sold by private treaty 02 Feb 2022,20220202,7 Derwent Avenue,GEILSTON BAY,TAS,7015,-42.8397369,147.349686,3,3,3,House,House,False,680.0,m2,False
2017580507,listing,/23-avoca-street-lindisfarne-tas-7015-2017580507,952000,is-sold,Sold by private treaty 14 Feb 2022,20220214,23 Avoca Street,LINDISFARNE,TAS,7015,-42.8529739,147.37204,4,4,4,House,House,False,699.0,m2,False
2017588734,listing,/45-karoola-road-lindisfarne-tas-7015-2017588734,799000,is-sold,Sold by private treaty 03 Mar 2022,20220303,45 Karoola Road,LINDISFARNE,TAS,7015,-42.8436623,147.359283,3,3,3,House,House,False,688.0,m2,False
2017596902,listing,/249-east-derwent-highway-lindisfarne-tas-7015-2017596902,632500,is-sold,Sold by private treaty 26 Feb 2022,20220226,249 East Derwent Highway,LINDISFARNE,TAS,7015,-42.8413963,147.352341,3,3,3,House,House,False,572.0,m2,False
2017605667,listing,/74-gordons-hill-road-lindisfarne-tas-7015-2017605667,675000,is-sold,Sold by private treaty 01 Mar 2022,20220301,74 Gordons Hill Road,LINDISFARNE,TAS,7015,-42.8553543,147.371033,4,4,4,House,House,False,908.0,m2,False
2017606511,listing,/107-derwent-avenue-lindisfarne-tas-7015-2017606511,1330000,is-sold,Sold by private treaty 28 Feb 2022,20220228,107 Derwent Avenue,LINDISFARNE,TAS,7015,-42.84576,147.339417,3,3,3,House,House,False,1335.0,m2,False
2017611745,listing,/17-nelumie-street-lindisfarne-tas-7015-2017611745,1257250,is-sold,Sold by private treaty 28 Feb 2022,20220228,17 Nelumie Street,LINDISFARNE,TAS,7015,-42.8446541,147.3536,3,3,3,House,House,False,622.0,m2,False
2017613598,listing,/141a-gordons-hill-road-lindisfarne-tas-7015-2017613598,1111000,is-sold,Sold by private treaty 01 Mar 2022,20220301,141a Gordons Hill Road,LINDISFARNE,TAS,7015,-42.8510628,147.3695,3,3,3,House,House,False,1272.0,m2,False
2017613963,listing,/73-derwent-avenue-geilston-bay-tas-7015-2017613963,2576000,is-sold,Sold by private treaty 28 Feb 2022,20220228,73 Derwent Avenue,GEILSTON BAY,TAS,7015,-42.8424454,147.339981,4,4,4,House,House,False,1256.0,m2,False
2017615602,listing,/3-28-talune-street-lindisfarne-tas-7015-2017615602,790000,is-sold,Sold by private treaty 28 Feb 2022,20220228,3/28 Talune Street,LINDISFARNE,TAS,7015,-42.8491859,147.34761,3,3,3,ApartmentUnitFlat,Apartment / Unit / Flat,False,282.0,m2,False
2017623724,listing,/54-kaoota-road-rose-bay-tas-7015-2017623724,1650000,is-sold,Sold by private treaty 03 Mar 2022,20220303,54 Kaoota Road,ROSE BAY,TAS,7015,-42.8576241,147.358246,4,4,4,House,House,False,765.0,m2,False
2017224783,listing,/23-henley-street-lindisfarne-tas-7015-2017224783,392000,is-sold,Sold by private treaty 12 Jan 2022,20220112,23 Henley Street,LINDISFARNE,TAS,7015,-42.85197,147.367218,1,1,1,House,House,False,548.0,m2,False
2017351621,listing,/6-6-pauls-road-lindisfarne-tas-7015-2017351621,,is-sold,Sold by private treaty 24 Jan 2022,20220124,6/6 Pauls Road,LINDISFARNE,TAS,7015,-42.84872,147.375854,3,3,3,ApartmentUnitFlat,Apartment / Unit / Flat,False,274.0,m2,False
2017388131,listing,/2-142-derwent-avenue-lindisfarne-tas-7015-2017388131,1087000,is-sold,Sold by private treaty 14 Dec 2021,20211214,2/142 Derwent Avenue,LINDISFARNE,TAS,7015,-42.84562,147.340668,4,4,4,House,House,False,0.0,m2,False
2017390073,listing,/23-84-malunna-road-lindisfarne-tas-7015-2017390073,560000,is-sold,Sold by private treaty 08 Dec 2021,20211208,23/84 Malunna Road,LINDISFARNE,TAS,7015,-42.8479156,147.3646,3,3,3,ApartmentUnitFlat,Apartment / Unit / Flat,False,400.0,m2,False
2017393998,listing,/27-nelumie-street-lindisfarne-tas-7015-2017393998,870000,is-sold,Sold by private treaty 04 Jan 2022,20220104,27 Nelumie Street,LINDISFARNE,TAS,7015,-42.8437462,147.352448,3,3,3,House,House,False,663.0,m2,False
2017427858,listing,/79-derwent-avenue-geilston-bay-tas-7015-2017427858,475000,is-sold,Sold by private treaty 08 Dec 2021,20211208,79 Derwent Avenue,GEILSTON BAY,TAS,7015,-42.84276,147.339081,,,,VacantLand,Vacant land,False,450.0,m2,False
2017432577,listing,/4-lenna-street-rose-bay-tas-7015-2017432577,840000,is-sold,Sold by private treaty 19 Jan 2022,20220119,4 Lenna Street,ROSE BAY,TAS,7015,-42.85805,147.355728,4,4,4,House,House,False,780.0,m2,False
2017452370,listing,/33-loatta-road-lindisfarne-tas-7015-2017452370,855000,is-sold,Sold by private treaty 08 Dec 2021,20211208,33 Loatta Road,LINDISFARNE,TAS,7015,-42.85244,147.362152,3,3,3,House,House,False,784.0,m2,False
2017469304,listing,/112-east-derwent-highway-lindisfarne-tas-7015-2017469304,550000,is-sold,Sold by private treaty 23 Dec 2021,20211223,112 East Derwent Highway,LINDISFARNE,TAS,7015,-42.8505669,147.362564,3,3,3,House,House,False,618.0,m2,False
2017470254,listing,/67-esplanade-rose-bay-tas-7015-2017470254,1355000,is-sold,Sold by private treaty 14 Dec 2021,20211214,67 Esplanade,ROSE BAY,TAS,7015,-42.855442,147.355835,3,3,3,House,House,False,840.0,m2,False
2017470438,listing,/38-cornwall-street-rose-bay-tas-7015-2017470438,1200000,is-sold,Sold by private treaty 13 Dec 2021,20211213,38 Cornwall Street,ROSE BAY,TAS,7015,-42.8571968,147.359024,4,4,4,House,House,False,668.0,m2,False
2017475741,listing,/16-hillmorton-road-lindisfarne-tas-7015-2017475741,915000,is-sold,Sold by private treaty 13 Dec 2021,20211213,16 Hillmorton Road,LINDISFARNE,TAS,7015,-42.8497124,147.375961,3,3,3,House,House,False,649.0,m2,False
2017480644,listing,/87-geilston-creek-road-geilston-bay-tas-7015-2017480644,700000,is-sold,Sold by private treaty 21 Dec 2021,20211221,87 Geilston Creek Road,GEILSTON BAY,TAS,7015,-42.8329964,147.3612,2,2,2,House,House,True,1.13,ha,False
2017484152,listing,/58-gordons-hill-road-lindisfarne-tas-7015-2017484152,1055000,is-sold,Sold by private treaty 14 Jan 2022,20220114,58 Gordons Hill Road,LINDISFARNE,TAS,7015,-42.8559723,147.371933,3,3,3,House,House,False,1639.0,m2,False
2017491242,listing,/3-lynch-street-geilston-bay-tas-7015-2017491242,832000,is-sold,Sold by private treaty 19 Dec 2021,20211219,3 Lynch Street,GEILSTON BAY,TAS,7015,-42.8402252,147.359558,3,3,3,House,House,False,550.0,m2,False
2017496233,listing,/4-13-talune-street-lindisfarne-tas-7015-2017496233,750000,is-sold,Sold by private treaty 13 Jan 2022,20220113,4/13 Talune Street,LINDISFARNE,TAS,7015,-42.8502922,147.34465,2,2,2,House,House,False,414.0,m2,False
2017527902,listing,/3-kaoota-road-rose-bay-tas-7015-2017527902,1930000,is-sold,Sold by private treaty 24 Jan 2022,20220124,3 Kaoota Road,ROSE BAY,TAS,7015,-42.8539848,147.358643,5,5,5,House,House,False,1247.0,m2,False
2017532172,listing,/48-gordons-hill-road-lindisfarne-tas-7015-2017532172,742000,is-sold,Sold by private treaty 22 Jan 2022,20220122,48 Gordons Hill Road,LINDISFARNE,TAS,7015,-42.85742,147.3716,2,2,2,House,House,False,1262.0,m2,False
2017532996,listing,/2-11-talune-street-lindisfarne-tas-7015-2017532996,750000,is-sold,Sold by private treaty 21 Jan 2022,20220121,2/11 Talune Street,LINDISFARNE,TAS,7015,-42.8493729,147.345123,3,3,3,House,House,False,306.0,m2,False
2017534610,listing,/81a-gordons-hill-road-lindisfarne-tas-7015-2017534610,751000,is-sold,Sold by private treaty 23 Jan 2022,20220123,81a Gordons Hill Road,LINDISFARNE,TAS,7015,-42.85546,147.373,3,3,3,House,House,False,696.0,m2,False
2017112675,listing,/9-ellen-place-geilston-bay-tas-7015-2017112675,,is-sold,Sold by private treaty 10 Nov 2021,20211110,9 Ellen Place,GEILSTON BAY,TAS,7015,-42.8282623,147.343124,4,4,4,House,House,False,54500.0,m2,False
2017255263,listing,/geilston-bay-tas-7015-2017255263,500000,is-sold,Sold by private treaty 24 Nov 2021,20211124,,GEILSTON BAY,TAS,7015,-42.8290863,147.352,,,,VacantLand,Vacant land,True,2.88,ha,False
2017263001,listing,/122-karoola-road-lindisfarne-tas-7015-2017263001,745000,is-sold,Sold by private treaty 12 Nov 2021,20211112,122 Karoola Road,LINDISFARNE,TAS,7015,-42.8455238,147.366333,3,3,3,House,House,False,1037.0,m2,False
2017283971,listing,/1-8-beltana-street-lindisfarne-tas-7015-2017283971,401000,is-sold,Sold by private treaty 17 Nov 2021,20211117,1/8 Beltana Street,LINDISFARNE,TAS,7015,-42.8490829,147.35257,2,2,2,House,House,False,192.0,m2,False
2017285753,listing,/237-east-derwent-highway-lindisfarne-tas-7015-2017285753,600000,is-sold,Sold by private treaty 04 Nov 2021,20211104,237 East Derwent Highway,LINDISFARNE,TAS,7015,-42.8423653,147.353088,3,3,3,House,House,False,764.0,m2,False
2017303921,listing,/3-sarean-court-geilston-bay-tas-7015-2017303921,1125000,is-sold,Sold by private treaty 05 Nov 2021,20211105,3 Sarean Court,GEILSTON BAY,TAS,7015,-42.83662,147.343185,4,4,4,House,House,False,2730.0,m2,False
2017352370,listing,/33-sherwood-court-lindisfarne-tas-7015-2017352370,951000,is-sold,Sold by private treaty 06 Nov 2021,20211106,33 Sherwood Court,LINDISFARNE,TAS,7015,-42.843338,147.3658,5,5,5,House,House,False,727.0,m2,False
2017353988,listing,/144-gordons-hill-road-lindisfarne-tas-7015-2017353988,880000,is-sold,Sold by private treaty 05 Nov 2021,20211105,144 Gordons Hill Road,LINDISFARNE,TAS,7015,-42.8505974,147.365372,3,3,3,House,House,False,534.0,m2,False
2017354120,listing,/228-derwent-avenue-lindisfarne-tas-7015-2017354120,850000,is-sold,Sold by private treaty 22 Nov 2021,20211122,228 Derwent Avenue,LINDISFARNE,TAS,7015,-42.84625,147.353149,3,3,3,House,House,False,581.0,m2,False
2017370812,listing,/207-east-derwent-highway-lindisfarne-tas-7015-2017370812,940000,is-sold,Sold by private treaty 07 Nov 2021,20211107,207 East Derwent Highway,LINDISFARNE,TAS,7015,-42.8448524,147.356415,4,4,4,House,House,False,728.0,m2,False
2017373607,listing,/2-14-tianna-road-lindisfarne-tas-7015-2017373607,1125000,is-sold,Sold by private treaty 06 Nov 2021,20211106,2/14 Tianna Road,LINDISFARNE,TAS,7015,-42.844265,147.351044,3,3,3,Villa,Villa,False,451.0,m2,False
2017375904,listing,/24-cottesloe-street-lindisfarne-tas-7015-2017375904,812000,is-sold,Sold by private treaty 09 Nov 2021,20211109,24 Cottesloe Street,LINDISFARNE,TAS,7015,-42.8525467,147.36441,4,4,4,House,House,False,602.0,m2,False
2017387908,listing,/22-wassell-place-lindisfarne-tas-7015-2017387908,651500,is-sold,Sold by private treaty 26 Nov 2021,20211126,22 Wassell Place,LINDISFARNE,TAS,7015,-42.8550377,147.375229,3,3,3,House,House,False,1252.0,m2,False
2017393856,listing,/75-geilston-creek-road-geilston-bay-tas-7015-2017393856,770000,is-sold,Sold by private treaty 14 Nov 2021,20211114,75 Geilston Creek Road,GEILSTON BAY,TAS,7015,-42.8335266,147.359131,4,4,4,House,House,False,549.0,m2,False
2017397244,listing,/7-st-helens-street-lindisfarne-tas-7015-2017397244,845000,is-sold,Sold by private treaty 27 Nov 2021,20211127,7 St Helens Street,LINDISFARNE,TAS,7015,-42.85356,147.365891,4,4,4,House,House,False,572.0,m2,False
2017398106,listing,/2-takone-street-geilston-bay-tas-7015-2017398106,745000,is-sold,Sold by private treaty 23 Nov 2021,20211123,2 Takone Street,GEILSTON BAY,TAS,7015,-42.8351135,147.361069,3,3,3,House,House,False,687.0,m2,False
2017410933,listing,/67-loatta-road-rose-bay-tas-7015-2017410933,1075000,is-sold,Sold by private treaty 30 Nov 2021,20211130,67 Loatta Road,ROSE BAY,TAS,7015,-42.8556442,147.3613,4,4,4,House,House,False,761.0,m2,False
2017413248,listing,/13-clunie-close-lindisfarne-tas-7015-2017413248,752000,is-sold,Sold by private treaty 24 Nov 2021,20211124,13 Clunie Close,LINDISFARNE,TAS,7015,-42.8404236,147.354248,3,3,3,House,House,False,597.0,m2,False
2017433559,listing,/8a-wellington-road-lindisfarne-tas-7015-2017433559,1150000,is-sold,Sold by private treaty 29 Nov 2021,20211129,8A Wellington Road,LINDISFARNE,TAS,7015,-42.8499336,147.35289,4,4,4,House,House,False,604.0,m2,False
2017433640,listing,/256-east-derwent-highway-lindisfarne-tas-7015-2017433640,740000,is-sold,Sold by private treaty 01 Dec 2021,20211201,256 East Derwent Highway,LINDISFARNE,TAS,7015,-42.84063,147.3526,3,3,3,House,House,False,1062.0,m2,False
2017180119,listing,/15-nelumie-street-lindisfarne-tas-7015-2017180119,936000,is-sold,Sold by private treaty 08 Oct 2021,20211008,15 Nelumie Street,LINDISFARNE,TAS,7015,-42.8448,147.353683,3,3,3,House,House,False,476.0,m2,False
2017249407,listing,/45-fairfield-road-geilston-bay-tas-7015-2017249407,655000,is-sold,Sold by private treaty 11 Oct 2021,20211011,45 Fairfield Road,GEILSTON BAY,TAS,7015,-42.8382034,147.35762,3,3,3,House,House,False,721.0,m2,False
2017268601,listing,/14-bellemont-court-geilston-bay-tas-7015-2017268601,850000,is-sold,Sold by private treaty 29 Oct 2021,20211029,14 Bellemont Court,GEILSTON BAY,TAS,7015,-42.8284225,147.349548,3,3,3,House,House,False,895.0,m2,False
2017271677,listing,/8-henley-street-lindisfarne-tas-7015-2017271677,700000,is-sold,Sold by private treaty 15 Oct 2021,20211015,8 Henley Street,LINDISFARNE,TAS,7015,-42.8513527,147.365265,3,3,3,House,House,False,559.0,m2,False
2017278248,listing,/60-clinton-road-geilston-bay-tas-7015-2017278248,820000,is-sold,Sold by private treaty 19 Oct 2021,20211019,60 Clinton Road,GEILSTON BAY,TAS,7015,-42.8304367,147.349335,4,4,4,House,House,False,655.0,m2,False
2017281500,listing,/42-walana-street-geilston-bay-tas-7015-2017281500,1000000,is-sold,Sold by private treaty 04 Oct 2021,20211004,42 Walana Street,GEILSTON BAY,TAS,7015,-42.8382072,147.363144,4,4,4,House,House,False,959.0,m2,False
2017285650,listing,/18-begonia-street-lindisfarne-tas-7015-2017285650,885000,is-sold,Sold by private treaty 08 Oct 2021,20211008,18 Begonia Street,LINDISFARNE,TAS,7015,-42.8487778,147.366074,3,3,3,House,House,False,693.0,m2,False
2017294928,listing,/25-kenton-road-geilston-bay-tas-7015-2017294928,710000,is-sold,Sold by private treaty 09 Oct 2021,20211009,25 Kenton Road,GEILSTON BAY,TAS,7015,-42.8368149,147.356369,3,3,3,House,House,False,667.0,m2,False
2017297574,listing,/1-155a-derwent-avenue-lindisfarne-tas-7015-2017297574,700000,is-sold,Sold by private treaty 10 Oct 2021,20211010,1/155A Derwent Avenue,LINDISFARNE,TAS,7015,-42.8485565,147.349136,2,2,2,ApartmentUnitFlat,Apartment / Unit / Flat,False,332.0,m2,False
2017298696,listing,/6-andreas-place-geilston-bay-tas-7015-2017298696,653000,is-sold,Sold by private treaty 10 Oct 2021,20211010,6 Andreas Place,GEILSTON BAY,TAS,7015,-42.83322,147.345963,3,3,3,House,House,False,826.0,m2,False
2017315765,listing,/55-derwent-avenue-geilston-bay-tas-7015-2017315765,955700,is-sold,Sold by private treaty 03 Nov 2021,20211103,55 Derwent Avenue,GEILSTON BAY,TAS,7015,-42.84152,147.342209,5,5,5,House,House,False,675.0,m2,False
2017317945,listing,/8-chatsworth-street-rose-bay-tas-7015-2017317945,1032500,is-sold,Sold by private treaty 19 Oct 2021,20211019,8 Chatsworth Street,ROSE BAY,TAS,7015,-42.860733,147.3527,5,5,5,House,House,False,845.0,m2,False
2017328607,listing,/64-66-clinton-road-geilston-bay-tas-7015-2017328607,720000,is-sold,Sold by private treaty 26 Oct 2021,20211026,64-66 Clinton Road,GEILSTON BAY,TAS,7015,-42.8300552,147.349121,3,3,3,House,House,False,1292.0,m2,False
2017331653,listing,/1-97-clinton-road-geilston-bay-tas-7015-2017331653,473000,is-sold,Sold by private treaty 26 Oct 2021,20211026,1/97 Clinton Road,GEILSTON BAY,TAS,7015,-42.8280373,147.346466,2,2,2,ApartmentUnitFlat,Apartment / Unit / Flat,False,275.0,m2,False
2017331682,listing,/25-fairfield-road-geilston-bay-tas-7015-2017331682,760000,is-sold,Sold by private treaty 23 Oct 2021,20211023,25 Fairfield Road,GEILSTON BAY,TAS,7015,-42.8364449,147.357513,3,3,3,House,House,False,728.0,m2,False
2017331841,listing,/6-broad-street-lindisfarne-tas-7015-2017331841,723000,is-sold,Sold by private treaty 24 Oct 2021,20211024,6 Broad Street,LINDISFARNE,TAS,7015,-42.84129,147.352,3,3,3,House,House,False,822.0,m2,False
2017352404,listing,/26-clinton-road-geilston-bay-tas-7015-2017352404,811000,is-sold,Sold by private treaty 30 Oct 2021,20211030,26 Clinton Road,GEILSTON BAY,TAS,7015,-42.83308,147.349869,4,4,4,House,House,False,488.0,m2,False
2017354931,listing,/48-cornwall-street-rose-bay-tas-7015-2017354931,981000,is-sold,Sold by private treaty 31 Oct 2021,20211031,48 Cornwall Street,ROSE BAY,TAS,7015,-42.8564034,147.359344,3,3,3,House,House,False,657.0,m2,False
2017355100,listing,/1-53-napier-street-geilston-bay-tas-7015-2017355100,535000,is-sold,Sold by private treaty 28 Oct 2021,20211028,1/53 Napier Street,GEILSTON BAY,TAS,7015,-42.8247757,147.343567,3,3,3,House,House,False,350.0,m2,False
2017355946,listing,/11-corinna-road-lindisfarne-tas-7015-2017355946,1006000,is-sold,Sold by private treaty 01 Nov 2021,20211101,11 Corinna Road,LINDISFARNE,TAS,7015,-42.8442879,147.358124,4,4,4,House,House,False,674.0,m2,False
2016299136,listing,/172a-derwent-avenue-lindisfarne-tas-7015-2016299136,1090000,is-sold,Sold by private treaty 17 Sep 2021,20210917,172A Derwent Avenue,LINDISFARNE,TAS,7015,-42.8466,147.3436,2,2,2,House,House,False,2122.0,m2,False
2017096836,listing,/63a-cornwall-street-rose-bay-tas-7015-2017096836,675000,is-sold,Sold by private treaty 09 Sep 2021,20210909,63A Cornwall Street,ROSE BAY,TAS,7015,-42.85506,147.3603,,,,VacantLand,Vacant land,False,686.0,m2,False
2017198809,listing,/39-41-clinton-road-geilston-bay-tas-7015-2017198809,700000,is-sold,Sold by private treaty 15 Sep 2021,20210915,39-41 Clinton Road,GEILSTON BAY,TAS,7015,-42.8321342,147.349274,3,3,3,House,House,False,1432.0,m2,False
2017221147,listing,/92-gordons-hill-road-lindisfarne-tas-7015-2017221147,702000,is-sold,Sold by private treaty 17 Sep 2021,20210917,92 Gordons Hill Road,LINDISFARNE,TAS,7015,-42.8536072,147.370377,3,3,3,House,House,False,566.0,m2,False
2017223709,listing,/3-owen-court-lindisfarne-tas-7015-2017223709,817000,is-sold,Sold by private treaty 01 Oct 2021,20211001,3 Owen Court,LINDISFARNE,TAS,7015,-42.8496132,147.3662,4,4,4,House,House,False,728.0,m2,False
2017235462,listing,/2-44-topham-street-rose-bay-tas-7015-2017235462,530000,is-sold,Sold by private treaty 29 Sep 2021,20210929,2/44 Topham Street,ROSE BAY,TAS,7015,-42.86142,147.353714,2,2,2,ApartmentUnitFlat,Apartment / Unit / Flat,False,186.0,m2,False
2017236939,listing,/28-sherwood-court-lindisfarne-tas-7015-2017236939,855000,is-sold,Sold by private treaty 11 Sep 2021,20210911,28 Sherwood Court,LINDISFARNE,TAS,7015,-42.8437,147.365,4,4,4,House,House,False,648.0,m2,False
2017242484,listing,/35-fairfield-road-geilston-bay-tas-7015-2017242484,580000,is-sold,Sold by private treaty 13 Sep 2021,20210913,35 Fairfield Road,GEILSTON BAY,TAS,7015,-42.8373146,147.3576,2,2,2,House,House,False,726.0,m2,False
2017247918,listing,/1-4-64-kaoota-road-rose-bay-tas-7015-2017247918,,is-sold,Sold by private treaty 28 Sep 2021,20210928,1-4/64 Kaoota Road,ROSE BAY,TAS,7015,-42.8583069,147.358017,3,3,3,Townhouse,Townhouse,False,0.0,m2,False
2017249715,listing,/3-130-gordons-hill-road-lindisfarne-tas-7015-2017249715,640000,is-sold,Sold by private treaty 28 Sep 2021,20210928,3/130 Gordons Hill Road,LINDISFARNE,TAS,7015,-42.8512878,147.367142,2,2,2,ApartmentUnitFlat,Apartment / Unit / Flat,False,0.0,m2,False
2017251063,listing,/112-flagstaff-gully-road-lindisfarne-tas-7015-2017251063,460000,is-sold,Sold by private treaty 21 Sep 2021,20210921,112 Flagstaff Gully Road,LINDISFARNE,TAS,7015,-42.8543243,147.378418,2,2,2,House,House,False,640.0,m2,False
2017255515,listing,/2-essex-street-rose-bay-tas-7015-2017255515,1120000,is-sold,Sold by private treaty 20 Sep 2021,20210920,2 Essex Street,ROSE BAY,TAS,7015,-42.8563652,147.360764,5,5,5,House,House,False,890.0,m2,False
2017255769,listing,/10-corinna-road-lindisfarne-tas-7015-2017255769,750000,is-sold,Sold by private treaty 01 Oct 2021,20211001,10 Corinna Road,LINDISFARNE,TAS,7015,-42.84469,147.357819,3,3,3,House,House,False,526.0,m2,False
2017256515,listing,/1-pauls-road-lindisfarne-tas-7015-2017256515,365000,is-sold,Sold by private treaty 23 Sep 2021,20210923,1 Pauls Road,LINDISFARNE,TAS,7015,-42.8467865,147.3526,,,,VacantLand,Vacant land,False,596.0,m2,False
2017258887,listing,/105-karoola-road-lindisfarne-tas-7015-2017258887,770000,is-sold,Sold by private treaty 20 Sep 2021,20210920,105 Karoola Road,LINDISFARNE,TAS,7015,-42.84587,147.3666,3,3,3,House,House,False,625.0,m2,False
2017264525,listing,/8-katrina-court-lindisfarne-tas-7015-2017264525,807000,is-sold,Sold by private treaty 27 Sep 2021,20210927,8 Katrina Court,LINDISFARNE,TAS,7015,-42.8509445,147.369019,3,3,3,House,House,False,680.0,m2,False
2017270905,listing,/100-derwent-avenue-geilston-bay-tas-7015-2017270905,901000,is-sold,Sold by private treaty 25 Sep 2021,20210925,100 Derwent Avenue,GEILSTON BAY,TAS,7015,-42.8431931,147.339722,4,4,4,House,House,False,147.0,m2,False
2017271319,listing,/17-east-derwent-highway-rose-bay-tas-7015-2017271319,930000,is-sold,Sold by private treaty 24 Sep 2021,20210924,17 East Derwent Highway,ROSE BAY,TAS,7015,-42.85898,147.355286,4,4,4,House,House,False,797.0,m2,False
2017277603,listing,/12-adina-street-geilston-bay-tas-7015-2017277603,855000,is-sold,Sold by private treaty 02 Oct 2021,20211002,12 Adina Street,GEILSTON BAY,TAS,7015,-42.83793,147.359253,4,4,4,House,House,False,668.0,m2,False
2017280126,listing,/11-moirunna-road-lindisfarne-tas-7015-2017280126,1065000,is-sold,Sold by private treaty 02 Oct 2021,20211002,11 Moirunna Road,LINDISFARNE,TAS,7015,-42.84498,147.352188,5,5,5,House,House,False,920.0,m2,False
2016969807,listing,/1-1-ambleside-lindisfarne-tas-7015-2016969807,750000,is-sold,Sold by private treaty 26 Aug 2021,20210826,1/1 Ambleside,LINDISFARNE,TAS,7015,-42.8464851,147.34021,2,2,2,ApartmentUnitFlat,Apartment / Unit / Flat,False,324.0,m2,False
2017091243,listing,/8-esplanade-lindisfarne-tas-7015-2017091243,1980000,is-sold,Sold by private treaty 06 Sep 2021,20210906,8 Esplanade,LINDISFARNE,TAS,7015,-42.8476868,147.355957,5,5,5,House,House,False,1490.0,m2,False
2017125448,listing,/64-gordons-hill-road-lindisfarne-tas-7015-2017125448,620000,is-sold,Sold by private treaty 16 Aug 2021,20210816,64 Gordons Hill Road,LINDISFARNE,TAS,7015,-42.85552,147.371719,3,3,3,House,House,False,683.0,m2,False
2017134463,listing,/3-park-road-lindisfarne-tas-7015-2017134463,1180000,is-sold,Sold by private treaty 26 Jul 2021,20210726,3 Park Road,LINDISFARNE,TAS,7015,-42.85036,147.352249,3,3,3,House,House,False,1113.0,m2,False
2017154976,listing,/95-east-derwent-highway-lindisfarne-tas-7015-2017154976,755000,is-sold,Sold by private treaty 12 Aug 2021,20210812,95 East Derwent Highway,LINDISFARNE,TAS,7015,-42.852417,147.358765,4,4,4,House,House,False,637.0,m2,False
2017160776,listing,/8-nietta-road-lindisfarne-tas-7015-2017160776,1220000,is-sold,Sold by private treaty 03 Aug 2021,20210803,8 Nietta Road,LINDISFARNE,TAS,7015,-42.84962,147.361832,5,5,5,House,House,False,1001.0,m2,False
2017163060,listing,/3-141-gordons-hill-road-lindisfarne-tas-7015-2017163060,607500,is-sold,Sold by private treaty 02 Aug 2021,20210802,3/141 Gordons Hill Road,LINDISFARNE,TAS,7015,-42.85076,147.370087,2,2,2,House,House,False,343.0,m2,False
2017164813,listing,/3-swansea-court-lindisfarne-tas-7015-2017164813,845000,is-sold,Sold by private treaty 09 Aug 2021,20210809,3 Swansea Court,LINDISFARNE,TAS,7015,-42.85352,147.364548,4,4,4,House,House,False,632.0,m2,False
2017167537,listing,/2-52-lincoln-street-lindisfarne-tas-7015-2017167537,580000,is-sold,Sold by private treaty 10 Aug 2021,20210810,2/52 Lincoln Street,LINDISFARNE,TAS,7015,-42.8468628,147.355072,2,2,2,ApartmentUnitFlat,Apartment / Unit / Flat,False,86.0,m2,False
2017176276,listing,/1-7-christina-court-geilston-bay-tas-7015-2017176276,396000,is-sold,Sold by private treaty 20 Aug 2021,20210820,1/7 Christina Court,GEILSTON BAY,TAS,7015,-42.83801,147.352127,2,2,2,ApartmentUnitFlat,Apartment / Unit / Flat,False,0.0,m2,False
2017180317,listing,/1-37-kaoota-road-rose-bay-tas-7015-2017180317,695000,is-sold,Sold by private treaty 16 Aug 2021,20210816,1/37 Kaoota Road,ROSE BAY,TAS,7015,-42.85635,147.358,3,3,3,House,House,False,395.0,m2,False
2017180318,listing,/102-geilston-bay-road-geilston-bay-tas-7015-2017180318,1222000,is-sold,Sold by private treaty 11 Aug 2021,20210811,102 Geilston Bay Road,GEILSTON BAY,TAS,7015,-42.8369751,147.344055,4,4,4,House,House,False,622.0,m2,False
2017180382,listing,/3-boatta-road-lindisfarne-tas-7015-2017180382,771000,is-sold,Sold by private treaty 24 Aug 2021,20210824,3 Boatta Road,LINDISFARNE,TAS,7015,-42.8462257,147.360825,4,4,4,House,House,False,556.0,m2,False
2017182493,listing,/2-10-lincoln-street-lindisfarne-tas-7015-2017182493,475000,is-sold,Sold by private treaty 23 Aug 2021,20210823,2/10 Lincoln Street,LINDISFARNE,TAS,7015,-42.8489456,147.349884,2,2,2,ApartmentUnitFlat,Apartment / Unit / Flat,False,141.0,m2,False
2017182765,listing,/10-148-east-derwent-highway-lindisfarne-tas-7015-2017182765,408000,is-sold,Sold by private treaty 15 Aug 2021,20210815,10/148 East Derwent Highway,LINDISFARNE,TAS,7015,-42.84692,147.362015,1,1,1,ApartmentUnitFlat,Apartment / Unit / Flat,False,92.0,m2,False
2017203048,listing,/7-cornwall-street-rose-bay-tas-7015-2017203048,978500,is-sold,Sold by private treaty 25 Aug 2021,20210825,7 Cornwall Street,ROSE BAY,TAS,7015,-42.86004,147.358978,3,3,3,House,House,False,703.0,m2,False
2017211663,listing,/1-13-talune-street-lindisfarne-tas-7015-2017211663,717000,is-sold,Sold by private treaty 31 Aug 2021,20210831,1/13 Talune Street,LINDISFARNE,TAS,7015,-42.8498154,147.34491,2,2,2,Villa,Villa,False,360.0,m2,False
2017225964,listing,/12-wassell-place-lindisfarne-tas-7015-2017225964,811978,is-sold,Sold by private treaty 04 Sep 2021,20210904,12 Wassell Place,LINDISFARNE,TAS,7015,-42.8542328,147.376114,4,4,4,House,House,False,1088.0,m2,False
2017226281,listing,/17-karoola-road-lindisfarne-tas-7015-2017226281,913000,is-sold,Sold by private treaty 07 Sep 2021,20210907,17 Karoola Road,LINDISFARNE,TAS,7015,-42.8415375,147.356415,3,3,3,House,House,False,683.0,m2,False
2017230201,listing,/1-takone-street-geilston-bay-tas-7015-2017230201,820000,is-sold,Sold by private treaty 05 Sep 2021,20210905,1 Takone Street,GEILSTON BAY,TAS,7015,-42.8348236,147.360657,5,5,5,House,House,False,481.0,m2,False
2016216743,listing,/1-2-4-pauls-road-lindisfarne-tas-7015-2016216743,,is-sold,Sold by private treaty 04 Jun 2021,20210604,1 & 2/4 Pauls Road,LINDISFARNE,TAS,7015,-42.8465538,147.354034,3,3,3,Villa,Villa,False,0.0,m2,False
2016263545,listing,/lot-7-napier-street-geilston-bay-tas-7015-2016263545,212000,is-sold,Sold by private treaty 28 May 2021,20210528,Lot 7 Napier Street,GEILSTON BAY,TAS,7015,-42.8223534,147.342117,,,,VacantLand,Vacant land,False,701.0,m2,False
2016547274,listing,/lot-7-napier-street-geilston-bay-tas-7015-2016547274,212000,is-sold,Sold by private treaty 28 May 2021,20210528,Lot 7 Napier Street,GEILSTON BAY,TAS,7015,-42.8223534,147.342117,,,,VacantLand,Vacant land,False,701.0,m2,False
2016707684,listing,/4-7-8-6-pauls-road-lindisfarne-tas-7015-2016707684,,is-sold,Sold by private treaty 24 Jun 2021,20210624,"4, 7 & 8/6 Pauls Road",LINDISFARNE,TAS,7015,-42.8483,147.3741,3,3,3,ApartmentUnitFlat,Apartment / Unit / Flat,False,0.0,m2,False
2016948385,listing,/2-sylvan-court-lindisfarne-tas-7015-2016948385,786000,is-sold,Sold by private treaty 06 Jun 2021,20210606,2 Sylvan Court,LINDISFARNE,TAS,7015,-42.8556938,147.368881,3,3,3,House,House,False,793.0,m2,False
2017023035,listing,/4-derwent-avenue-geilston-bay-tas-7015-2017023035,587000,is-sold,Sold by private treaty 29 May 2021,20210529,4 Derwent Avenue,GEILSTON BAY,TAS,7015,-42.840168,147.3514,3,3,3,House,House,False,668.0,m2,False
2017023146,listing,/29-tianna-road-lindisfarne-tas-7015-2017023146,595000,is-sold,Sold by private treaty 29 May 2021,20210529,29 Tianna Road,LINDISFARNE,TAS,7015,-42.84602,147.348923,2,2,2,House,House,False,674.0,m2,False
2017024360,listing,/5-moirunna-road-lindisfarne-tas-7015-2017024360,805000,is-sold,Sold by private treaty 31 May 2021,20210531,5 Moirunna Road,LINDISFARNE,TAS,7015,-42.8456573,147.3504,4,4,4,House,House,False,982.0,m2,False
2017026647,listing,/70-kaoota-road-rose-bay-tas-7015-2017026647,851000,is-sold,Sold by private treaty 01 Jun 2021,20210601,70 Kaoota Road,ROSE BAY,TAS,7015,-42.8588448,147.357773,3,3,3,House,House,False,821.0,m2,False
2017038529,listing,/39-siandra-crescent-geilston-bay-tas-7015-2017038529,785000,is-sold,Sold by private treaty 09 Jun 2021,20210609,39 Siandra Crescent,GEILSTON BAY,TAS,7015,-42.8365555,147.35585,4,4,4,House,House,False,625.0,m2,False
2017058626,listing,/1-27-beach-road-lindisfarne-tas-7015-2017058626,535000,is-sold,Sold by private treaty 21 Jun 2021,20210621,1/27 Beach Road,LINDISFARNE,TAS,7015,-42.8473434,147.364639,2,2,2,ApartmentUnitFlat,Apartment / Unit / Flat,False,331.0,m2,False
2017066856,listing,/23-lincoln-street-lindisfarne-tas-7015-2017066856,660000,is-sold,Sold by private treaty 19 Jun 2021,20210619,23 Lincoln Street,LINDISFARNE,TAS,7015,-42.8483772,147.352066,3,3,3,House,House,False,457.0,m2,False
2017074184,listing,/15-geilston-creek-road-geilston-bay-tas-7015-2017074184,619000,is-sold,Sold by private treaty 21 Jun 2021,20210621,15 Geilston Creek Road,GEILSTON BAY,TAS,7015,-42.83539,147.353088,3,3,3,House,House,False,1335.0,m2,False
2017084977,listing,/80-kaoota-road-rose-bay-tas-7015-2017084977,1100000,is-sold,Sold by private treaty 28 Jun 2021,20210628,80 Kaoota Road,ROSE BAY,TAS,7015,-42.8595848,147.357559,4,4,4,House,House,False,989.0,m2,False
2017100578,listing,/243-east-derwent-highway-lindisfarne-tas-7015-2017100578,620000,is-sold,Sold by private treaty 18 Jul 2021,20210718,243 East Derwent Highway,LINDISFARNE,TAS,7015,-42.8419533,147.352753,3,3,3,House,House,False,517.0,m2,False
2017102296,listing,/153-gordons-hill-road-lindisfarne-tas-7015-2017102296,755000,is-sold,Sold by private treaty 04 Jul 2021,20210704,153 Gordons Hill Road,LINDISFARNE,TAS,7015,-42.8505478,147.368027,4,4,4,House,House,False,613.0,m2,False
2017102709,listing,/74-kaoota-road-rose-bay-tas-7015-2017102709,820000,is-sold,Sold by private treaty 06 Jul 2021,20210706,74 Kaoota Road,ROSE BAY,TAS,7015,-42.85915,147.357513,4,4,4,House,House,False,751.0,m2,False
2017125473,listing,/58-derwent-avenue-geilston-bay-tas-7015-2017125473,865000,is-sold,Sold by private treaty 14 Jul 2021,20210714,58 Derwent Avenue,GEILSTON BAY,TAS,7015,-42.84159,147.344376,3,3,3,House,House,False,584.0,m2,False
2017130876,listing,/25a-derwent-avenue-geilston-bay-tas-7015-2017130876,865000,is-sold,Sold by private treaty 19 Jul 2021,20210719,25a Derwent Avenue,GEILSTON BAY,TAS,7015,-42.8401833,147.34697,3,3,3,House,House,False,805.0,m2,False
2017134468,listing,/36-loatta-road-lindisfarne-tas-7015-2017134468,1250000,is-sold,Sold by private treaty 26 Jul 2021,20210726,36 Loatta Road,LINDISFARNE,TAS,7015,-42.85305,147.360748,3,3,3,House,House,False,1596.0,m2,False
2016228488,listing,/6-ellen-place-geilston-bay-tas-7015-2016228488,200000,is-sold,Sold by private treaty 24 May 2021,20210524,6 Ellen Place,GEILSTON BAY,TAS,7015,-42.82832,147.343079,,,,VacantLand,Vacant land,False,7058.0,m2,False
2016835892,listing,/37-robin-court-lindisfarne-tas-7015-2016835892,676000,is-sold,Sold by private treaty 05 May 2021,20210505,37 Robin Court,LINDISFARNE,TAS,7015,-42.84373,147.366425,5,5,5,House,House,False,605.0,m2,False
2016863878,listing,/12-east-derwent-highway-rose-bay-tas-7015-2016863878,590000,is-sold,Sold by private treaty 05 May 2021,20210505,12 East Derwent Highway,ROSE BAY,TAS,7015,-42.8595047,147.355789,3,3,3,House,House,False,508.0,m2,False
2016883527,listing,/55-henley-street-lindisfarne-tas-7015-2016883527,693000,is-sold,Sold by private treaty 30 Apr 2021,20210430,55 Henley Street,LINDISFARNE,TAS,7015,-42.85484,147.3699,3,3,3,House,House,False,870.0,m2,False
2016884186,listing,/113-east-derwent-highway-lindisfarne-tas-7015-2016884186,525000,is-sold,Sold by private treaty 17 May 2021,20210517,113 East Derwent Highway,LINDISFARNE,TAS,7015,-42.8515472,147.360443,3,3,3,House,House,False,756.0,m2,False
2016884295,listing,/119-east-derwent-highway-lindisfarne-tas-7015-2016884295,620000,is-sold,Sold by private treaty 30 Apr 2021,20210430,119 East Derwent Highway,LINDISFARNE,TAS,7015,-42.8510933,147.360947,4,4,4,House,House,False,680.0,m2,False
2016889547,listing,/2-28-loatta-road-lindisfarne-tas-7015-2016889547,620000,is-sold,Sold by private treaty 05 May 2021,20210505,2/28 Loatta Road,LINDISFARNE,TAS,7015,-42.85261,147.360748,5,5,5,House,House,False,412.0,m2,False
2016889748,listing,/222-derwent-avenue-lindisfarne-tas-7015-2016889748,665000,is-sold,Sold by private treaty 14 May 2021,20210514,222 Derwent Avenue,LINDISFARNE,TAS,7015,-42.84667,147.351685,3,3,3,House,House,False,737.0,m2,False
2016898484,listing,/69-lindhill-avenue-geilston-bay-tas-7015-2016898484,750000,is-sold,Sold by private treaty 10 May 2021,20210510,69 Lindhill Avenue,GEILSTON BAY,TAS,7015,-42.8415527,147.358719,4,4,4,House,House,False,763.0,m2,False
2016943448,listing,/48-karoola-road-lindisfarne-tas-7015-2016943448,811000,is-sold,Sold by private treaty 10 May 2021,20210510,48 Karoola Road,LINDISFARNE,TAS,7015,-42.8426437,147.35878,4,4,4,House,House,False,905.0,m2,False
2016950403,listing,/44-463-east-derwent-highway-geilston-bay-tas-7015-2016950403,215000,is-sold,Sold by private treaty 25 May 2021,20210525,44/463 East Derwent Highway,GEILSTON BAY,TAS,7015,-42.8252258,147.343185,,,,VacantLand,Vacant land,False,596.0,m2,False
2016961935,listing,/37-siandra-crescent-geilston-bay-tas-7015-2016961935,545000,is-sold,Sold by private treaty 04 May 2021,20210504,37 Siandra Crescent,GEILSTON BAY,TAS,7015,-42.8367348,147.355865,3,3,3,House,House,False,655.0,m2,False
2016962207,listing,/72-begonia-street-lindisfarne-tas-7015-2016962207,782000,is-sold,Sold by private treaty 01 May 2021,20210501,72 Begonia Street,LINDISFARNE,TAS,7015,-42.8462219,147.367828,3,3,3,House,House,False,650.0,m2,False
2016964589,listing,/13-yolla-street-rose-bay-tas-7015-2016964589,710000,is-sold,Sold by private treaty 12 May 2021,20210512,13 Yolla Street,ROSE BAY,TAS,7015,-42.86046,147.354462,2,2,2,House,House,False,462.0,m2,False
2016974680,listing,/174-east-derwent-highway-lindisfarne-tas-7015-2016974680,826500,is-sold,Sold by private treaty 08 May 2021,20210508,174 East Derwent Highway,LINDISFARNE,TAS,7015,-42.84615,147.359528,4,4,4,House,House,False,1260.0,m2,False
2016974807,listing,/10-bellemont-court-geilston-bay-tas-7015-2016974807,751500,is-sold,Sold by private treaty 05 May 2021,20210505,10 Bellemont Court,GEILSTON BAY,TAS,7015,-42.8287544,147.34938,4,4,4,House,House,False,720.0,m2,False
2016978725,listing,/12-kenton-road-geilston-bay-tas-7015-2016978725,527500,is-sold,Sold by private treaty 15 May 2021,20210515,12 Kenton Road,GEILSTON BAY,TAS,7015,-42.837265,147.3569,2,2,2,House,House,False,782.0,m2,False
2016978903,listing,/13-takone-street-geilston-bay-tas-7015-2016978903,720000,is-sold,Sold by private treaty 21 May 2021,20210521,13 Takone Street,GEILSTON BAY,TAS,7015,-42.8353653,147.359558,4,4,4,House,House,False,549.0,m2,False
2016990862,listing,/2-anitra-close-geilston-bay-tas-7015-2016990862,846000,is-sold,Sold by private treaty 17 May 2021,20210517,2 Anitra Close,GEILSTON BAY,TAS,7015,-42.839222,147.3548,5,5,5,House,House,False,722.0,m2,False
2017007197,listing,/30-kenton-road-geilston-bay-tas-7015-2017007197,687240,is-sold,Sold by private treaty 22 May 2021,20210522,30 Kenton Road,GEILSTON BAY,TAS,7015,-42.8388824,147.357162,3,3,3,House,House,False,782.0,m2,False
2016423795,listing,/12-annabella-court-geilston-bay-tas-7015-2016423795,190000,is-sold,Sold by private treaty 15 Apr 2021,20210415,12 Annabella Court,GEILSTON BAY,TAS,7015,-42.8271561,147.343628,,,,VacantLand,Vacant land,False,706.0,m2,False
2016547412,listing,/lot-6-napier-street-geilston-bay-tas-7015-2016547412,,is-sold,Sold by private treaty 19 Apr 2021,20210419,Lot 6 Napier Street,GEILSTON BAY,TAS,7015,-42.8223534,147.342117,,,,VacantLand,Vacant land,False,584.0,m2,False
2016661561,listing,/2-61-napier-street-geilston-bay-tas-7015-2016661561,455000,is-sold,Sold by private treaty 10 Apr 2021,20210410,2/61 Napier Street,GEILSTON BAY,TAS,7015,-42.82373,147.342117,3,3,3,House,House,False,360.0,m2,False
2016661688,listing,/2-66-napier-street-geilston-bay-tas-7015-2016661688,455000,is-sold,Sold by private treaty 10 Apr 2021,20210410,2/66 Napier Street,GEILSTON BAY,TAS,7015,-42.82373,147.342117,3,3,3,House,House,False,338.0,m2,False
2016661933,listing,/1-68-napier-street-geilston-bay-tas-7015-2016661933,455000,is-sold,Sold by private treaty 10 Apr 2021,20210410,1/68 Napier Street,GEILSTON BAY,TAS,7015,-42.82373,147.342117,3,3,3,House,House,False,102.0,m2,False
2016683074,listing,/1-61-napier-street-geilston-bay-tas-7015-2016683074,455000,is-sold,Sold by private treaty 10 Apr 2021,20210410,1/61 Napier Street,GEILSTON BAY,TAS,7015,-42.82389,147.339569,3,3,3,House,House,False,341.0,m2,False
2016687451,listing,/3-63-65-napier-street-geilston-bay-tas-7015-2016687451,455000,is-sold,Sold by private treaty 10 Apr 2021,20210410,3/63-65 Napier Street,GEILSTON BAY,TAS,7015,-42.82389,147.339569,3,3,3,House,House,False,341.0,m2,False
2016699355,listing,/6-63-65-napier-street-geilston-bay-tas-7015-2016699355,455000,is-sold,Sold by private treaty 10 Apr 2021,20210410,6/63-65 Napier Street,GEILSTON BAY,TAS,7015,-42.82389,147.339569,3,3,3,House,House,False,341.0,m2,False
2016814583,listing,/45-walana-street-geilston-bay-tas-7015-2016814583,710000,is-sold,Sold by private treaty 06 Apr 2021,20210406,45 Walana Street,GEILSTON BAY,TAS,7015,-42.8381653,147.362411,4,4,4,House,House,False,690.0,m2,False
2016832637,listing,/19-adina-street-geilston-bay-tas-7015-2016832637,637000,is-sold,Sold by private treaty 19 Apr 2021,20210419,19 Adina Street,GEILSTON BAY,TAS,7015,-42.83963,147.359268,3,3,3,House,House,False,678.0,m2,False
2016854822,listing,/14-balandra-court-geilston-bay-tas-7015-2016854822,635000,is-sold,Sold by private treaty 07 Apr 2021,20210407,14 Balandra Court,GEILSTON BAY,TAS,7015,-42.8368378,147.354874,3,3,3,House,House,False,630.0,m2,False
2016861847,listing,/10-st-helens-street-lindisfarne-tas-7015-2016861847,725000,is-sold,Sold by private treaty 08 Apr 2021,20210408,10 St Helens Street,LINDISFARNE,TAS,7015,-42.85309,147.365509,4,4,4,House,House,False,592.0,m2,False
2016880549,listing,/11-sunhaven-avenue-geilston-bay-tas-7015-2016880549,810300,is-sold,Sold by private treaty 28 Mar 2021,20210328,11 Sunhaven Avenue,GEILSTON BAY,TAS,7015,-42.8402977,147.346252,3,3,3,House,House,False,1148.0,m2,False
2016883763,listing,/3-15-park-road-lindisfarne-tas-7015-2016883763,531000,is-sold,Sold by private treaty 20 Apr 2021,20210420,3/15 Park Road,LINDISFARNE,TAS,7015,-42.8491554,147.351791,2,2,2,House,House,False,245.0,m2,False
2016907606,listing,/3-28-llenroc-street-geilston-bay-tas-7015-2016907606,515000,is-sold,Sold by private treaty 14 Apr 2021,20210414,3/28 Llenroc Street,GEILSTON BAY,TAS,7015,-42.83308,147.354691,2,2,2,ApartmentUnitFlat,Apartment / Unit / Flat,False,244.0,m2,False
2016924900,listing,/40-gordons-hill-road-lindisfarne-tas-7015-2016924900,600000,is-sold,Sold by private treaty 17 Apr 2021,20210417,40 Gordons Hill Road,LINDISFARNE,TAS,7015,-42.8578758,147.371109,3,3,3,House,House,False,703.0,m2,False
2016926847,listing,/24-nietta-road-lindisfarne-tas-7015-2016926847,602500,is-sold,Sold by private treaty 22 Apr 2021,20210422,24 Nietta Road,LINDISFARNE,TAS,7015,-42.850296,147.36377,3,3,3,House,House,False,812.0,m2,False
2016928465,listing,/15-marana-avenue-rose-bay-tas-7015-2016928465,1225000,is-sold,Sold by private treaty 18 Apr 2021,20210418,15 Marana Avenue,ROSE BAY,TAS,7015,-42.861805,147.352051,3,3,3,House,House,False,640.0,m2,False
2016961664,listing,/115-east-derwent-highway-lindisfarne-tas-7015-2016961664,537500,is-sold,Sold by private treaty 30 Apr 2021,20210430,115 East Derwent Highway,LINDISFARNE,TAS,7015,-42.85141,147.360611,2,2,2,House,House,False,756.0,m2,False
2016961797,listing,/117-east-derwent-highway-lindisfarne-tas-7015-2016961797,537500,is-sold,Sold by private treaty 30 Apr 2021,20210430,117 East Derwent Highway,LINDISFARNE,TAS,7015,-42.8512726,147.3608,2,2,2,House,House,False,756.0,m2,False
2016305598,listing,/1-3-170-flagstaff-gully-road-lindisfarne-tas-7015-2016305598,,is-sold,Sold by private treaty 05 Mar 2021,20210305,1-3/170 Flagstaff Gully Road,LINDISFARNE,TAS,7015,-42.849514,147.377014,3,3,3,ApartmentUnitFlat,Apartment / Unit / Flat,False,1007.0,m2,False
2016678404,listing,/98-flagstaff-gully-road-lindisfarne-tas-7015-2016678404,564000,is-sold,Sold by private treaty 15 Mar 2021,20210315,98 Flagstaff Gully Road,LINDISFARNE,TAS,7015,-42.8548622,147.376953,3,3,3,House,House,False,2032.0,m2,False
2016719078,listing,/175-east-derwent-highway-lindisfarne-tas-7015-2016719078,1270000,is-sold,Sold by private treaty 18 Mar 2021,20210318,175 East Derwent Highway,LINDISFARNE,TAS,7015,-42.84716,147.3604,5,5,5,House,House,False,656.0,m2,False
2016738089,listing,/29-clinton-road-geilston-bay-tas-7015-2016738089,635000,is-sold,Sold by private treaty 04 Mar 2021,20210304,29 Clinton Road,GEILSTON BAY,TAS,7015,-42.8328629,147.3489,4,4,4,House,House,False,1179.0,m2,False
2016797705,listing,/1-33-dumbarton-drive-geilston-bay-tas-7015-2016797705,620000,is-sold,Sold by private treaty 05 Mar 2021,20210305,1/33 Dumbarton Drive,GEILSTON BAY,TAS,7015,-42.8325577,147.3461,4,4,4,ApartmentUnitFlat,Apartment / Unit / Flat,False,620.0,m2,False
2016812353,listing,/8-greenacres-road-geilston-bay-tas-7015-2016812353,607500,is-sold,Sold by private treaty 16 Mar 2021,20210316,8 Greenacres Road,GEILSTON BAY,TAS,7015,-42.8402328,147.359222,3,3,3,House,House,False,678.0,m2,False
2016813045,listing,/74-gordons-hill-road-lindisfarne-tas-7015-2016813045,585000,is-sold,Sold by private treaty 04 Mar 2021,20210304,74 Gordons Hill Road,LINDISFARNE,TAS,7015,-42.8553543,147.371033,4,4,4,House,House,False,908.0,m2,False
2016814801,listing,/41-topham-street-rose-bay-tas-7015-2016814801,644100,is-sold,Sold by private treaty 03 Mar 2021,20210303,41 Topham Street,ROSE BAY,TAS,7015,-42.8620224,147.353088,4,4,4,House,House,False,676.0,m2,False
2016816290,listing,/5-east-derwent-highway-rose-bay-tas-7015-2016816290,790000,is-sold,Sold by private treaty 03 Mar 2021,20210303,5 East Derwent Highway,ROSE BAY,TAS,7015,-42.8598137,147.3548,4,4,4,House,House,False,797.0,m2,False
2016816335,listing,/6-christina-court-geilston-bay-tas-7015-2016816335,525000,is-sold,Sold by private treaty 03 Mar 2021,20210303,6 Christina Court,GEILSTON BAY,TAS,7015,-42.8378448,147.352081,3,3,3,House,House,False,606.0,m2,False
2016831713,listing,/2-adina-street-geilston-bay-tas-7015-2016831713,575000,is-sold,Sold by private treaty 06 Mar 2021,20210306,2 Adina Street,GEILSTON BAY,TAS,7015,-42.83707,147.359055,3,3,3,House,House,False,599.0,m2,False
2016834375,listing,/27-bellemont-court-geilston-bay-tas-7015-2016834375,210000,is-sold,Sold by private treaty 06 Mar 2021,20210306,27 Bellemont Court,GEILSTON BAY,TAS,7015,-42.8273544,147.348358,,,,VacantLand,Vacant land,False,800.0,m2,False
2016838944,listing,/22-tianna-road-lindisfarne-tas-7015-2016838944,980000,is-sold,Sold by private treaty 09 Mar 2021,20210309,22 Tianna Road,LINDISFARNE,TAS,7015,-42.84453,147.349945,3,3,3,House,House,False,550.0,m2,False
2016839646,listing,/5-3-cyrus-court-rose-bay-tas-7015-2016839646,725000,is-sold,Sold by private treaty 23 Mar 2021,20210323,5/3 Cyrus Court,ROSE BAY,TAS,7015,-42.8606529,147.356247,3,3,3,Townhouse,Townhouse,False,398.0,m2,False
2016847513,listing,/69-karoola-road-lindisfarne-tas-7015-2016847513,825000,is-sold,Sold by private treaty 21 Mar 2021,20210321,69 Karoola Road,LINDISFARNE,TAS,7015,-42.84588,147.3642,3,3,3,House,House,False,1303.0,m2,False
2016847564,listing,/3-lowanna-road-lindisfarne-tas-7015-2016847564,621000,is-sold,Sold by private treaty 11 Mar 2021,20210311,3 Lowanna Road,LINDISFARNE,TAS,7015,-42.842247,147.354034,3,3,3,House,House,False,630.0,m2,False
2016855633,listing,/14-andreas-place-geilston-bay-tas-7015-2016855633,570000,is-sold,Sold by private treaty 19 Mar 2021,20210319,14 Andreas Place,GEILSTON BAY,TAS,7015,-42.8336525,147.346466,3,3,3,House,House,False,769.0,m2,False
2016856519,listing,/81a-gordons-hill-road-lindisfarne-tas-7015-2016856519,685000,is-sold,Sold by private treaty 27 Mar 2021,20210327,81A Gordons Hill Road,LINDISFARNE,TAS,7015,-42.85544,147.372986,3,3,3,House,House,False,696.0,m2,False
2016865895,listing,/171a-gordons-hill-road-lindisfarne-tas-7015-2016865895,642000,is-sold,Sold by private treaty 23 Mar 2021,20210323,171a Gordons Hill Road,LINDISFARNE,TAS,7015,-42.84965,147.3654,2,2,2,House,House,False,827.0,m2,False
2016883455,listing,/3-28a-loatta-road-lindisfarne-tas-7015-2016883455,566075,is-sold,Sold by private treaty 27 Mar 2021,20210327,3/28A Loatta Road,LINDISFARNE,TAS,7015,-42.8524,147.360687,2,2,2,ApartmentUnitFlat,Apartment / Unit / Flat,False,368.0,m2,False
2016643307,listing,/34-clinton-road-geilston-bay-tas-7015-2016643307,2550000,is-sold,Sold by private treaty 18 Feb 2021,20210218,34 Clinton Road,GEILSTON BAY,TAS,7015,-42.8318062,147.3518,,,,VacantLand,Vacant land,True,1.55,ha,False
2016672585,listing,/67-malunna-road-lindisfarne-tas-7015-2016672585,,is-sold,Sold by private treaty 22 Feb 2021,20210222,67 Malunna Road,LINDISFARNE,TAS,7015,-42.84548,147.360779,3,3,3,House,House,False,433.0,m2,False
2016676170,listing,/9-annabella-court-geilston-bay-tas-7015-2016676170,202000,is-sold,Sold by private treaty 02 Mar 2021,20210302,9 Annabella Court,GEILSTON BAY,TAS,7015,-42.8271561,147.343628,,,,VacantLand,Vacant land,False,1888.0,m2,False
2016737698,listing,/6-marion-court-lindisfarne-tas-7015-2016737698,613880,is-sold,Sold by private treaty 12 Feb 2021,20210212,6 Marion Court,LINDISFARNE,TAS,7015,-42.8447342,147.365936,3,3,3,House,House,False,600.0,m2,False
2016764748,listing,/4-63-65-napier-street-geilston-bay-tas-7015-2016764748,455000,is-sold,Sold by private treaty 15 Feb 2021,20210215,4/63-65 Napier Street,GEILSTON BAY,TAS,7015,-42.8238373,147.341812,3,3,3,House,House,False,365.0,m2,False
2016781800,listing,/49-463-east-derwent-highway-geilston-bay-tas-7015-2016781800,182000,is-sold,Sold by private treaty 01 Mar 2021,20210301,49/463 East Derwent Highway,GEILSTON BAY,TAS,7015,-42.8271561,147.343628,,,,VacantLand,Vacant land,False,549.0,m2,False
2016782728,listing,/300-east-derwent-highway-geilston-bay-tas-7015-2016782728,605000,is-sold,Sold by private treaty 16 Feb 2021,20210216,300 East Derwent Highway,GEILSTON BAY,TAS,7015,-42.8371544,147.351425,3,3,3,House,House,False,446.0,m2,False
2016782750,listing,/9-karoola-road-lindisfarne-tas-7015-2016782750,792000,is-sold,Sold by private treaty 12 Feb 2021,20210212,9 Karoola Road,LINDISFARNE,TAS,7015,-42.8410721,147.355682,4,4,4,House,House,False,683.0,m2,False
2016787639,listing,/8-sabrina-court-lindisfarne-tas-7015-2016787639,825000,is-sold,Sold by private treaty 13 Feb 2021,20210213,8 Sabrina Court,LINDISFARNE,TAS,7015,-42.8486443,147.366821,3,3,3,House,House,False,726.0,m2,False
2016790242,listing,/133-flagstaff-gully-road-lindisfarne-tas-7015-2016790242,570000,is-sold,Sold by private treaty 12 Feb 2021,20210212,133 Flagstaff Gully Road,LINDISFARNE,TAS,7015,-42.8521576,147.378189,3,3,3,House,House,False,761.0,m2,False
2016797889,listing,/12-granville-avenue-geilston-bay-tas-7015-2016797889,770000,is-sold,Sold by private treaty 01 Mar 2021,20210301,12 Granville Avenue,GEILSTON BAY,TAS,7015,-42.8405838,147.342545,3,3,3,House,House,False,832.0,m2,False
2016799811,listing,/93-lindhill-avenue-geilston-bay-tas-7015-2016799811,712000,is-sold,Sold by private treaty 20 Feb 2021,20210220,93 Lindhill Avenue,GEILSTON BAY,TAS,7015,-42.841423,147.361435,4,4,4,House,House,False,1122.0,m2,False
2016801594,listing,/27-kenton-road-geilston-bay-tas-7015-2016801594,601000,is-sold,Sold by private treaty 20 Feb 2021,20210220,27 Kenton Road,GEILSTON BAY,TAS,7015,-42.8369675,147.356369,4,4,4,House,House,False,667.0,m2,False
2016802094,listing,/1-63-65-napier-street-geilston-bay-tas-7015-2016802094,460000,is-sold,Sold by private treaty 15 Feb 2021,20210215,1/63-65 Napier Street,GEILSTON BAY,TAS,7015,-42.8223534,147.342117,3,3,3,House,House,False,340.0,m2,False
2016812977,listing,/74-76-clinton-road-geilston-bay-tas-7015-2016812977,735000,is-sold,Sold by private treaty 02 Mar 2021,20210302,74 - 76 Clinton Road,GEILSTON BAY,TAS,7015,-42.82926,147.34877,3,3,3,House,House,False,1750.0,m2,False
2016814584,listing,/33-karoola-road-lindisfarne-tas-7015-2016814584,731550,is-sold,Sold by private treaty 27 Feb 2021,20210227,33 Karoola Road,LINDISFARNE,TAS,7015,-42.8425522,147.357773,3,3,3,House,House,False,693.0,m2,False
2016814776,listing,/26a-talune-street-lindisfarne-tas-7015-2016814776,1050000,is-sold,Sold by private treaty 26 Feb 2021,20210226,26a Talune Street,LINDISFARNE,TAS,7015,-42.8492775,147.347366,4,4,4,House,House,False,1215.0,m2,False
2016818569,listing,/38-east-derwent-highway-rose-bay-tas-7015-2016818569,660200,is-sold,Sold by private treaty 27 Feb 2021,20210227,38 East Derwent Highway,ROSE BAY,TAS,7015,-42.85742,147.356857,3,3,3,House,House,False,582.0,m2,False
2016822412,listing,/26-beach-road-lindisfarne-tas-7015-2016822412,640000,is-sold,Sold by private treaty 02 Mar 2021,20210302,26 Beach Road,LINDISFARNE,TAS,7015,-42.8458023,147.364685,3,3,3,House,House,False,726.0,m2,False
2016837831,listing,/1-6-nelumie-street-lindisfarne-tas-7015-2016837831,540000,is-sold,Sold by private treaty 17 Feb 2021,20210217,1/6 Nelumie Street,LINDISFARNE,TAS,7015,-42.84556,147.354019,2,2,2,ApartmentUnitFlat,Apartment / Unit / Flat,False,332.0,m2,False
2016534772,listing,/3-176-derwent-avenue-lindisfarne-tas-7015-2016534772,930000,is-sold,Sold by private treaty 18 Jan 2021,20210118,3/176 Derwent Avenue,LINDISFARNE,TAS,7015,-42.8466454,147.34404,4,4,4,House,House,False,786.0,m2,False
2016562193,listing,/28a-dumbarton-drive-geilston-bay-tas-7015-2016562193,505000,is-sold,Sold by private treaty 31 Jan 2021,20210131,28a Dumbarton Drive,GEILSTON BAY,TAS,7015,-42.832428,147.347137,3,3,3,House,House,False,546.0,m2,False
2016655701,listing,/lot-1-92-gordons-hill-road-lindisfarne-tas-7015-2016655701,255000,is-sold,Sold by private treaty 01 Feb 2021,20210201,Lot 1/92 Gordons Hill Road,LINDISFARNE,TAS,7015,-42.85362,147.370346,,,,VacantLand,Vacant land,False,400.0,m2,False
2016659879,listing,/1-66-napier-st-geilston-bay-tas-7015-2016659879,460000,is-sold,Sold by private treaty 01 Feb 2021,20210201,1/66 Napier St,GEILSTON BAY,TAS,7015,-42.82373,147.342117,3,3,3,House,House,False,360.0,m2,False
2016662086,listing,/2-68-napier-street-geilston-bay-tas-7015-2016662086,455000,is-sold,Sold by private treaty 15 Jan 2021,20210115,2/68 Napier Street,GEILSTON BAY,TAS,7015,-42.82373,147.342117,3,3,3,House,House,False,334.0,m2,False
2016687446,listing,/2-63-65-napier-street-geilston-bay-tas-7015-2016687446,455000,is-sold,Sold by private treaty 20 Jan 2021,20210120,2/63-65 Napier Street,GEILSTON BAY,TAS,7015,-42.8237457,147.34314,3,3,3,House,House,False,341.0,m2,False
2016696015,listing,/54-karoola-road-lindisfarne-tas-7015-2016696015,610500,is-sold,Sold by private treaty 28 Jan 2021,20210128,54 Karoola Road,LINDISFARNE,TAS,7015,-42.84305,147.359329,3,3,3,House,House,False,969.0,m2,False
2016731524,listing,/28-dumbarton-drive-geilston-bay-tas-7015-2016731524,550000,is-sold,Sold by private treaty 19 Jan 2021,20210119,28 Dumbarton Drive,GEILSTON BAY,TAS,7015,-42.8325653,147.346939,3,3,3,House,House,False,741.0,m2,False
2016735020,listing,/213-derwent-avenue-lindisfarne-tas-7015-2016735020,660000,is-sold,Sold by private treaty 21 Jan 2021,20210121,213 Derwent Avenue,LINDISFARNE,TAS,7015,-42.8434334,147.358231,3,3,3,House,House,False,435.0,m2,False
2016735113,listing,/17-swinton-place-rose-bay-tas-7015-2016735113,,is-sold,Sold by private treaty 27 Jan 2021,20210127,17 Swinton Place,ROSE BAY,TAS,7015,-42.85467,147.357285,3,3,3,House,House,False,855.0,m2,False
2016739204,listing,/114a-karoola-road-lindisfarne-tas-7015-2016739204,610000,is-sold,Sold by private treaty 01 Feb 2021,20210201,114A Karoola Road,LINDISFARNE,TAS,7015,-42.8451843,147.3653,4,4,4,House,House,False,595.0,m2,False
2016743691,listing,/132-gordons-hill-road-lindisfarne-tas-7015-2016743691,610000,is-sold,Sold by private treaty 31 Jan 2021,20210131,132 Gordons Hill Road,LINDISFARNE,TAS,7015,-42.8509636,147.366821,4,4,4,House,House,False,478.0,m2,False
2016747783,listing,/5-63-65-napier-street-geilston-bay-tas-7015-2016747783,455000,is-sold,Sold by private treaty 21 Jan 2021,20210121,5/63-65 Napier Street,GEILSTON BAY,TAS,7015,-42.8223534,147.342117,3,3,3,House,House,False,340.0,m2,False
2016752924,listing,/46-lincoln-street-lindisfarne-tas-7015-2016752924,1280000,is-sold,Sold by private treaty 29 Jan 2021,20210129,46 Lincoln Street,LINDISFARNE,TAS,7015,-42.847084,147.3542,4,4,4,House,House,False,1207.0,m2,False
2016753978,listing,/77-east-derwent-highway-lindisfarne-tas-7015-2016753978,685500,is-sold,Sold by private treaty 09 Feb 2021,20210209,77 East Derwent Highway,LINDISFARNE,TAS,7015,-42.85346,147.357117,3,3,3,House,House,False,739.0,m2,False
2016754529,listing,/9a-yolla-street-rose-bay-tas-7015-2016754529,660000,is-sold,Sold by private treaty 05 Feb 2021,20210205,9A Yolla Street,ROSE BAY,TAS,7015,-42.8605652,147.354141,3,3,3,House,House,False,539.0,m2,False
2016755828,listing,/1a-nubeena-street-lindisfarne-tas-7015-2016755828,555000,is-sold,Sold by private treaty 02 Feb 2021,20210202,1A Nubeena Street,LINDISFARNE,TAS,7015,-42.8402367,147.35022,3,3,3,House,House,False,392.0,m2,False
2016757468,listing,/52-gordons-hill-road-lindisfarne-tas-7015-2016757468,632750,is-sold,Sold by private treaty 02 Feb 2021,20210202,52 Gordons Hill Road,LINDISFARNE,TAS,7015,-42.85654,147.371841,3,3,3,House,House,False,1171.0,m2,False
2016760347,listing,/7-sarean-court-geilston-bay-tas-7015-2016760347,1150000,is-sold,Sold by private treaty 09 Feb 2021,20210209,7 Sarean Court,GEILSTON BAY,TAS,7015,-42.83567,147.343613,5,5,5,House,House,False,18600.0,m2,False
2016775249,listing,/2-15-talune-street-lindisfarne-tas-7015-2016775249,686000,is-sold,Sold by private treaty 03 Feb 2021,20210203,2/15 Talune Street,LINDISFARNE,TAS,7015,-42.8495941,147.345322,3,3,3,Townhouse,Townhouse,False,331.0,m2,False
2016197767,listing,/9-ambleside-lindisfarne-tas-7015-2016197767,460000,is-sold,Sold by private treaty 24 Dec 2020,20201224,9 Ambleside,LINDISFARNE,TAS,7015,-42.8462067,147.339981,,,,VacantLand,Vacant land,False,558.0,m2,False
2016592460,listing,/4-3-lenna-street-rose-bay-tas-7015-2016592460,584000,is-sold,Sold by private treaty 13 Jan 2021,20210113,4/3 Lenna Street,ROSE BAY,TAS,7015,-42.8587456,147.3569,3,3,3,ApartmentUnitFlat,Apartment / Unit / Flat,False,232.0,m2,False
2016597670,listing,/2-16-wellington-road-lindisfarne-tas-7015-2016597670,765000,is-sold,Sold by private treaty 29 Dec 2020,20201229,2/16 Wellington Road,LINDISFARNE,TAS,7015,-42.84869,147.352753,3,3,3,House,House,False,159.0,m2,False
2016643826,listing,/46-wellington-road-lindisfarne-tas-7015-2016643826,672000,is-sold,Sold by private treaty 11 Jan 2021,20210111,46 Wellington Road,LINDISFARNE,TAS,7015,-42.8459,147.351334,3,3,3,House,House,False,798.0,m2,False
2016654956,listing,/24-clinton-road-geilston-bay-tas-7015-2016654956,490000,is-sold,Sold by private treaty 08 Jan 2021,20210108,24 Clinton Road,GEILSTON BAY,TAS,7015,-42.8331871,147.34993,3,3,3,House,House,False,675.0,m2,False
2016655864,listing,/1-16-wellington-road-lindisfarne-tas-7015-2016655864,629000,is-sold,Sold by private treaty 14 Dec 2020,20201214,1/16 Wellington Road,LINDISFARNE,TAS,7015,-42.84869,147.352753,5,5,5,House,House,False,373.0,m2,False
2016667821,listing,/3-10-eldon-street-lindisfarne-tas-7015-2016667821,950000,is-sold,Sold by private treaty 08 Jan 2021,20210108,3/10 Eldon Street,LINDISFARNE,TAS,7015,-42.8483,147.346054,3,3,3,Townhouse,Townhouse,False,313.0,m2,False
2016669630,listing,/70-henley-street-lindisfarne-tas-7015-2016669630,685000,is-sold,Sold by private treaty 14 Dec 2020,20201214,70 Henley Street,LINDISFARNE,TAS,7015,-42.85405,147.369965,4,4,4,House,House,False,756.0,m2,False
2016676723,listing,/30-andreas-place-geilston-bay-tas-7015-2016676723,720000,is-sold,Sold by private treaty 15 Dec 2020,20201215,30 Andreas Place,GEILSTON BAY,TAS,7015,-42.83445,147.346176,4,4,4,House,House,False,1594.0,m2,False
2016680391,listing,/8-41-clinton-road-geilston-bay-tas-7015-2016680391,410000,is-sold,Sold by private treaty 14 Dec 2020,20201214,8/41 Clinton Road,GEILSTON BAY,TAS,7015,-42.83146,147.3482,2,2,2,Villa,Villa,False,301.0,m2,False
2016680534,listing,/24-manly-avenue-lindisfarne-tas-7015-2016680534,475000,is-sold,Sold by private treaty 18 Dec 2020,20201218,24 Manly Avenue,LINDISFARNE,TAS,7015,-42.8525162,147.367767,3,3,3,House,House,False,526.0,m2,False
2016681532,listing,/3-ryeland-court-rose-bay-tas-7015-2016681532,,is-sold,Sold by private treaty 29 Dec 2020,20201229,3 Ryeland Court,ROSE BAY,TAS,7015,-42.8545532,147.361923,4,4,4,House,House,False,944.0,m2,False
2016683277,listing,/36-wellington-road-lindisfarne-tas-7015-2016683277,650000,is-sold,Sold by private treaty 17 Dec 2020,20201217,36 Wellington Road,LINDISFARNE,TAS,7015,-42.8465767,147.352142,3,3,3,House,House,False,792.0,m2,False
2016684635,listing,/35-astor-drive-geilston-bay-tas-7015-2016684635,621000,is-sold,Sold by private treaty 08 Dec 2020,20201208,35 Astor Drive,GEILSTON BAY,TAS,7015,-42.8369865,147.353882,4,4,4,House,House,False,594.0,m2,False
2016686961,listing,/211-derwent-avenue-lindisfarne-tas-7015-2016686961,590119,is-sold,Sold by private treaty 15 Dec 2020,20201215,211 Derwent Avenue,LINDISFARNE,TAS,7015,-42.8438339,147.35791,3,3,3,House,House,False,600.0,m2,False
2016693915,listing,/14-adina-street-geilston-bay-tas-7015-2016693915,510000,is-sold,Sold by private treaty 20 Dec 2020,20201220,14 Adina Street,GEILSTON BAY,TAS,7015,-42.8380432,147.359238,3,3,3,House,House,False,668.0,m2,False
2016701684,listing,/43-astor-drive-geilston-bay-tas-7015-2016701684,609009,is-sold,Sold by private treaty 19 Dec 2020,20201219,43 Astor Drive,GEILSTON BAY,TAS,7015,-42.8365822,147.354065,3,3,3,House,House,False,658.0,m2,False
2016708050,listing,/18-sunhaven-avenue-geilston-bay-tas-7015-2016708050,700000,is-sold,Sold by private treaty 22 Dec 2020,20201222,18 Sunhaven Avenue,GEILSTON BAY,TAS,7015,-42.83933,147.345749,3,3,3,House,House,False,800.0,m2,False
2016710273,listing,/1-esplanade-lindisfarne-tas-7015-2016710273,600000,is-sold,Sold by private treaty 02 Jan 2021,20210102,1 Esplanade,LINDISFARNE,TAS,7015,-42.8489227,147.353943,4,4,4,House,House,False,665.0,m2,False
2016715469,listing,/19-nayuka-street-geilston-bay-tas-7015-2016715469,595000,is-sold,Sold by private treaty 09 Jan 2021,20210109,19 Nayuka Street,GEILSTON BAY,TAS,7015,-42.83929,147.3611,3,3,3,House,House,False,668.0,m2,False
2016142522,listing,/2-33-east-derwent-highway-rose-bay-tas-7015-2016142522,735000,is-sold,Sold by private treaty 19 Nov 2020,20201119,2/33 East Derwent Highway,ROSE BAY,TAS,7015,-42.8575554,147.356033,3,3,3,ApartmentUnitFlat,Apartment / Unit / Flat,False,383.0,m2,False
2016418020,listing,/21-raminea-road-lindisfarne-tas-7015-2016418020,645000,is-sold,Sold by private treaty 13 Nov 2020,20201113,21 Raminea Road,LINDISFARNE,TAS,7015,-42.8445473,147.355072,3,3,3,House,House,False,632.0,m2,False
2016516191,listing,/7a-melita-court-geilston-bay-tas-7015-2016516191,570000,is-sold,Sold by private treaty 24 Nov 2020,20201124,7A Melita Court,GEILSTON BAY,TAS,7015,-42.8383026,147.354263,4,4,4,House,House,False,511.0,m2,False
2016518268,listing,/3-40-wellington-road-lindisfarne-tas-7015-2016518268,660000,is-sold,Sold by private treaty 16 Nov 2020,20201116,3/40 Wellington Road,LINDISFARNE,TAS,7015,-42.84641,147.351654,3,3,3,ApartmentUnitFlat,Apartment / Unit / Flat,False,298.0,m2,False
2016533252,listing,/2-melita-court-geilston-bay-tas-7015-2016533252,580000,is-sold,Sold by private treaty 03 Dec 2020,20201203,2 Melita Court,GEILSTON BAY,TAS,7015,-42.83782,147.35466,4,4,4,House,House,False,579.0,m2,False
2016562174,listing,/14-clunie-close-lindisfarne-tas-7015-2016562174,525000,is-sold,Sold by private treaty 21 Nov 2020,20201121,14 Clunie Close,LINDISFARNE,TAS,7015,-42.8401031,147.35434,3,3,3,House,House,False,884.0,m2,False
2016580764,listing,/5-52-lincoln-street-lindisfarne-tas-7015-2016580764,432000,is-sold,Sold by private treaty 02 Dec 2020,20201202,5/52 Lincoln Street,LINDISFARNE,TAS,7015,-42.8466721,147.35498,2,2,2,ApartmentUnitFlat,Apartment / Unit / Flat,False,82.0,m2,False
