id,listingType,url,price,tagClassName,tagText,date,street,suburb,state,postcode,lat,lng,beds,baths,parking,propertyType,propertyTypeFormatted,isRural,landSize,landUnit,isRetirement
2017851999,listing,/29-torneys-road-beauty-point-tas-7270-2017851999,,is-sold,Sold by private treaty 10 Feb 2023,20230210,29 Torneys Road,BEAUTY POINT,TAS,7270,-41.171402,146.814209,2,2,2,House,House,False,1849.0,m2,False
2017938547,listing,/greens-beach-road-york-town-tas-7270-2017938547,200000,is-sold,Sold by private treaty 10 Feb 2023,20230210,Greens Beach Road,YORK TOWN,TAS,7270,-41.15363,146.765656,,,,Rural,Rural,True,28.33,ha,False
2018051958,listing,/108-sunset-boulevard-clarence-point-tas-7270-2018051958,210000,is-sold,Sold by private treaty 14 Dec 2022,20221214,108 Sunset Boulevard,CLARENCE POINT,TAS,7270,-41.1342239,146.810562,,,,VacantLand,Vacant land,False,837.0,m2,False
2018063594,listing,/32-34-brooklyn-street-beaconsfield-tas-7270-2018063594,,is-sold,Sold by private treaty 09 Feb 2023,20230209,32-34 Brooklyn Street,BEACONSFIELD,TAS,7270,-41.1957245,146.808838,3,3,3,House,House,False,2276.0,m2,False
2018077908,listing,/93-foreshore-road-kelso-tas-7270-2018077908,,is-sold,Sold by private treaty 22 Dec 2022,20221222,93 Foreshore Road,KELSO,TAS,7270,-41.09805,146.790726,5,5,5,House,House,False,1700.0,m2,False
2018109665,listing,/1-and-2-20-jellico-street-beauty-point-tas-7270-2018109665,,is-sold,Sold by private treaty 27 Dec 2022,20221227,1 and 2/20 Jellico Street,BEAUTY POINT,TAS,7270,-41.15016,146.815735,5,5,5,House,House,False,920.0,m2,False
2018119705,listing,/36-38-beach-crescent-greens-beach-tas-7270-2018119705,545000,is-sold,Sold by private treaty 11 Jan 2023,20230111,36-38 Beach Crescent,GREENS BEACH,TAS,7270,-41.0896759,146.7463,3,3,3,House,House,False,1214.0,m2,False
2018125307,listing,/34-porters-road-kayena-tas-7270-2018125307,825000,is-sold,Sold by private treaty 10 Feb 2023,20230210,34 Porters Road,KAYENA,TAS,7270,-41.19509,146.907318,4,4,4,AcreageSemiRural,Acreage / Semi-Rural,True,2.02,ha,False
2018137519,listing,/192-weld-street-beaconsfield-tas-7270-2018137519,395000,is-sold,Sold by private treaty 20 Feb 2023,20230220,192 Weld Street,BEACONSFIELD,TAS,7270,-41.1955833,146.812515,3,3,3,House,House,False,1012.0,m2,False
2018151542,listing,/12-crowther-street-beaconsfield-tas-7270-2018151542,320000,is-sold,Sold by private treaty 02 Mar 2023,20230302,12 Crowther Street,BEACONSFIELD,TAS,7270,-41.1943245,146.817566,3,3,3,House,House,False,1029.0,m2,False
2018171830,listing,/74-robert-street-beauty-point-tas-7270-2018171830,500000,is-sold,Sold by private treaty 01 Mar 2023,20230301,74 Robert Street,BEAUTY POINT,TAS,7270,-41.160183,146.821716,3,3,3,House,House,False,3096.0,m2,False
2018179510,listing,/lot-3-42-clarence-point-road-clarence-point-tas-7270-2018179510,555000,is-sold,Sold by private treaty 30 Jan 2023,20230130,"Lot 3,  42 Clarence Point Road",CLARENCE POINT,TAS,7270,-41.1427574,146.773819,,,,VacantLand,Vacant land,True,6.21,ha,False
2018211737,listing,/4411-west-tamar-highway-beauty-point-tas-7270-2018211737,,is-sold,Sold by private treaty 06 Feb 2023,20230206,4411 West Tamar highway,BEAUTY POINT,TAS,7270,-41.1694641,146.817154,3,3,3,House,House,False,1067.0,m2,False
2018226170,listing,/20-scott-street-beauty-point-tas-7270-2018226170,,is-sold,Sold by private treaty 17 Jan 2023,20230117,20 Scott Street,BEAUTY POINT,TAS,7270,-41.1494446,146.817566,2,2,2,House,House,False,455.0,m2,False
2018232286,listing,/6-aldridge-street-york-town-tas-7270-2018232286,700000,is-sold,Sold by private treaty 15 Feb 2023,20230215,6 Aldridge Street,YORK TOWN,TAS,7270,-41.14809,146.766464,4,4,4,House,House,True,1.04,ha,False
2018266463,listing,/lot-12-clarence-point-road-clarence-point-tas-7270-2018266463,375000,is-sold,Sold by private treaty 09 Jan 2023,20230109,Lot 12 Clarence Point Road,CLARENCE POINT,TAS,7270,-41.1347237,146.7887,,,,VacantLand,Vacant land,True,2.45,ha,False
2018286557,listing,/50-sunset-boulevard-clarence-point-tas-7270-2018286557,,is-sold,Sold by private treaty 10 Feb 2023,20230210,50 Sunset Boulevard,CLARENCE POINT,TAS,7270,-41.1299362,146.808716,1,1,1,House,House,False,1977.0,m2,False
2018296983,listing,/25-ocean-view-drive-greens-beach-tas-7270-2018296983,380000,is-sold,Sold by private treaty 27 Jan 2023,20230127,25 Ocean View Drive,GREENS BEACH,TAS,7270,-41.08557,146.737549,,,,VacantLand,Vacant land,False,1917.0,m2,False
2018304447,listing,/114-oxford-street-beauty-point-tas-7270-2018304447,,is-sold,Sold by private treaty 24 Jan 2023,20230124,114 Oxford Street,BEAUTY POINT,TAS,7270,-41.15659,146.81955,3,3,3,House,House,False,955.0,m2,False
2018339913,listing,/52-west-bay-road-rowella-tas-7270-2018339913,,is-sold,Sold by private treaty 15 Feb 2023,20230215,52 West Bay Road,ROWELLA,TAS,7270,-41.18065,146.9223,3,3,3,House,House,False,1381.0,m2,False
2018273668,listing,/3-243-flinders-street-beauty-point-tas-7270-2018273668,,is-sold,Sold by private treaty 06 Mar 2023,20230306,3/243 Flinders Street,BEAUTY POINT,TAS,7270,-41.1478348,146.8167,2,2,2,House,House,False,448,m2,False
2018232287,listing,/131-foreshore-road-kelso-tas-7270-2018232287,535000,is-sold,Sold by private treaty 17 Feb 2023,20230217,131 Foreshore Road,KELSO,TAS,7270,-41.09506,146.789383,3,1,2,House,House,False,664,m2,False
2017648540,listing,/109-camms-road-kayena-tas-7270-2017648540,815000,is-sold,Sold by private treaty 16 Nov 2022,20221116,109 Camms Road,KAYENA,TAS,7270,-41.1995049,146.912186,3,2,9,House,House,True,2.02,ha,False
2017957875,listing,/18-beach-crescent-greens-beach-tas-7270-2017957875,465000,is-sold,Sold by private treaty 25 Nov 2022,20221125,18 Beach Crescent,GREENS BEACH,TAS,7270,-41.08911,146.744354,3,1,3,House,House,False,640,m2,False
2017967310,listing,/lot-2-180-oxford-street-beauty-point-tas-7270-2017967310,250000,is-sold,Sold by private treaty 16 Nov 2022,20221116,Lot 2/180 Oxford Street,BEAUTY POINT,TAS,7270,-41.15088,146.821457,,,,VacantLand,Vacant land,False,2089,m2,False
2017975327,listing,/104-flinders-street-beauty-point-tas-7270-2017975327,,is-sold,Sold by private treaty 08 Nov 2022,20221108,104 Flinders Street,BEAUTY POINT,TAS,7270,-41.16052,146.823212,2,1,,House,House,False,428,m2,False
2018014118,listing,/93-sunset-boulevard-clarence-point-tas-7270-2018014118,760000,is-sold,Sold by private treaty 28 Nov 2022,20221128,93 Sunset Boulevard,CLARENCE POINT,TAS,7270,-41.1349525,146.815384,3,2,4,House,House,False,741,m2,False
2018031623,listing,/1-bagot-street-beauty-point-tas-7270-2018031623,,is-sold,Sold by private treaty 21 Nov 2022,20221121,1 Bagot Street,BEAUTY POINT,TAS,7270,-41.158474,146.820969,3,1,2,House,House,False,652,m2,False
2018042109,listing,/greens-beach-greens-beach-tas-7270-2018042109,,is-sold,Sold by private treaty 21 Nov 2022,20221121,Greens Beach,GREENS BEACH,TAS,7270,,,,,,VacantLand,Vacant land,False,86500,m2,False
2018087522,listing,/86-paranaple-road-big4-kelso-sands-holiday-native-w-kelso-tas-7270-2018087522,,is-sold,Sold by private treaty 21 Nov 2022,20221121,86 Paranaple Road BIG4 Kelso Sands Holiday & Native W,KELSO,TAS,7270,-41.097,146.790466,1,1,1,Unknown,Unknown,False,0,m2,True
2018096017,listing,/24-scott-street-beauty-point-tas-7270-2018096017,522000,is-sold,Sold by private treaty 04 Dec 2022,20221204,24 Scott Street,BEAUTY POINT,TAS,7270,-41.14934,146.817108,3,1,5,House,House,False,911,m2,False
2018120662,listing,/20-top-road-greens-beach-tas-7270-2018120662,595000,is-sold,Sold by private treaty 21 Nov 2022,20221121,20 Top Road,GREENS BEACH,TAS,7270,-41.0851059,146.741714,4,2,2,House,House,False,814,m2,False
2018127123,listing,/greens-beach-road-kelso-tas-7270-2018127123,22650,is-sold,Sold by private treaty 02 Dec 2022,20221202,Greens Beach Road,KELSO,TAS,7270,-41.0991173,146.773087,,,,VacantLand,Vacant land,False,1922,m2,False
2018132693,listing,/2-napier-street-beauty-point-tas-7270-2018132693,401000,is-sold,Sold by private treaty 10 Nov 2022,20221110,2 Napier Street,BEAUTY POINT,TAS,7270,-41.15203,146.8222,3,1,2,House,House,False,779,m2,False
2018138953,listing,/4313-west-tamar-highway-beaconsfield-tas-7270-2018138953,595000,is-sold,Sold by private treaty 25 Nov 2022,20221125,4313 West Tamar Highway,BEACONSFIELD,TAS,7270,-41.1781044,146.81369,3,1,3,House,House,True,1.01,ha,False
2018144124,listing,/12-cosgrove-court-beauty-point-tas-7270-2018144124,720000,is-sold,Sold by private treaty 22 Nov 2022,20221122,12 Cosgrove Court,BEAUTY POINT,TAS,7270,-41.15316,146.8183,4,2,8,House,House,False,1079,m2,False
2018152524,listing,/31-foreshore-road-kelso-tas-7270-2018152524,515000,is-sold,Sold by private treaty 05 Dec 2022,20221205,31 Foreshore Road,KELSO,TAS,7270,-41.10412,146.7944,3,2,1,House,House,False,782,m2,False
2018169854,listing,/29-ross-street-beauty-point-tas-7270-2018169854,415000,is-sold,Sold by private treaty 10 Nov 2022,20221110,29 Ross Street,BEAUTY POINT,TAS,7270,-41.15389,146.816589,2,1,5,House,House,False,714,m2,False
2018170694,listing,/25-beach-crescent-greens-beach-tas-7270-2018170694,,is-sold,Sold by private treaty 29 Nov 2022,20221129,25 Beach Crescent,GREENS BEACH,TAS,7270,-41.0889244,146.744919,3,1,,House,House,False,582,m2,False
2018232289,listing,/402-badger-head-road-badger-head-tas-7270-2018232289,740000,is-sold,Sold by private treaty 07 Dec 2022,20221207,402 Badger Head Road,BADGER HEAD,TAS,7270,-41.12513,146.727371,3,2,13,House,House,True,4.04,ha,False
2017671996,listing,/1-37-scott-street-beauty-point-tas-7270-2017671996,,is-sold,Sold 29 Sep 2022,20220929,1/37 Scott Street,BEAUTY POINT,TAS,7270,-41.1498,146.815079,2,1,2,ApartmentUnitFlat,Apartment / Unit / Flat,False,0,m2,False
2017698781,listing,/12-ross-street-beauty-point-tas-7270-2017698781,460000,is-sold,Sold by private treaty 20 Sep 2022,20220920,12 Ross Street,BEAUTY POINT,TAS,7270,-41.15364,146.819092,4,2,3,House,House,False,0,m2,False
2017796049,listing,/24-crowther-street-beaconsfield-tas-7270-2017796049,460000,is-sold,Sold by private treaty 16 Sep 2022,20220916,24 Crowther Street,BEACONSFIELD,TAS,7270,-41.1947441,146.81633,3,1,1,House,House,False,1012,m2,False
2017868500,listing,/13-tattersalls-road-beaconsfield-tas-7270-2017868500,640000,is-sold,Sold by private treaty 20 Sep 2022,20220920,13 Tattersalls Road,BEACONSFIELD,TAS,7270,-41.1860771,146.791336,3,2,4,House,House,False,7375,m2,False
2017894493,listing,/81-payne-street-beaconsfield-tas-7270-2017894493,85000,is-sold,Sold by private treaty 04 Nov 2022,20221104,81 Payne Street,BEACONSFIELD,TAS,7270,-41.19501,146.8087,,,,VacantLand,Vacant land,False,607,m2,False
2017925017,listing,/4-lenborough-street-beauty-point-tas-7270-2017925017,355000,is-sold,Sold by private treaty 23 Sep 2022,20220923,4 Lenborough Street,BEAUTY POINT,TAS,7270,-41.1465721,146.814514,3,1,2,House,House,False,638,m2,False
2017953823,listing,/9-grubb-street-beaconsfield-tas-7270-2017953823,382000,is-sold,Sold by private treaty 21 Oct 2022,20221021,9 Grubb Street,BEACONSFIELD,TAS,7270,-41.19964,146.823776,4,1,2,House,House,False,999,m2,False
2018024289,listing,/1416-greens-beach-road-kelso-tas-7270-2018024289,480000,is-sold,Sold by private treaty 18 Oct 2022,20221018,1416 Greens Beach Road,KELSO,TAS,7270,-41.09955,146.777878,,,,VacantLand,Vacant land,True,15.37,ha,False
2018048075,listing,/82-weld-street-beaconsfield-tas-7270-2018048075,105000,is-sold,Sold by private treaty 27 Sep 2022,20220927,82 Weld Street,BEACONSFIELD,TAS,7270,-41.20438,146.820221,,,,VacantLand,Vacant land,False,626,m2,False
2018048077,listing,/84-weld-street-beaconsfield-tas-7270-2018048077,115000,is-sold,Sold by private treaty 27 Sep 2022,20220927,84 Weld Street,BEACONSFIELD,TAS,7270,-41.204216,146.8199,,,,VacantLand,Vacant land,False,809,m2,False
2018050370,listing,/4-auld-kirk-road-sidmouth-tas-7270-2018050370,659000,is-sold,Sold by private treaty 20 Sep 2022,20220920,4 Auld Kirk Road,SIDMOUTH,TAS,7270,-41.2110138,146.901627,3,2,,House,House,False,2342,m2,False
2018067025,listing,/41-ross-street-beauty-point-tas-7270-2018067025,,is-sold,Sold by private treaty 31 Oct 2022,20221031,41 Ross Street,BEAUTY POINT,TAS,7270,-41.15365,146.814987,3,2,,House,House,False,686,m2,False
2018067032,listing,/373-379-holwell-road-beaconsfield-tas-7270-2018067032,,is-sold,Sold by private treaty 10 Oct 2022,20221010,373 - 379 Holwell Road,BEACONSFIELD,TAS,7270,-41.2253647,146.790527,3,1,8,House,House,True,12.95,ha,False
2018070514,listing,/165-weld-street-beaconsfield-tas-7270-2018070514,360000,is-sold,Sold by private treaty 25 Oct 2022,20221025,165 Weld Street,BEACONSFIELD,TAS,7270,-41.1979446,146.813736,3,1,8,House,House,False,1109,m2,False
2018077171,listing,/61-gardners-road-greens-beach-tas-7270-2018077171,600000,is-sold,Sold by private treaty 07 Oct 2022,20221007,61 Gardners Road,GREENS BEACH,TAS,7270,-41.08142,146.741882,3,2,1,House,House,False,780,m2,False
2018077917,listing,/166-weld-street-beaconsfield-tas-7270-2018077917,265000,is-sold,Sold by private treaty 28 Sep 2022,20220928,166 Weld Street,BEACONSFIELD,TAS,7270,-41.19795,146.814438,2,1,,House,House,False,1012,m2,False
2018079251,listing,/86-paranaple-road-big4-kelso-sands-holiday-native-w-kelso-tas-7270-2018079251,,is-sold,Sold by private treaty 11 Oct 2022,20221011,86 Paranaple Road BIG4 Kelso Sands Holiday & Native W,KELSO,TAS,7270,-41.097,146.790466,2,1,1,Unknown,Unknown,False,0,m2,True
2018080589,listing,/105-top-road-west-greens-beach-tas-7270-2018080589,615000,is-sold,Sold by private treaty 17 Oct 2022,20221017,105 Top Road West,GREENS BEACH,TAS,7270,-41.0795937,146.735916,5,3,2,House,House,False,1503,m2,False
2018083240,listing,/63-beach-crescent-greens-beach-tas-7270-2018083240,210000,is-sold,Sold by private treaty 02 Nov 2022,20221102,63 Beach Crescent,GREENS BEACH,TAS,7270,-41.0895653,146.749451,,,,VacantLand,Vacant land,False,612,m2,False
2018103519,listing,/207-bevic-road-clarence-point-tas-7270-2018103519,,is-sold,Sold by private treaty 16 Oct 2022,20221016,207 Bevic Road,CLARENCE POINT,TAS,7270,-41.12,146.808655,3,1,6,House,House,True,2.16,ha,False
2017598376,listing,/103-weld-street-beaconsfield-tas-7270-2017598376,,is-sold,Sold by private treaty 20 Jul 2022,20220720,103 Weld Street,BEACONSFIELD,TAS,7270,-41.20351,146.8184,3,1,1,House,House,False,809,m2,False
2017607922,listing,/231-weld-street-beaconsfield-tas-7270-2017607922,328000,is-sold,Sold by private treaty 11 Jul 2022,20220711,231 Weld Street,BEACONSFIELD,TAS,7270,-41.1909561,146.810623,4,3,1,House,House,False,0,m2,False
2017628787,listing,/22-rowella-road-sidmouth-tas-7270-2017628787,,is-sold,Sold by private treaty 19 Aug 2022,20220819,22 Rowella Road,SIDMOUTH,TAS,7270,-41.217968,146.903549,4,3,5,House,House,True,8.06,ha,False
2017641039,listing,/22-archer-street-beaconsfield-tas-7270-2017641039,480000,is-sold,Sold by private treaty 01 Sep 2022,20220901,22 Archer Street,BEACONSFIELD,TAS,7270,-41.1986122,146.820145,4,2,5,House,House,False,1410,m2,False
2017665703,listing,/2a-4-fysh-street-beaconsfield-tas-7270-2017665703,,is-sold,Sold by private treaty 12 Jul 2022,20220712,2A - 4 Fysh Street,BEACONSFIELD,TAS,7270,-41.2007446,146.818,12,6,6,ApartmentUnitFlat,Apartment / Unit / Flat,False,2073,m2,False
2017686098,listing,/76-gardners-road-greens-beach-tas-7270-2017686098,425000,is-sold,Sold by private treaty 06 Jul 2022,20220706,76 Gardners Road,GREENS BEACH,TAS,7270,-41.079937,146.742111,,,,VacantLand,Vacant land,False,837,m2,False
2017779292,listing,/5-west-arm-road-beauty-point-tas-7270-2017779292,395000,is-sold,Sold by private treaty 19 Jul 2022,20220719,5 West Arm Road,BEAUTY POINT,TAS,7270,-41.1471825,146.813766,3,1,4,House,House,False,1141,m2,False
2017812474,listing,/209-weld-street-beaconsfield-tas-7270-2017812474,442000,is-sold,Sold by private treaty 21 Jul 2022,20220721,209 Weld Street,BEACONSFIELD,TAS,7270,-41.1929436,146.81102,3,1,4,House,House,False,1126,m2,False
2017827723,listing,/148-sunset-boulevard-clarence-point-tas-7270-2017827723,,is-sold,Sold by private treaty 25 Jul 2022,20220725,148 Sunset Boulevard,CLARENCE POINT,TAS,7270,-41.1354141,146.81488,,,,VacantLand,Vacant land,False,1027,m2,False
2017913710,listing,/160-charles-street-beauty-point-tas-7270-2017913710,410000,is-sold,Sold by private treaty 07 Jul 2022,20220707,160 Charles Street,BEAUTY POINT,TAS,7270,-41.1510239,146.818176,2,1,,House,House,False,1012,m2,False
2017928055,listing,/38-grubb-street-beaconsfield-tas-7270-2017928055,675000,is-sold,Sold by private treaty 19 Jul 2022,20220719,38 Grubb Street,BEACONSFIELD,TAS,7270,-41.2014465,146.818634,3,1,2,House,House,False,1587,m2,False
2017954344,listing,/17-mainwaring-street-beauty-point-tas-7270-2017954344,350474,is-sold,Sold by private treaty 11 Sep 2022,20220911,17 Mainwaring Street,BEAUTY POINT,TAS,7270,-41.14658,146.81488,3,1,1,House,House,False,607,m2,False
2017960154,listing,/213-weld-street-beaconsfield-tas-7270-2017960154,380000,is-sold,Sold by private treaty 22 Jul 2022,20220722,213 Weld Street,BEACONSFIELD,TAS,7270,-41.1925926,146.810974,3,1,2,House,House,False,1786,m2,False
2017968975,listing,/84-flinders-street-beauty-point-tas-7270-2017968975,52000,is-sold,Sold by private treaty 16 Aug 2022,20220816,84 Flinders Street,BEAUTY POINT,TAS,7270,-41.16209,146.82373,,,,VacantLand,Vacant land,False,734,m2,False
2017988041,listing,/60-greens-beach-road-beaconsfield-tas-7270-2017988041,460000,is-sold,Sold by private treaty 18 Aug 2022,20220818,60 Greens Beach Road,BEACONSFIELD,TAS,7270,-41.1909866,146.807281,3,1,5,House,House,False,1191,m2,False
2018009665,listing,/39-scott-street-beauty-point-tas-7270-2018009665,320000,is-sold,Sold by private treaty 06 Sep 2022,20220906,39 Scott Street,BEAUTY POINT,TAS,7270,-41.1495819,146.814911,3,1,2,House,House,False,923,m2,False
2018025605,listing,/465-flowery-gully-road-flowery-gully-tas-7270-2018025605,90000,is-sold,Sold by private treaty 05 Sep 2022,20220905,465 Flowery Gully Road,FLOWERY GULLY,TAS,7270,-41.2512321,146.833862,,,,VacantLand,Vacant land,False,0,m2,False
2018034407,listing,/16-garrett-street-beauty-point-tas-7270-2018034407,340000,is-sold,Sold by private treaty 09 Sep 2022,20220909,16 Garrett Street,BEAUTY POINT,TAS,7270,-41.150528,146.818359,2,1,1,House,House,False,548,m2,False
2018036142,listing,/5-ross-lane-beauty-point-tas-7270-2018036142,430000,is-sold,Sold by private treaty 07 Sep 2022,20220907,5 Ross Lane,BEAUTY POINT,TAS,7270,-41.1547241,146.821243,2,1,4,House,House,False,794,m2,False
2018097860,listing,/84-flinders-street-beauty-point-tas-7270-2018097860,52000,is-sold,Sold by private treaty 16 Aug 2022,20220816,84 Flinders Street,BEAUTY POINT,TAS,7270,-41.16209,146.82373,,,,VacantLand,Vacant land,False,734,m2,False
2017462230,listing,/383-clarence-point-road-clarence-point-tas-7270-2017462230,250000,is-sold,Sold by private treaty 10 May 2022,20220510,383 Clarence Point Road,CLARENCE POINT,TAS,7270,-41.1246338,146.8056,,,,VacantLand,Vacant land,False,8412,m2,False
2017509167,listing,/113-foreshore-road-kelso-tas-7270-2017509167,460000,is-sold,Sold by private treaty 29 Mar 2022,20220329,113 Foreshore Road,KELSO,TAS,7270,-41.0964928,146.790268,2,1,9,House,House,False,1170,m2,False
2017563725,listing,/31-high-street-beaconsfield-tas-7270-2017563725,555000,is-sold,Sold by private treaty 21 Apr 2022,20220421,31 High Street,BEACONSFIELD,TAS,7270,-41.2070847,146.817627,4,1,5,House,House,False,4100,m2,False
2017564700,listing,/14-torneys-road-beauty-point-tas-7270-2017564700,440000,is-sold,Sold by private treaty 13 May 2022,20220513,14 Torneys Road,BEAUTY POINT,TAS,7270,-41.1711845,146.81604,3,2,3,House,House,False,3134,m2,False
2017578917,listing,/41-new-street-beaconsfield-tas-7270-2017578917,345000,is-sold,Sold by private treaty 28 Mar 2022,20220328,41 New Street,BEACONSFIELD,TAS,7270,-41.2069321,146.82106,3,1,1,House,House,False,1012,m2,False
2017621102,listing,/25-rowella-road-sidmouth-tas-7270-2017621102,950000,is-sold,Sold by private treaty 06 May 2022,20220506,25 Rowella Road,SIDMOUTH,TAS,7270,-41.21626,146.9003,4,2,7,House,House,False,8226,m2,False
2017624104,listing,/178-weld-street-beaconsfield-tas-7270-2017624104,155000,is-sold,Sold by private treaty 11 Apr 2022,20220411,178 Weld Street,BEACONSFIELD,TAS,7270,-41.1969833,146.813766,,,,VacantLand,Vacant land,False,1012,m2,False
2017650144,listing,/4-1a-west-arm-road-beauty-point-tas-7270-2017650144,415000,is-sold,Sold by private treaty 07 Jun 2022,20220607,4/1A West Arm Road,BEAUTY POINT,TAS,7270,-41.1473579,146.814224,2,1,4,ApartmentUnitFlat,Apartment / Unit / Flat,False,397,m2,False
2017682556,listing,/32-whites-road-beaconsfield-tas-7270-2017682556,452000,is-sold,Sold by private treaty 05 May 2022,20220505,32 Whites Road,BEACONSFIELD,TAS,7270,-41.19605,146.8254,2,1,2,House,House,True,13.35,ha,False
2017682557,listing,/267-269-weld-street-beaconsfield-tas-7270-2017682557,265000,is-sold,Sold by private treaty 07 Apr 2022,20220407,267-269 Weld Street,BEACONSFIELD,TAS,7270,-41.186348,146.8125,4,2,4,House,House,False,2011,m2,False
2017682564,listing,/7-kitchener-avenue-beauty-point-tas-7270-2017682564,341000,is-sold,Sold by private treaty 06 Apr 2022,20220406,7 Kitchener Avenue,BEAUTY POINT,TAS,7270,-41.1466866,146.81636,2,1,4,House,House,False,1006,m2,False
2017688795,listing,/104-flinders-street-beauty-point-tas-7270-2017688795,350000,is-sold,Sold by private treaty 11 May 2022,20220511,104 Flinders Street,BEAUTY POINT,TAS,7270,-41.16052,146.823212,2,1,,House,House,False,428,m2,False
2017693617,listing,/lot-32-clarence-point-road-clarence-point-tas-7270-2017693617,378000,is-sold,Sold by private treaty 09 May 2022,20220509,Lot 32 Clarence Point Road,CLARENCE POINT,TAS,7270,-41.14059,146.77742,,,,VacantLand,Vacant land,False,77000,m2,False
2017710814,listing,/14-cosgrove-court-beauty-point-tas-7270-2017710814,660000,is-sold,Sold by private treaty 14 Apr 2022,20220414,14 Cosgrove Court,BEAUTY POINT,TAS,7270,-41.153286,146.818573,3,2,3,House,House,False,688,m2,False
2017712545,listing,/109-rowella-road-sidmouth-tas-7270-2017712545,1020000,is-sold,Sold by private treaty 27 Jun 2022,20220627,109 Rowella Road,SIDMOUTH,TAS,7270,-41.2100945,146.90097,2,3,6,House,House,False,1983,m2,False
2017734533,listing,/994-badger-head-road-badger-head-tas-7270-2017734533,655000,is-sold,Sold at auction 07 May 2022,20220507,994 Badger Head Road,BADGER HEAD,TAS,7270,-41.10249,146.673,2,1,12,House,House,False,668,m2,False
2017740543,listing,/86-paranaple-road-big4-kelso-sands-holiday-park-kelso-tas-7270-2017740543,,is-sold,Sold by private treaty 12 Jun 2022,20220612,86 Paranaple Road BIG4 Kelso Sands Holiday Park,KELSO,TAS,7270,-41.097,146.790466,1,1,2,Unknown,Unknown,False,0,m2,True
2017745292,listing,/101-gardners-road-greens-beach-tas-7270-2017745292,,is-sold,Sold by private treaty 01 Jul 2022,20220701,101 Gardners Road,GREENS BEACH,TAS,7270,-41.07883,146.739365,,,,VacantLand,Vacant land,False,780,m2,False
2017745905,listing,/4-cosgrove-court-beauty-point-tas-7270-2017745905,325000,is-sold,Sold by private treaty 03 May 2022,20220503,4 Cosgrove Court,BEAUTY POINT,TAS,7270,-41.1525841,146.818634,2,1,4,House,House,False,837,m2,False
2017797528,listing,/94-96-gardners-road-greens-beach-tas-7270-2017797528,651000,is-sold,Sold by private treaty 22 Apr 2022,20220422,94-96 Gardners Road,GREENS BEACH,TAS,7270,-41.0787468,146.7404,2,1,2,House,House,False,1673,m2,False
2017227230,listing,/133-charles-street-beauty-point-tas-7270-2017227230,400000,is-sold,Sold by private treaty 13 Feb 2022,20220213,133 Charles Street,BEAUTY POINT,TAS,7270,-41.1544571,146.816757,3,1,1,House,House,False,1219,m2,False
2017377657,listing,/lot-1-19-bolton-street-beaconsfield-tas-7270-2017377657,272500,is-sold,Sold by private treaty 03 Feb 2022,20220203,Lot 1/19 Bolton Street,BEACONSFIELD,TAS,7270,-41.1932869,146.804459,,,,VacantLand,Vacant land,True,1.32,ha,False
2017409964,listing,/32-40-crowther-street-beaconsfield-tas-7270-2017409964,666667,is-sold,Sold by private treaty 08 Feb 2022,20220208,32-40 Crowther Street,BEACONSFIELD,TAS,7270,-41.1952477,146.814728,4,2,3,House,House,False,8197,m2,False
2017431677,listing,/ritchie-street-beaconsfield-tas-7270-2017431677,250000,is-sold,Sold by private treaty 20 Jan 2022,20220120,Ritchie Street,BEACONSFIELD,TAS,7270,-41.1950874,146.813858,,,,VacantLand,Vacant land,False,4503,m2,False
2017438525,listing,/134-gardners-road-greens-beach-tas-7270-2017438525,400000,is-sold,Sold by private treaty 24 Jan 2022,20220124,134 Gardners Road,GREENS BEACH,TAS,7270,-41.07804,146.736176,,,,VacantLand,Vacant land,False,0,m2,False
2017457825,listing,/220-weld-street-beaconsfield-tas-7270-2017457825,428000,is-sold,Sold by private treaty 31 Jan 2022,20220131,220 Weld Street,BEACONSFIELD,TAS,7270,-41.1918,146.811508,4,1,2,House,House,False,921,m2,False
2017462906,listing,/1212-greensbeach-road-kelso-tas-7270-2017462906,545000,is-sold,Sold by private treaty 04 Feb 2022,20220204,1212 Greensbeach Road,KELSO,TAS,7270,-41.1101646,146.791534,3,1,1,House,House,False,2700,m2,False
2017482585,listing,/3321-west-tamar-highway-sidmouth-tas-7270-2017482585,450000,is-sold,Sold by private treaty 15 Mar 2022,20220315,3321 West Tamar Highway,SIDMOUTH,TAS,7270,-41.2402725,146.881927,3,1,6,House,House,False,1773,m2,False
2017484724,listing,/26-top-road-greens-beach-tas-7270-2017484724,540000,is-sold,Sold by private treaty 03 Feb 2022,20220203,26 Top Road,GREENS BEACH,TAS,7270,-41.0847931,146.741257,4,2,2,House,House,False,837,m2,False
2017498632,listing,/1637-greens-beach-road-greens-beach-tas-7270-2017498632,425500,is-sold,Sold by private treaty 15 Feb 2022,20220215,1637 Greens Beach Road,GREENS BEACH,TAS,7270,-41.0958672,146.749573,,,,Rural,Rural,True,11.79,ha,False
2017505926,listing,/598-rowella-road-rowella-tas-7270-2017505926,830000,is-sold,Sold by private treaty 16 Feb 2022,20220216,598 Rowella Road,ROWELLA,TAS,7270,-41.175415,146.903183,3,1,4,House,House,True,6.65,ha,False
2017520055,listing,/183-flinders-street-beauty-point-tas-7270-2017520055,580000,is-sold,Sold by private treaty 31 Jan 2022,20220131,183 Flinders Street,BEAUTY POINT,TAS,7270,-41.1527328,146.822189,3,1,3,House,House,False,3756,m2,False
2017533291,listing,/178-charles-street-beauty-point-tas-7270-2017533291,700000,is-sold,Sold by private treaty 13 Feb 2022,20220213,178 Charles Street,BEAUTY POINT,TAS,7270,-41.14891,146.81897,3,1,3,House,House,False,911,m2,False
2017536885,listing,/3-west-arm-road-beauty-point-tas-7270-2017536885,430000,is-sold,Sold by private treaty 28 Feb 2022,20220228,3 West Arm Road,BEAUTY POINT,TAS,7270,-41.14736,146.81398,3,1,2,House,House,False,1045,m2,False
2017563268,listing,/5-garrett-street-beauty-point-tas-7270-2017563268,500000,is-sold,Sold by private treaty 16 Feb 2022,20220216,5 Garrett Street,BEAUTY POINT,TAS,7270,-41.1512337,146.819824,4,1,3,House,House,False,1086,m2,False
2017591636,listing,/111-possum-road-beauty-point-tas-7270-2017591636,910000,is-sold,Sold by private treaty 26 Mar 2022,20220326,111 Possum Road,BEAUTY POINT,TAS,7270,-41.1734047,146.812286,3,2,3,House,House,True,5.54,ha,False
2017600972,listing,/28-scott-street-beauty-point-tas-7270-2017600972,355000,is-sold,Sold by private treaty 17 Mar 2022,20220317,28 Scott Street,BEAUTY POINT,TAS,7270,-41.1492653,146.816681,2,1,3,House,House,False,895,m2,False
2017619755,listing,/45-douglas-street-beaconsfield-tas-7270-2017619755,535000,is-sold,Sold by private treaty 21 Feb 2022,20220221,45 Douglas Street,BEACONSFIELD,TAS,7270,-41.204937,146.817886,4,2,1,House,House,False,898,m2,False
2017626596,listing,/690-rowella-rd-rowella-tas-7270-2017626596,730000,is-sold,Sold by private treaty 10 Mar 2022,20220310,690 Rowella Rd,ROWELLA,TAS,7270,-41.17832,146.912888,5,2,3,House,House,False,35900,m2,False
2017673222,listing,/145-bevic-rd-clarence-point-tas-7270-2017673222,1590000,is-sold,Sold by private treaty 28 Mar 2022,20220328,145 Bevic Rd,CLARENCE POINT,TAS,7270,-41.11643,146.801758,3,2,24,House,House,True,2.92,ha,False
2016823382,listing,/12-16-kelso-jetty-road-kelso-tas-7270-2016823382,1250000,is-sold,Sold by private treaty 17 Nov 2021,20211117,12-16 Kelso Jetty Road,KELSO,TAS,7270,-41.106617,146.795212,5,2,5,House,House,False,34398,m2,False
2017040010,listing,/lot-2-39-greens-beach-road-beaconsfield-tas-7270-2017040010,90000,is-sold,Sold by private treaty 29 Nov 2021,20211129,Lot 2/ 39 Greens beach Road,BEACONSFIELD,TAS,7270,-41.1926,146.807083,,,,VacantLand,Vacant land,False,798,m2,False
2017040032,listing,/lot-1-39-greens-beach-road-beaconsfield-tas-7270-2017040032,88000,is-sold,Sold by private treaty 29 Nov 2021,20211129,Lot 1/ 39 Greens beach Road,BEACONSFIELD,TAS,7270,-41.1926,146.807083,,,,VacantLand,Vacant land,False,977,m2,False
2017120971,listing,/137-139-flinders-street-beauty-point-tas-7270-2017120971,515000,is-sold,Sold by private treaty 17 Nov 2021,20211117,137-139 Flinders Street,BEAUTY POINT,TAS,7270,-41.1568527,146.821182,4,3,3,House,House,False,1674,m2,False
2017260618,listing,/24-ocean-view-drive-greens-beach-tas-7270-2017260618,267500,is-sold,Sold by private treaty 02 Jan 2022,20220102,24 Ocean View Drive,GREENS BEACH,TAS,7270,-41.08441,146.736938,,,,VacantLand,Vacant land,False,1698,m2,False
2017276819,listing,/31-crowther-street-beaconsfield-tas-7270-2017276819,497500,is-sold,Sold by private treaty 17 Jan 2022,20220117,31 Crowther Street,BEACONSFIELD,TAS,7270,-41.1949234,146.817429,4,2,4,House,House,False,2243,m2,False
2017318468,listing,/580-greens-beach-road-york-town-tas-7270-2017318468,449000,is-sold,Sold by private treaty 26 Nov 2021,20211126,580 Greens Beach Road,YORK TOWN,TAS,7270,-41.1607857,146.767487,,,,VacantLand,Vacant land,True,1.62,ha,False
2017339221,listing,/259-weld-street-beaconsfield-tas-7270-2017339221,625000,is-sold,Sold by private treaty 13 Jan 2022,20220113,259 Weld Street,BEACONSFIELD,TAS,7270,-41.18777,146.8103,2,2,2,AcreageSemiRural,Acreage / Semi-Rural,True,3.28,ha,False
2017402738,listing,/52-54-weld-street-beaconsfield-tas-7270-2017402738,480000,is-sold,Sold by private treaty 15 Dec 2021,20211215,52-54 Weld Street,BEACONSFIELD,TAS,7270,-41.2061653,146.823013,3,1,1,House,House,False,1618,m2,False
2017417132,listing,/55-shaw-street-beaconsfield-tas-7270-2017417132,460000,is-sold,Sold by private treaty 28 Dec 2021,20211228,55 Shaw Street,BEACONSFIELD,TAS,7270,-41.19889,146.817627,3,1,2,House,House,False,1260,m2,False
2017440330,listing,/3-bolton-street-beaconsfield-tas-7270-2017440330,140000,is-sold,Sold by private treaty 17 Dec 2021,20211217,3 Bolton Street,BEACONSFIELD,TAS,7270,-41.19472,146.808243,,,,VacantLand,Vacant land,False,1530,m2,False
2017455515,listing,/120-glendale-road-sidmouth-tas-7270-2017455515,766000,is-sold,Sold by private treaty 07 Dec 2021,20211207,120 Glendale Road,SIDMOUTH,TAS,7270,-41.2497444,146.879684,4,3,2,AcreageSemiRural,Acreage / Semi-Rural,True,5.84,ha,False
2017457781,listing,/12-beatty-street-beauty-point-tas-7270-2017457781,385000,is-sold,Sold by private treaty 11 Dec 2021,20211211,12 Beatty Street,BEAUTY POINT,TAS,7270,-41.1484222,146.817139,2,1,2,House,House,False,908,m2,False
2017462183,listing,/143-gardners-road-greens-beach-tas-7270-2017462183,615000,is-sold,Sold by private treaty 04 Jan 2022,20220104,143 Gardners Road,GREENS BEACH,TAS,7270,-41.0786171,146.734619,3,1,,House,House,False,789,m2,False
2017466821,listing,/109-top-road-west-greens-beach-tas-7270-2017466821,245000,is-sold,Sold by private treaty 20 Jan 2022,20220120,109 Top Road West,GREENS BEACH,TAS,7270,-41.0793,146.73587,,,,VacantLand,Vacant land,False,1503,m2,False
2017468432,listing,/68-kayena-road-kayena-tas-7270-2017468432,800000,is-sold,Sold by private treaty 17 Dec 2021,20211217,68 Kayena Road,KAYENA,TAS,7270,-41.19807,146.901428,3,1,4,House,House,False,10500,m2,False
2017470364,listing,/86-paranaple-road-big4-kelso-sands-holiday-park-kelso-tas-7270-2017470364,,is-sold,Sold by private treaty 19 Jan 2022,20220119,"86 Paranaple Road, BIG4 Kelso Sands Holiday Park",KELSO,TAS,7270,-41.0926781,146.78096,1,1,1,Unknown,Unknown,False,0,m2,True
2017476768,listing,/4-big-kelso-sands-holiday-native-wildlife-park-kelso-tas-7270-2017476768,,is-sold,Sold by private treaty 19 Jan 2022,20220119,4 BIG Kelso Sands Holiday & Native Wildlife Park,KELSO,TAS,7270,-41.0926781,146.78096,1,1,1,Unknown,Unknown,False,0,m2,True
2017488122,listing,/4371-west-tamar-highway-beauty-point-tas-7270-2017488122,570000,is-sold,Sold by private treaty 23 Dec 2021,20211223,4371 West Tamar Highway,BEAUTY POINT,TAS,7270,-41.17233,146.815689,3,1,1,House,House,False,4047,m2,False
2017496749,listing,/3-180-oxford-beauty-point-tas-7270-2017496749,,is-sold,Sold by private treaty 27 Dec 2021,20211227,3/180 Oxford,BEAUTY POINT,TAS,7270,-41.15088,146.821457,,,,VacantLand,Vacant land,False,3834,m2,False
2016490583,listing,/2-180-oxford-beauty-point-tas-7270-2016490583,,is-sold,Sold by private treaty 12 Nov 2021,20211112,2/180 Oxford,BEAUTY POINT,TAS,7270,-41.15088,146.821457,,,,VacantLand,Vacant land,False,2103,m2,False
2016788563,listing,/239-272-auburn-road-beaconsfield-tas-7270-2016788563,,is-sold,Sold by private treaty 22 Oct 2021,20211022,239 & 272 Auburn Road,BEACONSFIELD,TAS,7270,-41.19645,146.8486,,,,Farm,Farm,True,494,ha,False
2016900504,listing,/237-weld-street-beaconsfield-tas-7270-2016900504,600000,is-sold,Sold by private treaty 16 Oct 2021,20211016,237 Weld Street,BEACONSFIELD,TAS,7270,-41.1892967,146.810989,3,1,4,House,House,False,4978,m2,False
2017179186,listing,/34-clarks-road-rowella-tas-7270-2017179186,860000,is-sold,Sold by private treaty 03 Nov 2021,20211103,34 Clarks Road,ROWELLA,TAS,7270,-41.1804237,146.902908,4,3,3,House,House,False,72300,m2,False
2017193922,listing,/20-napier-street-beauty-point-tas-7270-2017193922,246000,is-sold,Sold by private treaty 11 Oct 2021,20211011,20 Napier Street,BEAUTY POINT,TAS,7270,-41.1516075,146.819458,1,2,1,House,House,False,1083,m2,False
2017196075,listing,/3198-west-tamar-highway-sidmouth-tas-7270-2017196075,778000,is-sold,Sold by private treaty 19 Oct 2021,20211019,3198 West Tamar Highway,SIDMOUTH,TAS,7270,-41.24543,146.893433,3,1,2,AcreageSemiRural,Acreage / Semi-Rural,True,23.88,ha,False
2017263672,listing,/4407-west-tamar-highway-beauty-point-tas-7270-2017263672,480000,is-sold,Sold by private treaty 18 Oct 2021,20211018,4407 West Tamar Highway,BEAUTY POINT,TAS,7270,-41.1697922,146.8164,4,1,3,House,House,False,11300,m2,False
2017285592,listing,/145-bowens-jetty-road-beaconsfield-tas-7270-2017285592,560000,is-sold,Sold by private treaty 17 Oct 2021,20211017,145 Bowens Jetty Road,BEACONSFIELD,TAS,7270,-41.1797447,146.827408,3,1,,Rural,Rural,True,0,m2,False
2017286534,listing,/2-tattersalls-road-beaconsfield-tas-7270-2017286534,639000,is-sold,Sold by private treaty 23 Oct 2021,20211023,2 Tattersalls Road,BEACONSFIELD,TAS,7270,-41.1853027,146.791748,5,2,4,House,House,False,4773,m2,False
2017287957,listing,/1738-greens-beach-road-greens-beach-tas-7270-2017287957,,is-sold,Sold by private treaty 11 Oct 2021,20211011,1738 Greens Beach Road,GREENS BEACH,TAS,7270,-41.0875931,146.742477,2,2,2,House,House,False,698,m2,False
2017312532,listing,/380-badger-head-road-badger-head-tas-7270-2017312532,650000,is-sold,Sold by private treaty 15 Oct 2021,20211015,380 Badger Head Road,BADGER HEAD,TAS,7270,-41.126,146.731049,3,1,1,House,House,False,69900,m2,False
2017318971,listing,/86-big4-kelso-sands-kelso-kelso-tas-7270-2017318971,,is-sold,Sold by private treaty 17 Nov 2021,20211117,86 BIG4 Kelso Sands Kelso,KELSO,TAS,7270,-41.0926781,146.78096,1,1,1,Unknown,Unknown,False,0,m2,True
2017323925,listing,/50-shaw-street-beaconsfield-tas-7270-2017323925,381000,is-sold,Sold by private treaty 12 Nov 2021,20211112,50 Shaw Street,BEACONSFIELD,TAS,7270,-41.19804,146.817841,3,1,1,House,House,False,1040,m2,False
2017327551,listing,/22-porters-road-kayena-tas-7270-2017327551,750000,is-sold,Sold by private treaty 04 Nov 2021,20211104,22 Porters Road,KAYENA,TAS,7270,-41.1961861,146.9072,3,2,2,House,House,True,2.02,ha,False
2017332482,listing,/127-rowella-road-sidmouth-tas-7270-2017332482,480000,is-sold,Sold by private treaty 28 Oct 2021,20211028,127 Rowella Road,SIDMOUTH,TAS,7270,-41.2086945,146.90062,3,1,2,House,House,False,2863,m2,False
2017339219,listing,/lot-2-208-weld-street-beaconsfield-tas-7270-2017339219,,is-sold,Sold by private treaty 04 Nov 2021,20211104,Lot 2/208 Weld Street,BEACONSFIELD,TAS,7270,-41.19319,146.811691,,,,VacantLand,Vacant land,False,550,m2,False
2017339224,listing,/30a-crowther-street-beaconsfield-tas-7270-2017339224,510000,is-sold,Sold by private treaty 10 Nov 2021,20211110,30A Crowther Street,BEACONSFIELD,TAS,7270,-41.1946335,146.815491,3,1,6,House,House,False,2023,m2,False
2017367383,listing,/6-bernard-street-beaconsfield-tas-7270-2017367383,380000,is-sold,Sold by private treaty 10 Nov 2021,20211110,6 Bernard Street,BEACONSFIELD,TAS,7270,-41.20461,146.818283,2,1,1,House,House,False,784,m2,False
2017367732,listing,/4434-west-tamar-highway-beauty-point-tas-7270-2017367732,690000,is-sold,Sold by private treaty 11 Nov 2021,20211111,4434 West Tamar Highway,BEAUTY POINT,TAS,7270,-41.16933,146.821487,1,1,8,House,House,False,7085,m2,False
2017385568,listing,/54-high-street-beaconsfield-tas-7270-2017385568,340000,is-sold,Sold by private treaty 07 Nov 2021,20211107,54 High Street,BEACONSFIELD,TAS,7270,-41.2037354,146.816238,2,1,2,House,House,False,684,m2,False
2016774643,listing,/4428-west-tamar-highway-beauty-point-tas-7270-2016774643,260000,is-sold,Sold by private treaty 28 Sep 2021,20210928,4428 West Tamar Highway,BEAUTY POINT,TAS,7270,-41.1692429,146.819855,,,,VacantLand,Vacant land,False,0,m2,False
2016928526,listing,/5-cosgrove-court-beauty-point-tas-7270-2016928526,530000,is-sold,Sold by private treaty 25 Aug 2021,20210825,5 Cosgrove Court,BEAUTY POINT,TAS,7270,-41.1527824,146.819244,3,2,4,House,House,False,837,m2,False
2017005830,listing,/977-badger-head-road-badger-head-tas-7270-2017005830,650000,is-sold,Sold by private treaty 16 Sep 2021,20210916,977 Badger Head Road,BADGER HEAD,TAS,7270,-41.10393,146.675552,,,,VacantLand,Vacant land,True,9.7,ha,False
2017112521,listing,/688-auburn-road-kayena-tas-7270-2017112521,775000,is-sold,Sold by private treaty 25 Aug 2021,20210825,688 Auburn Road,KAYENA,TAS,7270,-41.19346,146.894272,4,2,1,House,House,False,6091,m2,False
2017127743,listing,/207-weld-street-beaconsfield-tas-7270-2017127743,300000,is-sold,Sold by private treaty 09 Sep 2021,20210909,207 Weld Street,BEACONSFIELD,TAS,7270,-41.19313,146.811,3,1,3,House,House,False,983,m2,False
2017143225,listing,/1663-greens-beach-road-greens-beach-tas-7270-2017143225,500000,is-sold,Sold by private treaty 24 Sep 2021,20210924,1663 Greens Beach Road,GREENS BEACH,TAS,7270,-41.0942345,146.746262,2,1,,House,House,False,103200,m2,False
2017150772,listing,/160-charles-street-beauty-point-tas-7270-2017150772,360000,is-sold,Sold by private treaty 25 Aug 2021,20210825,160 Charles Street,BEAUTY POINT,TAS,7270,-41.15105,146.818146,2,1,,House,House,False,1012,m2,False
2017179038,listing,/3568-west-tamar-highway-sidmouth-tas-7270-2017179038,630000,is-sold,Sold by private treaty 13 Sep 2021,20210913,3568 West Tamar Highway,SIDMOUTH,TAS,7270,-41.2319374,146.85582,4,1,2,House,House,True,1.9,ha,False
2017192056,listing,/36-west-arm-road-beauty-point-tas-7270-2017192056,,is-sold,Sold by private treaty 28 Aug 2021,20210828,36 West Arm Road,BEAUTY POINT,TAS,7270,-41.1447372,146.8077,1,1,,Villa,Villa,False,0,m2,False
2017195867,listing,/19-douglas-st-beaconsfield-tas-7270-2017195867,130000,is-sold,Sold by private treaty 26 Aug 2021,20210826,19 Douglas St,BEACONSFIELD,TAS,7270,-41.2070923,146.819855,,,,VacantLand,Vacant land,False,2785,m2,False
2017208914,listing,/41-43-crowther-street-beaconsfield-tas-7270-2017208914,525000,is-sold,Sold by private treaty 21 Sep 2021,20210921,41-43 Crowther Street,BEACONSFIELD,TAS,7270,-41.1962967,146.814514,4,1,4,House,House,False,1487,m2,False
2017213823,listing,/17-ernest-street-beauty-point-tas-7270-2017213823,145000,is-sold,Sold by private treaty 24 Sep 2021,20210924,17 Ernest Street,BEAUTY POINT,TAS,7270,-41.1527176,146.815338,,,,VacantLand,Vacant land,False,971,m2,False
2017216427,listing,/167-flinders-street-beauty-point-tas-7270-2017216427,245000,is-sold,Sold by private treaty 29 Sep 2021,20210929,167 Flinders Street,BEAUTY POINT,TAS,7270,-41.15449,146.82196,2,1,1,House,House,False,379,m2,False
2017221334,listing,/65-weld-street-beaconsfield-tas-7270-2017221334,380000,is-sold,Sold by private treaty 22 Sep 2021,20210922,65 Weld Street,BEACONSFIELD,TAS,7270,-41.2062874,146.822174,3,1,2,House,House,False,809,m2,False
2017226958,listing,/203-mainwaring-street-beauty-point-tas-7270-2017226958,400000,is-sold,Sold by private treaty 24 Sep 2021,20210924,203 Mainwaring Street,BEAUTY POINT,TAS,7270,-41.1489449,146.814178,3,1,,House,House,False,2114,m2,False
2017228850,listing,/191-weld-street-beaconsfield-tas-7270-2017228850,580000,is-sold,Sold by private treaty 07 Sep 2021,20210907,191 Weld Street,BEACONSFIELD,TAS,7270,-41.19537,146.81163,2,2,1,House,House,False,1174,m2,False
2017237254,listing,/113-115-flinders-street-beauty-point-tas-7270-2017237254,330000,is-sold,Sold by private treaty 29 Sep 2021,20210929,113-115 Flinders Street,BEAUTY POINT,TAS,7270,-41.1593323,146.822189,5,1,2,House,House,False,1062,m2,False
2017255202,listing,/201-flinders-street-beauty-point-tas-7270-2017255202,437000,is-sold,Sold by private treaty 16 Sep 2021,20210916,201 Flinders Street,BEAUTY POINT,TAS,7270,-41.15124,146.822281,4,2,3,House,House,False,1313,m2,False
2017261512,listing,/1a-bernard-street-beaconsfield-tas-7270-2017261512,345000,is-sold,Sold by private treaty 07 Oct 2021,20211007,1a Bernard Street,BEACONSFIELD,TAS,7270,-41.2024231,146.819641,3,1,1,House,House,False,785,m2,False
2017269323,listing,/11-tamar-crescent-greens-beach-tas-7270-2017269323,685000,is-sold,Sold by private treaty 25 Sep 2021,20210925,11 Tamar Crescent,GREENS BEACH,TAS,7270,-41.08931,146.743774,4,2,1,House,House,False,612,m2,False
2015891389,listing,/31-33-beach-cres-greens-beach-tas-7270-2015891389,620000,is-sold,Sold by private treaty 11 Aug 2021,20210811,31-33 Beach Cres,GREENS BEACH,TAS,7270,-41.089077,146.745712,4,3,6,House,House,False,1224,m2,False
2016845893,listing,/lot-1-bowen-street-beauty-point-tas-7270-2016845893,190500,is-sold,Sold by private treaty 22 Jul 2021,20210722,Lot 1 Bowen Street,BEAUTY POINT,TAS,7270,-41.1676826,146.818985,,,,VacantLand,Vacant land,False,17700,m2,False
2016929469,listing,/6109-big4-kelso-sands-holiday-park-86-paranaple-road-kelso-tas-7270-2016929469,,is-sold,Sold by private treaty 21 Jul 2021,20210721,"6109 BIG4 Kelso Sands Holiday Park, 86 Paranaple Road",KELSO,TAS,7270,-41.0926781,146.78096,1,1,1,House,House,False,0,m2,False
2016940125,listing,/355-bowens-road-york-town-tas-7270-2016940125,210000,is-sold,Sold by private treaty 04 Aug 2021,20210804,355 Bowens Road,YORK TOWN,TAS,7270,-41.16411,146.727173,,,,VacantLand,Vacant land,False,517000,m2,False
2017071663,listing,/141-gardners-road-greens-beach-tas-7270-2017071663,590000,is-sold,Sold by private treaty 11 Aug 2021,20210811,141 Gardners Road,GREENS BEACH,TAS,7270,-41.0786057,146.734848,3,2,4,House,House,False,789,m2,False
2017074154,listing,/8-ernest-street-beauty-point-tas-7270-2017074154,314000,is-sold,Sold 22 Jul 2021,20210722,8 Ernest Street,BEAUTY POINT,TAS,7270,-41.1523247,146.816635,3,1,4,House,House,False,920,m2,False
2017078214,listing,/1-adley-court-beauty-point-tas-7270-2017078214,555000,is-sold,Sold by private treaty 23 Aug 2021,20210823,1 Adley Court,BEAUTY POINT,TAS,7270,-41.1603928,146.819046,3,2,2,House,House,False,1491,m2,False
2017097805,listing,/34-torneys-road-beauty-point-tas-7270-2017097805,200000,is-sold,Sold by private treaty 18 Aug 2021,20210818,34 Torneys Road,BEAUTY POINT,TAS,7270,-41.16995,146.813858,,,,VacantLand,Vacant land,False,11700,m2,False
2017115761,listing,/68-70-beach-crescent-greens-beach-tas-7270-2017115761,640000,is-sold,Sold by private treaty 18 Aug 2021,20210818,68-70 Beach Crescent,GREENS BEACH,TAS,7270,-41.0899963,146.7501,4,3,1,House,House,False,1224,m2,False
2017123259,listing,/8-bell-street-beaconsfield-tas-7270-2017123259,330000,is-sold,Sold by private treaty 27 Jul 2021,20210727,8 Bell Street,BEACONSFIELD,TAS,7270,-41.1943,146.813492,3,1,2,House,House,False,1012,m2,False
2017126707,listing,/255-bevic-road-clarence-point-tas-7270-2017126707,355000,is-sold,Sold by private treaty 03 Aug 2021,20210803,255 Bevic Road,CLARENCE POINT,TAS,7270,-41.1243858,146.8077,2,1,1,House,House,False,703,m2,False
2017131326,listing,/91-sunset-boulevard-clarence-point-tas-7270-2017131326,468000,is-sold,Sold by private treaty 23 Aug 2021,20210823,91 Sunset Boulevard,CLARENCE POINT,TAS,7270,-41.1349068,146.815125,3,2,4,House,House,False,718,m2,False
2017146363,listing,/14-beatty-street-beauty-point-tas-7270-2017146363,418000,is-sold,Sold by private treaty 03 Aug 2021,20210803,14 Beatty Street,BEAUTY POINT,TAS,7270,-41.1483727,146.81691,3,2,1,House,House,False,908,m2,False
2017148768,listing,/26-flinders-street-beauty-point-tas-7270-2017148768,395000,is-sold,Sold by private treaty 27 Jul 2021,20210727,26 Flinders Street,BEAUTY POINT,TAS,7270,-41.1662025,146.821884,3,1,5,House,House,False,1127,m2,False
2017150432,listing,/16-rowella-road-sidmouth-tas-7270-2017150432,541000,is-sold,Sold by private treaty 09 Aug 2021,20210809,16 Rowella Road,SIDMOUTH,TAS,7270,-41.2169151,146.899551,3,1,5,Rural,Rural,True,1.03,ha,False
2017163252,listing,/3-bolton-street-beaconsfield-tas-7270-2017163252,110000,is-sold,Sold by private treaty 16 Aug 2021,20210816,3 Bolton Street,BEACONSFIELD,TAS,7270,-41.19472,146.808243,,,,VacantLand,Vacant land,False,1530,m2,False
2017169321,listing,/27-29-weld-street-beaconsfield-tas-7270-2017169321,380000,is-sold,Sold by private treaty 07 Aug 2021,20210807,27-29 Weld Street,BEACONSFIELD,TAS,7270,-41.2085075,146.826187,4,2,2,House,House,False,2024,m2,False
2017193529,listing,/91-foreshore-road-kelso-tas-7270-2017193529,710000,is-sold,Sold by private treaty 16 Aug 2021,20210816,91 Foreshore Road,KELSO,TAS,7270,-41.0957146,146.788559,,,,VacantLand,Vacant land,True,7.19,ha,False
2017287022,listing,/400-rowella-road-kayena-tas-7270-2017287022,610000,is-sold,Sold by private treaty 09 Aug 2021,20210809,400 Rowella Road,KAYENA,TAS,7270,-41.1919174,146.9026,3,1,2,House,House,True,4.84,ha,False
2017319180,listing,/3-augustus-street-beauty-point-tas-7270-2017319180,515000,is-sold,Sold by private treaty 23 Aug 2021,20210823,3 Augustus Street,BEAUTY POINT,TAS,7270,-41.1648636,146.821152,,,,House,House,False,0,m2,False
2016287420,listing,/big4-kelso-86-paranaple-road-kelso-tas-7270-2016287420,47890,is-sold,Sold by private treaty 28 Jun 2021,20210628,BIG4 Kelso 86 Paranaple Road,KELSO,TAS,7270,-41.0926781,146.78096,1,1,1,House,House,False,0,m2,False
2016700127,listing,/17-19-archer-street-beaconsfield-tas-7270-2016700127,445000,is-sold,Sold by private treaty 12 Jun 2021,20210612,17-19 Archer Street,BEACONSFIELD,TAS,7270,-41.19828,146.819229,3,2,4,House,House,False,2080,m2,False
2016733677,listing,/10-gibbs-street-beaconsfield-tas-7270-2016733677,205000,is-sold,Sold by private treaty 16 Jun 2021,20210616,10 Gibbs Street,BEACONSFIELD,TAS,7270,-41.1862068,146.818848,,,,VacantLand,Vacant land,False,20200,m2,False
2016773497,listing,/123-collins-lane-sidmouth-tas-7270-2016773497,850000,is-sold,Sold by private treaty 15 Jun 2021,20210615,123 Collins Lane,SIDMOUTH,TAS,7270,-41.24642,146.869019,5,2,2,AcreageSemiRural,Acreage / Semi-Rural,True,24,ha,False
2016817318,listing,/6010-big4-kelso-sands-holiday-park-86-paranaple-road-kelso-tas-7270-2016817318,25000,is-sold,Sold by private treaty 28 Jun 2021,20210628,"6010 BIG4 Kelso Sands Holiday Park, 86 Paranaple Road",KELSO,TAS,7270,-41.0926781,146.78096,1,1,,House,House,False,0,m2,False
2016858952,listing,/177-rowella-road-sidmouth-tas-7270-2016858952,685000,is-sold,Sold by private treaty 14 Jul 2021,20210714,177 Rowella Road,SIDMOUTH,TAS,7270,-41.20516,146.89798,4,1,2,House,House,False,2433,m2,False
2016963790,listing,/169-bevic-road-clarence-point-tas-7270-2016963790,630000,is-sold,Sold by private treaty 12 Jul 2021,20210712,169 Bevic Road,CLARENCE POINT,TAS,7270,-41.1162338,146.805328,3,1,2,House,House,False,14000,m2,False
2016971068,listing,/28-margaret-street-beaconsfield-tas-7270-2016971068,300000,is-sold,Sold by private treaty 01 Jul 2021,20210701,28 Margaret Street,BEACONSFIELD,TAS,7270,-41.1952477,146.813538,3,1,1,House,House,False,727,m2,False
2016977697,listing,/6-clifford-street-beaconsfield-tas-7270-2016977697,345000,is-sold,Sold by private treaty 15 Jul 2021,20210715,6 Clifford Street,BEACONSFIELD,TAS,7270,-41.19887,146.824265,3,1,1,House,House,False,1012,m2,False
2016978350,listing,/26-new-street-beaconsfield-tas-7270-2016978350,460000,is-sold,Sold by private treaty 03 Jun 2021,20210603,26 New Street,BEACONSFIELD,TAS,7270,-41.2070351,146.8223,3,1,6,House,House,False,2150,m2,False
2017009439,listing,/44-scott-street-beauty-point-tas-7270-2017009439,430000,is-sold,Sold by private treaty 16 Jul 2021,20210716,44 Scott Street,BEAUTY POINT,TAS,7270,-41.1490059,146.814789,3,1,4,House,House,False,895,m2,False
2017021916,listing,/31-foreshore-road-kelso-tas-7270-2017021916,450000,is-sold,Sold by private treaty 19 Jun 2021,20210619,31 Foreshore Road,KELSO,TAS,7270,-41.1041222,146.794373,3,2,1,House,House,False,728,m2,False
2017024890,listing,/10-bell-street-beaconsfield-tas-7270-2017024890,315000,is-sold,Sold by private treaty 24 Jun 2021,20210624,10 Bell Street,BEACONSFIELD,TAS,7270,-41.1941681,146.81337,3,1,2,House,House,False,1024,m2,False
2017028685,listing,/135-rowella-road-sidmouth-tas-7270-2017028685,965000,is-sold,Sold by private treaty 14 Jul 2021,20210714,135 Rowella Road,SIDMOUTH,TAS,7270,-41.2086067,146.898087,4,2,3,House,House,False,12200,m2,False
2017045435,listing,/156-sunset-boulevard-clarence-point-tas-7270-2017045435,1350000,is-sold,Sold by private treaty 09 Jun 2021,20210609,156 Sunset Boulevard,CLARENCE POINT,TAS,7270,-41.1372032,146.814835,4,5,7,House,House,False,20000,m2,False
2017048807,listing,/189-gardners-road-greens-beach-tas-7270-2017048807,600000,is-sold,Sold by private treaty 09 Jun 2021,20210609,189 Gardners Road,GREENS BEACH,TAS,7270,-41.07779,146.729263,,,,VacantLand,Vacant land,False,38500,m2,False
2017054019,listing,/2-cosgrove-court-beauty-point-tas-7270-2017054019,575000,is-sold,Sold by private treaty 21 Jun 2021,20210621,2 Cosgrove Court,BEAUTY POINT,TAS,7270,-41.1523628,146.8186,4,2,2,House,House,False,837,m2,False
2017054422,listing,/26-margaret-street-beaconsfield-tas-7270-2017054422,358500,is-sold,Sold by private treaty 17 Jun 2021,20210617,26 Margaret Street,BEACONSFIELD,TAS,7270,-41.19541,146.813721,3,1,,House,House,False,773,m2,False
2017088555,listing,/28-gibbs-street-beaconsfield-tas-7270-2017088555,80000,is-sold,Sold by private treaty 01 Jul 2021,20210701,28 Gibbs Street,BEACONSFIELD,TAS,7270,-41.1862068,146.818848,,,,VacantLand,Vacant land,False,2500,m2,False
2017093149,listing,/513-greens-beach-road-york-town-tas-7270-2017093149,730000,is-sold,Sold by private treaty 01 Jul 2021,20210701,513 Greens Beach Road,YORK TOWN,TAS,7270,-41.1667442,146.7683,4,2,,AcreageSemiRural,Acreage / Semi-Rural,True,20.34,ha,False
2016619623,listing,/17-ernest-street-beauty-point-tas-7270-2016619623,135000,is-sold,Sold by private treaty 13 May 2021,20210513,17 ernest street,BEAUTY POINT,TAS,7270,-41.1527176,146.815338,,,,VacantLand,Vacant land,False,971,m2,False
2016651336,listing,/586-greens-beach-road-york-town-tas-7270-2016651336,590000,is-sold,Sold by private treaty 19 Apr 2021,20210419,586 Greens Beach Road,YORK TOWN,TAS,7270,-41.1586876,146.769058,3,2,3,House,House,True,1.15,ha,False
2016666367,listing,/lot-7-julian-street-beaconsfield-tas-7270-2016666367,210000,is-sold,Sold by private treaty 17 May 2021,20210517,Lot 7 Julian Street,BEACONSFIELD,TAS,7270,-41.19274,146.812469,,,,VacantLand,Vacant land,False,0,m2,False
2016731597,listing,/218-weld-street-beaconsfield-tas-7270-2016731597,240000,is-sold,Sold by private treaty 03 May 2021,20210503,218 Weld Street,BEACONSFIELD,TAS,7270,-41.19199,146.811508,3,1,1,House,House,False,1012,m2,False
2016764351,listing,/59-tattersalls-road-beaconsfield-tas-7270-2016764351,675000,is-sold,Sold by private treaty 19 May 2021,20210519,59 Tattersalls Road,BEACONSFIELD,TAS,7270,-41.1899452,146.786758,3,1,2,AcreageSemiRural,Acreage / Semi-Rural,True,21.88,ha,False
2016832838,listing,/8-cosgrove-court-beauty-point-tas-7270-2016832838,428000,is-sold,Sold by private treaty 03 May 2021,20210503,8 Cosgrove Court,BEAUTY POINT,TAS,7270,-41.15284,146.818481,3,2,6,House,House,False,829,m2,False
2016848485,listing,/16-mainwaring-street-beauty-point-tas-7270-2016848485,450000,is-sold,Sold by private treaty 10 May 2021,20210510,16 Mainwaring Street,BEAUTY POINT,TAS,7270,-41.1460724,146.815582,5,2,3,House,House,False,1010,m2,False
2016889358,listing,/52-ross-street-beauty-point-tas-7270-2016889358,415000,is-sold,Sold by private treaty 19 May 2021,20210519,52 Ross Street,BEAUTY POINT,TAS,7270,-41.15294,146.813782,3,1,4,House,House,False,835,m2,False
2016902261,listing,/flowery-gully-road-flowery-gully-tas-7270-2016902261,300000,is-sold,Sold by private treaty 04 May 2021,20210504,Flowery Gully Road,FLOWERY GULLY,TAS,7270,-41.2505035,146.8217,,,,VacantLand,Vacant land,False,192994,m2,False
2016906552,listing,/18-crowther-street-beaconsfield-tas-7270-2016906552,370000,is-sold,Sold by private treaty 02 Jun 2021,20210602,18 Crowther Street,BEACONSFIELD,TAS,7270,-41.19457,146.816956,3,2,2,House,House,False,1012,m2,False
2016907019,listing,/321-badger-head-road-badger-head-tas-7270-2016907019,290000,is-sold,Sold by private treaty 19 Apr 2021,20210419,321 Badger Head Road,BADGER HEAD,TAS,7270,-41.133503,146.733536,,,,VacantLand,Vacant land,False,186700,m2,False
2016911488,listing,/88-sunset-boulevard-clarence-point-tas-7270-2016911488,110000,is-sold,Sold by private treaty 07 May 2021,20210507,88 Sunset Boulevard,CLARENCE POINT,TAS,7270,-41.13311,146.80986,,,,VacantLand,Vacant land,False,1658,m2,False
2016926524,listing,/12-kitchener-avenue-beauty-point-tas-7270-2016926524,580000,is-sold,Sold by private treaty 17 May 2021,20210517,12 Kitchener Avenue,BEAUTY POINT,TAS,7270,-41.1464043,146.816864,3,2,3,House,House,False,908,m2,False
2016938744,listing,/229-bevic-road-clarence-point-tas-7270-2016938744,760000,is-sold,Sold by private treaty 20 May 2021,20210520,229 Bevic Road,CLARENCE POINT,TAS,7270,-41.1215477,146.809036,4,2,8,House,House,True,1.19,ha,False
2016939951,listing,/111-flinders-st-beauty-point-tas-7270-2016939951,252000,is-sold,Sold by private treaty 03 May 2021,20210503,111 Flinders St,BEAUTY POINT,TAS,7270,-41.1595078,146.822159,3,1,,House,House,False,1375,m2,False
2016952682,listing,/348-clarence-point-road-clarence-point-tas-7270-2016952682,442000,is-sold,Sold by private treaty 10 May 2021,20210510,348 Clarence Point Road,CLARENCE POINT,TAS,7270,-41.1267548,146.801758,3,1,2,House,House,False,3251,m2,False
2016967630,listing,/77-foreshore-road-kelso-tas-7270-2016967630,,is-sold,Sold by private treaty 01 Jun 2021,20210601,77 Foreshore Road,KELSO,TAS,7270,-41.10027,146.791321,4,1,1,House,House,False,800,m2,False
2016967692,listing,/29a-foreshore-road-kelso-tas-7270-2016967692,,is-sold,Sold by private treaty 12 May 2021,20210512,29a Foreshore Road,KELSO,TAS,7270,-41.1043663,146.794891,,,,VacantLand,Vacant land,False,728,m2,False
2016974586,listing,/356-clarence-point-road-clarence-point-tas-7270-2016974586,215000,is-sold,Sold by private treaty 05 May 2021,20210505,356 Clarence Point Road,CLARENCE POINT,TAS,7270,-41.1261864,146.802765,,,,VacantLand,Vacant land,False,7261,m2,False
2016998984,listing,/kayena-tas-7270-2016998984,1400000,is-sold,Sold by private treaty 19 May 2021,20210519,,KAYENA,TAS,7270,-41.198143,146.90271,4,3,10,House,House,True,2.31,ha,False
2016342691,listing,/102-weld-street-beaconsfield-tas-7270-2016342691,451000,is-sold,Sold by private treaty 11 Mar 2021,20210311,102 Weld Street,BEACONSFIELD,TAS,7270,-41.2018166,146.817535,5,2,2,House,House,False,0,m2,False
2016489912,listing,/22-pars-road-greens-beach-tas-7270-2016489912,,is-sold,Sold by private treaty 16 Mar 2021,20210316,22 Pars Road,GREENS BEACH,TAS,7270,-41.0833054,146.7383,,,,VacantLand,Vacant land,False,1250,m2,False
2016551512,listing,/41-flinders-street-beauty-point-tas-7270-2016551512,520000,is-sold,Sold by private treaty 14 Apr 2021,20210414,41 Flinders Street,BEAUTY POINT,TAS,7270,-41.1659927,146.821335,4,2,8,House,House,False,3240,m2,False
2016666356,listing,/lot-1-julian-street-beaconsfield-tas-7270-2016666356,210000,is-sold,Sold by private treaty 13 Apr 2021,20210413,Lot 1 Julian Street,BEACONSFIELD,TAS,7270,-41.19274,146.812469,,,,VacantLand,Vacant land,False,0,m2,False
2016684262,listing,/10-brooklyn-street-beaconsfield-tas-7270-2016684262,370000,is-sold,Sold by private treaty 12 Mar 2021,20210312,10 Brooklyn Street,BEACONSFIELD,TAS,7270,-41.1976,146.8105,5,2,1,House,House,False,999,m2,False
2016708972,listing,/30-beach-crescent-greens-beach-tas-7270-2016708972,360000,is-sold,Sold by private treaty 24 Mar 2021,20210324,30 Beach Crescent,GREENS BEACH,TAS,7270,-41.08944,146.74559,2,1,4,House,House,False,582,m2,False
2016754495,listing,/76-clarence-point-road-clarence-point-tas-7270-2016754495,760000,is-sold,Sold by private treaty 31 Mar 2021,20210331,76 Clarence Point Road,CLARENCE POINT,TAS,7270,-41.1407433,146.777267,3,2,9,House,House,False,52609,m2,False
2016800900,listing,/128-oxford-street-beauty-point-tas-7270-2016800900,870000,is-sold,Sold by private treaty 11 Mar 2021,20210311,128 Oxford Street,BEAUTY POINT,TAS,7270,-41.15526,146.819565,4,2,4,House,House,False,1347,m2,False
2016811573,listing,/78-weld-street-beaconsfield-tas-7270-2016811573,300000,is-sold,Sold by private treaty 10 Mar 2021,20210310,78 Weld Street,BEACONSFIELD,TAS,7270,-41.20461,146.820313,3,1,1,House,House,False,784,m2,False
2016812868,listing,/1737-greens-beach-road-greens-beach-tas-7270-2016812868,445000,is-sold,Sold by private treaty 16 Mar 2021,20210316,1737 Greens Beach Road,GREENS BEACH,TAS,7270,-41.087307,146.742676,4,2,1,House,House,False,1027,m2,False
2016813495,listing,/13-ferguson-street-kelso-tas-7270-2016813495,400000,is-sold,Sold by private treaty 05 Apr 2021,20210405,13 Ferguson Street,KELSO,TAS,7270,-41.09606,146.789154,3,1,1,House,House,False,1049,m2,False
2016818067,listing,/lot-1-batman-highway-sidmouth-tas-7270-2016818067,285000,is-sold,Sold by private treaty 22 Mar 2021,20210322,Lot 1 Batman Highway,SIDMOUTH,TAS,7270,-41.2361336,146.88385,,,,VacantLand,Vacant land,False,56655,m2,False
2016854326,listing,/6041-big4-kelso-sands-holiday-park-86-paranaple-road-kelso-tas-7270-2016854326,,is-sold,Sold by private treaty 13 Apr 2021,20210413,"6041 BIG4 Kelso Sands Holiday Park, 86 Paranaple Road",KELSO,TAS,7270,-41.0926781,146.78096,1,1,1,House,House,False,0,m2,False
2016866804,listing,/67-payne-street-beaconsfield-tas-7270-2016866804,310000,is-sold,Sold by private treaty 24 Mar 2021,20210324,67 Payne Street,BEACONSFIELD,TAS,7270,-41.1959229,146.809677,2,1,3,House,House,False,809,m2,False
2016868128,listing,/4-eton-street-beauty-point-tas-7270-2016868128,240000,is-sold,Sold by private treaty 15 Apr 2021,20210415,4 Eton Street,BEAUTY POINT,TAS,7270,-41.146225,146.813675,2,1,1,House,House,False,0,m2,False
2016878325,listing,/50-sunset-boulevard-clarence-point-tas-7270-2016878325,147500,is-sold,Sold by private treaty 31 Mar 2021,20210331,50 Sunset Boulevard,CLARENCE POINT,TAS,7270,-41.1299362,146.808716,,,,VacantLand,Vacant land,False,1977,m2,False
2016886403,listing,/112-top-road-west-greens-beach-tas-7270-2016886403,190000,is-sold,Sold by private treaty 29 Mar 2021,20210329,112 Top Road West,GREENS BEACH,TAS,7270,-41.0793,146.73587,,,,VacantLand,Vacant land,False,1525,m2,False
2016891304,listing,/35-grubb-street-beaconsfield-tas-7270-2016891304,285000,is-sold,Sold at auction 17 Apr 2021,20210417,35 Grubb Street,BEACONSFIELD,TAS,7270,-41.2018661,146.818817,3,1,1,House,House,False,1087,m2,False
2016895507,listing,/19-top-road-greens-beach-tas-7270-2016895507,565000,is-sold,Sold by private treaty 06 Apr 2021,20210406,19 Top Road,GREENS BEACH,TAS,7270,-41.08579,146.741653,4,2,,House,House,False,937,m2,False
2016924640,listing,/7-ferguson-street-kelso-tas-7270-2016924640,402000,is-sold,Sold by private treaty 16 Apr 2021,20210416,7 Ferguson Street,KELSO,TAS,7270,-41.0964,146.789413,3,1,,House,House,False,768,m2,False
2016083409,listing,/-brodies-road-rowella-tas-7270-2016083409,,is-sold,Sold by private treaty 23 Feb 2021,20210223,. Brodies Road,ROWELLA,TAS,7270,-41.1658859,146.884979,,,,Rural,Rural,True,202.34,ha,False
2016397366,listing,/9-esplanade-beauty-point-tas-7270-2016397366,510000,is-sold,Sold by private treaty 04 Mar 2021,20210304,9 Esplanade,BEAUTY POINT,TAS,7270,-41.1468735,146.817871,3,1,1,House,House,False,1227,m2,False
2016699350,listing,/12-crowther-street-beaconsfield-tas-7270-2016699350,290000,is-sold,Sold by private treaty 22 Feb 2021,20210222,12 Crowther Street,BEACONSFIELD,TAS,7270,-41.1943245,146.817566,3,1,1,House,House,False,7645,m2,False
2016699570,listing,/179-camms-road-kayena-tas-7270-2016699570,580000,is-sold,Sold by private treaty 22 Feb 2021,20210222,179 Camms Road,KAYENA,TAS,7270,-41.1944656,146.914749,3,2,2,House,House,False,1295,m2,False
2016729920,listing,/274-weld-street-beaconsfield-tas-7270-2016729920,290000,is-sold,Sold by private treaty 17 Feb 2021,20210217,274 Weld Street,BEACONSFIELD,TAS,7270,-41.1853027,146.81369,3,1,3,House,House,False,1012,m2,False
2016740735,listing,/165-flinders-beauty-point-tas-7270-2016740735,160000,is-sold,Sold by private treaty 25 Feb 2021,20210225,165 Flinders,BEAUTY POINT,TAS,7270,-41.1546555,146.821884,2,1,,House,House,False,435,m2,False
2016751104,listing,/31-foreshore-road-kelso-tas-7270-2016751104,405000,is-sold,Sold by private treaty 22 Feb 2021,20210222,31 Foreshore Road,KELSO,TAS,7270,-41.1041222,146.794373,3,2,2,House,House,False,830,m2,False
2016759648,listing,/29-bonnie-beach-road-kayena-tas-7270-2016759648,,is-sold,Sold by private treaty 09 Feb 2021,20210209,29 Bonnie Beach Road,KAYENA,TAS,7270,-41.20174,146.907043,,,,VacantLand,Vacant land,False,6898,m2,False
2016768669,listing,/5950-86-paranaple-road-kelso-tas-7270-2016768669,60000,is-sold,Sold by private treaty 03 Mar 2021,20210303,5950- 86 Paranaple Road,KELSO,TAS,7270,-41.0928078,146.781158,2,1,1,House,House,False,0,m2,False
2016769041,listing,/flowery-gully-tas-7270-2016769041,1300000,is-sold,Sold by private treaty 12 Feb 2021,20210212,,FLOWERY GULLY,TAS,7270,-41.2377357,146.829147,4,2,8,House,House,True,26.19,ha,False
2016772692,listing,/219-flinders-street-beauty-point-tas-7270-2016772692,458000,is-sold,Sold by private treaty 19 Feb 2021,20210219,219 Flinders Street,BEAUTY POINT,TAS,7270,-41.1495819,146.819778,3,1,1,House,House,False,1415,m2,False
2016790826,listing,/49-weld-street-beaconsfield-tas-7270-2016790826,335700,is-sold,Sold by private treaty 17 Feb 2021,20210217,49 Weld Street,BEACONSFIELD,TAS,7270,-41.20717,146.823853,2,1,1,House,House,False,1561,m2,False
2016794153,listing,/160-oxford-street-beauty-point-tas-7270-2016794153,297000,is-sold,Sold by private treaty 22 Feb 2021,20210222,160 Oxford Street,BEAUTY POINT,TAS,7270,-41.15198,146.820786,3,1,1,House,House,False,809,m2,False
2016794248,listing,/14-chisholm-avenue-clarence-point-tas-7270-2016794248,220000,is-sold,Sold by private treaty 26 Feb 2021,20210226,14 Chisholm Avenue,CLARENCE POINT,TAS,7270,-41.1295471,146.806381,,,,VacantLand,Vacant land,False,0,m2,False
2016805872,listing,/13-douglas-street-beaconsfield-tas-7270-2016805872,81750,is-sold,Sold by private treaty 26 Feb 2021,20210226,13 Douglas Street,BEACONSFIELD,TAS,7270,-41.2078934,146.820709,,,,VacantLand,Vacant land,False,1537,m2,False
2016806073,listing,/179-camms-road-kayena-tas-7270-2016806073,598750,is-sold,Sold by private treaty 25 Feb 2021,20210225,179 Camms Road,KAYENA,TAS,7270,-41.1944656,146.914749,3,2,6,House,House,False,1295,m2,False
2016809154,listing,/163-gardners-road-greens-beach-tas-7270-2016809154,185000,is-sold,Sold by private treaty 24 Feb 2021,20210224,163 Gardners Road,GREENS BEACH,TAS,7270,-41.0787277,146.73233,,,,VacantLand,Vacant land,False,993,m2,False
2016811946,listing,/4-mainwaring-street-beauty-point-tas-7270-2016811946,285000,is-sold,Sold by private treaty 04 Mar 2021,20210304,4 Mainwaring Street,BEAUTY POINT,TAS,7270,-41.1469765,146.815369,2,1,1,House,House,False,1012,m2,False
2016825807,listing,/115-foreshore-road-kelso-tas-7270-2016825807,329000,is-sold,Sold by private treaty 02 Mar 2021,20210302,115 Foreshore Road,KELSO,TAS,7270,-41.09607,146.790436,2,1,1,House,House,False,549,m2,False
2016832598,listing,/75-foreshore-road-kelso-tas-7270-2016832598,485000,is-sold,Sold by private treaty 06 Mar 2021,20210306,75 Foreshore Road,KELSO,TAS,7270,-41.10066,146.791428,3,1,4,House,House,False,1936,m2,False
2014445741,listing,/39-bonnie-beach-road-kayena-tas-7270-2014445741,,is-sold,Sold by private treaty 09 Feb 2021,20210209,39 Bonnie Beach Road,KAYENA,TAS,7270,-41.20198,146.906525,4,2,6,House,House,False,3165,m2,False
2016331646,listing,/97-weld-street-beaconsfield-tas-7270-2016331646,290000,is-sold,Sold by private treaty 12 Jan 2021,20210112,97 Weld Street,BEACONSFIELD,TAS,7270,-41.20435,146.818146,4,1,2,House,House,False,809,m2,False
2016411563,listing,/1313-greens-beach-road-kelso-tas-7270-2016411563,390000,is-sold,Sold by private treaty 18 Jan 2021,20210118,1313 Greens Beach Road,KELSO,TAS,7270,-41.102108,146.78598,3,1,2,House,House,True,17.25,ha,False
2016526656,listing,/144-flinders-street-beauty-point-tas-7270-2016526656,485000,is-sold,Sold by private treaty 12 Jan 2021,20210112,144 Flinders Street,BEAUTY POINT,TAS,7270,-41.15609,146.822281,2,1,2,House,House,False,839,m2,False
2016535818,listing,/19-bolton-street-beaconsfield-tas-7270-2016535818,25000,is-sold,Sold by private treaty 27 Jan 2021,20210127,19 Bolton Street,BEACONSFIELD,TAS,7270,-41.1932869,146.804459,,,,VacantLand,Vacant land,False,282,m2,False
2016582795,listing,/22-ferguson-street-kelso-tas-7270-2016582795,385000,is-sold,Sold by private treaty 16 Jan 2021,20210116,22 Ferguson Street,KELSO,TAS,7270,-41.0953026,146.789,3,2,3,House,House,False,1200,m2,False
2016588415,listing,/26-jellico-street-beauty-point-tas-7270-2016588415,335000,is-sold,Sold by private treaty 18 Jan 2021,20210118,26 Jellico Street,BEAUTY POINT,TAS,7270,-41.150074,146.815,2,1,2,House,House,False,911,m2,False
2016639185,listing,/146-oxford-street-beauty-point-tas-7270-2016639185,565000,is-sold,Sold by private treaty 15 Jan 2021,20210115,146 Oxford Street,BEAUTY POINT,TAS,7270,-41.15358,146.820236,3,3,2,House,House,False,739,m2,False
2016644688,listing,/30-jellico-street-beauty-point-tas-7270-2016644688,345000,is-sold,Sold by private treaty 03 Feb 2021,20210203,30 Jellico Street,BEAUTY POINT,TAS,7270,-41.1500778,146.814453,3,1,2,House,House,False,911,m2,False
2016645635,listing,/57-lightwood-hills-road-beaconsfield-tas-7270-2016645635,1005000,is-sold,Sold by private treaty 29 Jan 2021,20210129,57 Lightwood Hills Road,BEACONSFIELD,TAS,7270,-41.2159157,146.849228,3,2,4,Farm,Farm,True,71.23,ha,False
2016654295,listing,/14-mainwaring-street-beauty-point-tas-7270-2016654295,340000,is-sold,Sold by private treaty 11 Jan 2021,20210111,14 Mainwaring Street,BEAUTY POINT,TAS,7270,-41.1460762,146.815613,4,2,,House,House,False,1012,m2,False
2016661341,listing,/45-flinders-street-beauty-point-tas-7270-2016661341,560000,is-sold,Sold by private treaty 12 Jan 2021,20210112,45 Flinders Street,BEAUTY POINT,TAS,7270,-41.16544,146.821274,5,3,,House,House,False,5627,m2,False
2016674739,listing,/149-camms-road-kayena-tas-7270-2016674739,670000,is-sold,Sold by private treaty 03 Feb 2021,20210203,149 Camms Road,KAYENA,TAS,7270,-41.1967049,146.9149,4,2,6,House,House,False,2731,m2,False
2016675264,listing,/11-adley-court-beauty-point-tas-7270-2016675264,750000,is-sold,Sold by private treaty 11 Jan 2021,20210111,11 Adley Court,BEAUTY POINT,TAS,7270,-41.1614227,146.819519,3,2,2,House,House,False,5254,m2,False
2016698756,listing,/26-douglas-street-beaconsfield-tas-7270-2016698756,540000,is-sold,Sold by private treaty 09 Jan 2021,20210109,26 Douglas Street,BEACONSFIELD,TAS,7270,-41.20642,146.820053,4,2,4,House,House,False,1902,m2,False
2016702865,listing,/2-2-lempriere-avenue-beauty-point-tas-7270-2016702865,325000,is-sold,Sold by private treaty 05 Jan 2021,20210105,2/2 Lempriere Avenue,BEAUTY POINT,TAS,7270,-41.1495,146.8139,2,1,2,ApartmentUnitFlat,Apartment / Unit / Flat,False,430,m2,False
2016718293,listing,/684-rowella-road-rowella-tas-7270-2016718293,355000,is-sold,Sold by private treaty 14 Jan 2021,20210114,684 Rowella Road,ROWELLA,TAS,7270,-41.1770821,146.911926,3,1,3,House,House,False,1014,m2,False
2016722688,listing,/33-foreshore-road-kelso-tas-7270-2016722688,320000,is-sold,Sold by private treaty 20 Jan 2021,20210120,33 Foreshore Road,KELSO,TAS,7270,-41.1039848,146.794327,2,1,,House,House,False,782,m2,False
2016728468,listing,/153-flinders-street-beauty-point-tas-7270-2016728468,110000,is-sold,Sold by private treaty 15 Jan 2021,20210115,153 Flinders Street,BEAUTY POINT,TAS,7270,-41.1553154,146.821442,,,,VacantLand,Vacant land,False,3516,m2,False
2016756600,listing,/56-kellys-lookout-road-beaconsfield-tas-7270-2016756600,260000,is-sold,Sold by private treaty 03 Feb 2021,20210203,56 Kellys Lookout Road,BEACONSFIELD,TAS,7270,-41.1917953,146.804733,3,1,2,House,House,False,3205,m2,False
2015660699,listing,/77-flinders-street-beauty-point-tas-7270-2015660699,745000,is-sold,Sold by private treaty 01 Dec 2020,20201201,77 Flinders Street,BEAUTY POINT,TAS,7270,-41.1622849,146.821915,3,3,6,House,House,True,1.14,ha,False
2016259275,listing,/25-pars-road-greens-beach-tas-7270-2016259275,163000,is-sold,Sold by private treaty 21 Dec 2020,20201221,25 Pars Road,GREENS BEACH,TAS,7270,-41.0839462,146.73793,,,,VacantLand,Vacant land,False,1842,m2,False
2016374437,listing,/82-sunset-boulevard-clarence-point-tas-7270-2016374437,,is-sold,Sold by private treaty 27 Nov 2020,20201127,82 Sunset Boulevard,CLARENCE POINT,TAS,7270,-41.13252,146.80983,3,2,6,House,House,False,1315,m2,False
2016423807,listing,/37-scott-street-beauty-point-tas-7270-2016423807,117000,is-sold,Sold by private treaty 14 Dec 2020,20201214,37 Scott Street,BEAUTY POINT,TAS,7270,-41.1498,146.815079,,1,,VacantLand,Vacant land,False,923,m2,False
2016476391,listing,/14-garrett-street-beauty-point-tas-7270-2016476391,287000,is-sold,Sold by private treaty 09 Dec 2020,20201209,14 Garrett Street,BEAUTY POINT,TAS,7270,-41.15057,146.81868,2,1,1,House,House,False,464,m2,False
2016482051,listing,/127-gardners-road-greens-beach-tas-7270-2016482051,370000,is-sold,Sold by private treaty 14 Dec 2020,20201214,127 Gardners Road,GREENS BEACH,TAS,7270,-41.0785522,146.736588,4,2,2,House,House,False,776,m2,False
2016495300,listing,/39-kellys-lookout-road-beaconsfield-tas-7270-2016495300,220000,is-sold,Sold by private treaty 07 Dec 2020,20201207,39 Kellys Lookout Road,BEACONSFIELD,TAS,7270,-41.19142,146.806091,3,1,4,House,House,False,794,m2,False
2016556618,listing,/10a-bowen-street-beauty-point-tas-7270-2016556618,302000,is-sold,Sold by private treaty 04 Jan 2021,20210104,10A Bowen Street,BEAUTY POINT,TAS,7270,-41.1674461,146.8178,2,1,6,House,House,False,2006,m2,False
2016574539,listing,/17-hudson-street-sidmouth-tas-7270-2016574539,1330000,is-sold,Sold by private treaty 09 Dec 2020,20201209,17 Hudson Street,SIDMOUTH,TAS,7270,-41.21114,146.89856,4,2,4,House,House,True,2.02,ha,False
2016589820,listing,/15-inglis-road-clarence-point-tas-7270-2016589820,156000,is-sold,Sold by private treaty 12 Dec 2020,20201212,15 Inglis Road,CLARENCE POINT,TAS,7270,-41.1302528,146.804733,,,,VacantLand,Vacant land,False,9010,m2,False
2016597950,listing,/239-bevic-road-clarence-point-tas-7270-2016597950,437000,is-sold,Sold by private treaty 16 Dec 2020,20201216,239 Bevic Road,CLARENCE POINT,TAS,7270,-41.1227455,146.807755,4,2,3,House,House,False,2415,m2,False
2016615426,listing,/625-rowella-road-rowella-tas-7270-2016615426,521000,is-sold,Sold by private treaty 18 Dec 2020,20201218,625 Rowella Road,ROWELLA,TAS,7270,-41.1750641,146.9071,,,,AcreageSemiRural,Acreage / Semi-Rural,True,28.35,ha,False
2016619693,listing,/9-beatty-street-beauty-point-tas-7270-2016619693,221333,is-sold,Sold by private treaty 07 Dec 2020,20201207,9 Beatty Street,BEAUTY POINT,TAS,7270,-41.1489067,146.817276,2,1,,House,House,False,920,m2,False
2016622490,listing,/28-weld-street-beaconsfield-tas-7270-2016622490,280000,is-sold,Sold by private treaty 09 Dec 2020,20201209,28 Weld Street,BEACONSFIELD,TAS,7270,-41.2079544,146.826431,3,2,2,House,House,False,1012,m2,False
2016637453,listing,/4349-west-tamar-highway-beauty-point-tas-7270-2016637453,502000,is-sold,Sold by private treaty 17 Dec 2020,20201217,4349 West Tamar Highway,BEAUTY POINT,TAS,7270,-41.1742439,146.814377,3,2,20,ApartmentUnitFlat,Apartment / Unit / Flat,False,18700,m2,False
2016653387,listing,/57-lightwood-hills-road-beaconsfield-tas-7270-2016653387,1005000,is-sold,Sold by private treaty 23 Dec 2020,20201223,57 Lightwood Hills Road,BEACONSFIELD,TAS,7270,-41.2159157,146.849228,3,2,4,Farm,Farm,True,71.23,ha,False
2016661399,listing,/66-sunset-blvd-clarence-point-tas-7270-2016661399,440000,is-sold,Sold by private treaty 05 Jan 2021,20210105,66 Sunset Blvd,CLARENCE POINT,TAS,7270,-41.1317024,146.809357,4,2,,House,House,False,1012,m2,False
2016666918,listing,/1212-greensbeach-road-kelso-tas-7270-2016666918,395000,is-sold,Sold by private treaty 29 Nov 2020,20201129,1212 Greensbeach Road,KELSO,TAS,7270,-41.1101723,146.791534,3,1,1,House,House,False,1983,m2,False
2016685603,listing,/41-new-street-beaconsfield-tas-7270-2016685603,230000,is-sold,Sold by private treaty 23 Dec 2020,20201223,41 New Street,BEACONSFIELD,TAS,7270,-41.2069321,146.82106,3,1,2,House,House,False,1012,m2,False
2016704330,listing,/1209-greens-beach-road-kelso-tas-7270-2016704330,410000,is-sold,Sold by private treaty 01 Jan 2021,20210101,1209 Greens Beach Road,KELSO,TAS,7270,-41.11026,146.790909,4,2,12,House,House,False,1439,m2,False
2012156509,listing,/lot-2-kemps-parade-beauty-point-tas-7270-2012156509,,is-sold,Sold by private treaty 10 Nov 2020,20201110,Lot 2 Kemps Parade,BEAUTY POINT,TAS,7270,-41.16348,146.824188,,,,VacantLand,Vacant land,False,0,m2,False
2015395556,listing,/6-12-ferguson-street-kelso-tas-7270-2015395556,335000,is-sold,Sold by private treaty 22 Oct 2020,20201022,6-12 Ferguson Street,KELSO,TAS,7270,-41.0961227,146.789978,3,1,6,House,House,False,2124,m2,False
2015603909,listing,/176-gardners-road-greens-beach-tas-7270-2015603909,210000,is-sold,Sold by private treaty 10 Nov 2020,20201110,176 Gardners Road,GREENS BEACH,TAS,7270,-41.07821,146.731277,,,,VacantLand,Vacant land,False,824,m2,False
2016110915,listing,/17-beatty-street-beauty-point-tas-7270-2016110915,255000,is-sold,Sold by private treaty 02 Nov 2020,20201102,17 Beatty Street,BEAUTY POINT,TAS,7270,-41.1487923,146.816315,3,1,2,House,House,False,0,m2,False
2016142758,listing,/692-rowella-road-rowella-tas-7270-2016142758,817000,is-sold,Sold by private treaty 08 Nov 2020,20201108,692 Rowella Road,ROWELLA,TAS,7270,-41.1777763,146.913971,4,4,8,House,House,True,3.6,ha,False
2016146576,listing,/155-oxford-street-beauty-point-tas-7270-2016146576,115000,is-sold,Sold by private treaty 11 Nov 2020,20201111,155 Oxford Street,BEAUTY POINT,TAS,7270,-41.15255,146.819855,,,,VacantLand,Vacant land,False,966,m2,False
2016441081,listing,/2-bernard-street-beaconsfield-tas-7270-2016441081,250000,is-sold,Sold by private treaty 18 Nov 2020,20201118,2 Bernard Street,BEACONSFIELD,TAS,7270,-41.2043762,146.818665,4,1,1,House,House,False,822,m2,False
2016483411,listing,/33-margaret-beaconsfield-tas-7270-2016483411,292000,is-sold,Sold by private treaty 17 Nov 2020,20201117,33 Margaret,BEACONSFIELD,TAS,7270,-41.1949348,146.812759,4,1,2,House,House,False,1214,m2,False
2016515929,listing,/16-scott-street-beauty-point-tas-7270-2016515929,310000,is-sold,Sold by private treaty 04 Nov 2020,20201104,16 Scott Street,BEAUTY POINT,TAS,7270,-41.1494179,146.817871,3,1,1,House,House,False,858,m2,False
2016536977,listing,/3-2-tamar-crescent-greens-beach-tas-7270-2016536977,243000,is-sold,Sold by private treaty 28 Oct 2020,20201028,3/2 Tamar Crescent,GREENS BEACH,TAS,7270,-41.0897675,146.743515,2,1,2,House,House,False,343,m2,False
2016538643,listing,/199-camms-road-kayena-tas-7270-2016538643,410000,is-sold,Sold by private treaty 27 Oct 2020,20201027,199 Camms Road,KAYENA,TAS,7270,-41.19312,146.915283,3,1,,House,House,False,1508,m2,False
2016550384,listing,/17-ocean-view-drive-greens-beach-tas-7270-2016550384,450000,is-sold,Sold by private treaty 10 Nov 2020,20201110,17 Ocean View Drive,GREENS BEACH,TAS,7270,-41.085762,146.738708,3,1,4,House,House,False,2225,m2,False
2016564132,listing,/33-esplanade-beauty-point-tas-7270-2016564132,485000,is-sold,Sold by private treaty 13 Nov 2020,20201113,33 Esplanade,BEAUTY POINT,TAS,7270,-41.14557,146.815765,4,2,3,House,House,False,1062,m2,False
2016568961,listing,/39-scott-street-beauty-point-tas-7270-2016568961,253000,is-sold,Sold by private treaty 06 Nov 2020,20201106,39 Scott Street,BEAUTY POINT,TAS,7270,-41.14962,146.8149,3,1,2,House,House,False,932,m2,False
2016569542,listing,/81-bowens-jetty-road-beaconsfield-tas-7270-2016569542,690000,is-sold,Sold by private treaty 02 Nov 2020,20201102,81 Bowens Jetty Road,BEACONSFIELD,TAS,7270,-41.1857643,146.823547,4,2,18,House,House,True,14.97,ha,False
2016578313,listing,/131-flinders-street-beauty-point-tas-7270-2016578313,255000,is-sold,Sold by private treaty 20 Nov 2020,20201120,131 Flinders Street,BEAUTY POINT,TAS,7270,-41.1573524,146.821442,3,1,2,House,House,False,1032,m2,False
2016585482,listing,/14-dodds-street-beaconsfield-tas-7270-2016585482,63500,is-sold,Sold by private treaty 13 Nov 2020,20201113,14 Dodds Street,BEACONSFIELD,TAS,7270,-41.20564,146.819168,,,,VacantLand,Vacant land,False,860,m2,False
2016588356,listing,/8-ross-street-beauty-point-tas-7270-2016588356,310000,is-sold,Sold by private treaty 23 Oct 2020,20201023,8 Ross Street,BEAUTY POINT,TAS,7270,-41.1537247,146.8195,2,1,4,House,House,False,708,m2,False
2016597139,listing,/180-weld-street-beaconsfield-tas-7270-2016597139,310000,is-sold,Sold by private treaty 12 Nov 2020,20201112,180 Weld Street,BEACONSFIELD,TAS,7270,-41.1968727,146.813538,4,2,,House,House,False,615,m2,False
2016641406,listing,/2-15-beatty-street-beauty-point-tas-7270-2016641406,275000,is-sold,Sold by private treaty 24 Nov 2020,20201124,2/15 Beatty Street,BEAUTY POINT,TAS,7270,-41.14895,146.816528,2,1,3,House,House,False,322,m2,False
2015112275,listing,/7-manion-close-beaconsfield-tas-7270-2015112275,43000,is-sold,Sold by private treaty 11 Sep 2020,20200911,7 Manion Close,BEACONSFIELD,TAS,7270,-41.19546,146.81,,,,VacantLand,Vacant land,False,820,m2,False
2015937679,listing,/1-greens-beach-road-kelso-tas-7270-2015937679,,is-sold,Sold by private treaty 29 Sep 2020,20200929,1 Greens Beach Road,KELSO,TAS,7270,-41.1950836,146.810974,,,,VacantLand,Vacant land,False,1922,m2,False
2016110889,listing,/14-brooklyn-street-beaconsfield-tas-7270-2016110889,312000,is-sold,Sold by private treaty 27 Sep 2020,20200927,14 Brooklyn Street,BEACONSFIELD,TAS,7270,-41.1972847,146.810211,4,2,1,House,House,False,948,m2,False
2016146574,listing,/157-charles-street-beauty-point-tas-7270-2016146574,247500,is-sold,Sold by private treaty 22 Sep 2020,20200922,157 Charles Street,BEAUTY POINT,TAS,7270,-41.1511269,146.817688,2,1,3,House,House,False,457,m2,False
2016305751,listing,/1-william-street-beaconsfield-tas-7270-2016305751,185000,is-sold,Sold by private treaty 21 Oct 2020,20201021,1 William Street,BEACONSFIELD,TAS,7270,-41.1989174,146.814331,3,1,2,House,House,False,854,m2,False
2016315240,listing,/139-weld-street-beaconsfield-tas-7270-2016315240,169000,is-sold,Sold by private treaty 25 Sep 2020,20200925,139 Weld Street,BEACONSFIELD,TAS,7270,-41.2000923,146.8156,2,1,2,House,House,False,776,m2,False
2016321473,listing,/10-oakden-place-greens-beach-tas-7270-2016321473,325500,is-sold,Sold by private treaty 10 Sep 2020,20200910,10 Oakden Place,GREENS BEACH,TAS,7270,-41.0801544,146.740265,3,1,6,House,House,False,635,m2,False
2016406435,listing,/158-charles-street-beauty-point-tas-7270-2016406435,230000,is-sold,Sold by private treaty 28 Sep 2020,20200928,158 Charles Street,BEAUTY POINT,TAS,7270,-41.151226,146.818115,2,1,,House,House,False,1012,m2,False
2016413283,listing,/3-243-flinders-street-beauty-point-tas-7270-2016413283,295000,is-sold,Sold by private treaty 16 Oct 2020,20201016,3/243 Flinders Street,BEAUTY POINT,TAS,7270,-41.14783,146.816666,2,2,2,House,House,False,448,m2,False
2016429763,listing,/34-torneys-beauty-point-tas-7270-2016429763,180000,is-sold,Sold by private treaty 23 Sep 2020,20200923,34 Torneys,BEAUTY POINT,TAS,7270,-41.16995,146.813858,,,,VacantLand,Vacant land,False,11700,m2,False
2016439840,listing,/4413-west-tamar-highway-beauty-point-tas-7270-2016439840,215000,is-sold,Sold by private treaty 17 Sep 2020,20200917,4413 West Tamar Highway,BEAUTY POINT,TAS,7270,-41.1692619,146.817215,1,1,1,House,House,False,976,m2,False
2016449455,listing,/59-payne-street-beaconsfield-tas-7270-2016449455,315000,is-sold,Sold by private treaty 08 Sep 2020,20200908,59 Payne Street,BEACONSFIELD,TAS,7270,-41.19656,146.810257,2,2,3,House,House,False,1360,m2,False
2016465677,listing,/28-ocean-view-drive-greens-beach-tas-7270-2016465677,780000,is-sold,Sold by private treaty 13 Oct 2020,20201013,28 Ocean View Drive,GREENS BEACH,TAS,7270,-41.0834045,146.7359,4,2,3,House,House,False,182108,m2,False
2016475877,listing,/1-pars-road-greens-beach-tas-7270-2016475877,508000,is-sold,Sold by private treaty 29 Sep 2020,20200929,1 Pars Road,GREENS BEACH,TAS,7270,-41.0853958,146.739532,4,2,2,House,House,False,1057,m2,False
2016483527,listing,/95-weld-street-beaconsfield-tas-7270-2016483527,305000,is-sold,Sold by private treaty 07 Oct 2020,20201007,95 Weld Street,BEACONSFIELD,TAS,7270,-41.2040749,146.8189,3,1,1,House,House,False,809,m2,False
2016509076,listing,/185-rowella-road-sidmouth-tas-7270-2016509076,550000,is-sold,Sold by private treaty 26 Sep 2020,20200926,185 Rowella Road,SIDMOUTH,TAS,7270,-41.204464,146.897659,3,1,1,Rural,Rural,True,2745,m2,False
2016511038,listing,/91-robert-street-beauty-point-tas-7270-2016511038,255000,is-sold,Sold by private treaty 19 Oct 2020,20201019,91 Robert Street,BEAUTY POINT,TAS,7270,-41.15861,146.820862,4,1,4,House,House,False,801,m2,False
2016517619,listing,/158-weld-street-beaconsfield-tas-7270-2016517619,340000,is-sold,Sold by private treaty 13 Oct 2020,20201013,158 Weld Street,BEACONSFIELD,TAS,7270,-41.1984253,146.814987,3,1,2,House,House,False,1959,m2,False
2016536859,listing,/2-226-valley-road-sidmouth-tas-7270-2016536859,320000,is-sold,Sold by private treaty 16 Oct 2020,20201016,2/226 Valley Road,SIDMOUTH,TAS,7270,-41.2257347,146.870819,,,,VacantLand,Vacant land,True,7.72,ha,False
2016538975,listing,/10-scott-street-beauty-point-tas-7270-2016538975,235000,is-sold,Sold by private treaty 10 Oct 2020,20201010,10 Scott Street,BEAUTY POINT,TAS,7270,-41.1496735,146.819275,2,1,4,House,House,False,555,m2,False
2013920014,listing,/lot-1-180-oxford-street-beauty-point-tas-7270-2013920014,,is-sold,Sold by private treaty 07 Sep 2020,20200907,Lot 1/180 Oxford Street,BEAUTY POINT,TAS,7270,-41.15566,146.819473,,,,VacantLand,Vacant land,False,2083,m2,False
2014574775,listing,/130-sunset-boulevard-clarence-point-tas-7270-2014574775,,is-sold,Sold by private treaty 08 Sep 2020,20200908,130 Sunset Boulevard,CLARENCE POINT,TAS,7270,-41.1347237,146.812851,4,2,,House,House,False,905,m2,False
2015249171,listing,/173-175-charles-street-beauty-point-tas-7270-2015249171,310000,is-sold,Sold by private treaty 06 Jul 2020,20200706,173-175 Charles Street,BEAUTY POINT,TAS,7270,-41.14931,146.81813,2,1,,House,House,False,503,m2,False
2015653347,listing,/61-payne-st-beaconsfield-tas-7270-2015653347,45000,is-sold,Sold by private treaty 31 Jul 2020,20200731,61 Payne St,BEACONSFIELD,TAS,7270,-41.1964226,146.8101,,,,VacantLand,Vacant land,False,809,m2,False
2015909929,listing,/170-charles-street-beauty-point-tas-7270-2015909929,279000,is-sold,Sold by private treaty 11 Aug 2020,20200811,170 Charles Street,BEAUTY POINT,TAS,7270,-41.1500053,146.818634,4,2,3,House,House,False,1012,m2,False
2015950569,listing,/6-augustus-street-beauty-point-tas-7270-2015950569,495000,is-sold,Sold by private treaty 13 Jul 2020,20200713,6 Augustus Street,BEAUTY POINT,TAS,7270,-41.1638336,146.82164,4,2,1,House,House,False,921,m2,False
2016146577,listing,/4-garrett-street-beauty-point-tas-7270-2016146577,325000,is-sold,Sold by private treaty 29 Jul 2020,20200729,4 Garrett Street,BEAUTY POINT,TAS,7270,-41.1507759,146.820236,2,2,1,House,House,False,645,m2,False
2016176105,listing,/30-pars-road-greens-beach-tas-7270-2016176105,295550,is-sold,Sold by private treaty 08 Sep 2020,20200908,30 Pars Road,GREENS BEACH,TAS,7270,-41.0834236,146.7371,3,1,2,House,House,False,0,m2,False
2016179887,listing,/158-sunset-boulevard-clarence-point-tas-7270-2016179887,625000,is-sold,Sold by private treaty 08 Jul 2020,20200708,158 Sunset Boulevard,CLARENCE POINT,TAS,7270,-41.13607,146.815689,4,2,5,House,House,True,2.79,ha,False
2016218750,listing,/1735-greens-beach-road-greens-beach-tas-7270-2016218750,142500,is-sold,Sold by private treaty 11 Aug 2020,20200811,1735 Greens Beach Road,GREENS BEACH,TAS,7270,-41.0875168,146.741943,,,,VacantLand,Vacant land,False,0,m2,False
2016231811,listing,/153-gardners-road-greens-beach-tas-7270-2016231811,143000,is-sold,Sold by private treaty 14 Jul 2020,20200714,153 Gardners Road,GREENS BEACH,TAS,7270,-41.0785561,146.73349,,,,VacantLand,Vacant land,False,749,m2,False
2016293238,listing,/320-badger-head-road-badger-head-tas-7270-2016293238,470000,is-sold,Sold by private treaty 18 Jul 2020,20200718,320 Badger Head Road,BADGER HEAD,TAS,7270,-41.1273766,146.735123,4,1,8,Rural,Rural,True,16.19,ha,False
2016339347,listing,/1211-greens-beach-road-kelso-tas-7270-2016339347,228000,is-sold,Sold by private treaty 27 Jul 2020,20200727,1211 Greens Beach Road,KELSO,TAS,7270,-41.1100922,146.791061,3,1,1,House,House,False,809,m2,False
2016352938,listing,/14-dodds-street-beaconsfield-tas-7270-2016352938,45000,is-sold,Sold by private treaty 08 Jul 2020,20200708,14 Dodds Street,BEACONSFIELD,TAS,7270,-41.20564,146.819168,,,,VacantLand,Vacant land,False,860,m2,False
2016368474,listing,/152-gardners-road-greens-beach-tas-7270-2016368474,740000,is-sold,Sold by private treaty 01 Sep 2020,20200901,152 Gardners Road,GREENS BEACH,TAS,7270,-41.07801,146.7341,4,2,2,House,House,False,836,m2,False
2016408447,listing,/80-weld-street-beaconsfield-tas-7270-2016408447,287000,is-sold,Sold by private treaty 13 Aug 2020,20200813,80 Weld Street,BEACONSFIELD,TAS,7270,-41.20451,146.820129,3,1,3,House,House,False,809,m2,False
2016441079,listing,/90-oxford-street-beauty-point-tas-7270-2016441079,343000,is-sold,Sold by private treaty 08 Sep 2020,20200908,90 Oxford Street,BEAUTY POINT,TAS,7270,-41.1596756,146.8189,3,1,2,House,House,False,2013,m2,False
2016457778,listing,/100-top-road-west-greens-beach-tas-7270-2016457778,392500,is-sold,Sold by private treaty 03 Sep 2020,20200903,100 Top Road West,GREENS BEACH,TAS,7270,-41.0793,146.73587,3,2,,House,House,False,1596,m2,False
2016617659,listing,/55-beach-crescent-greens-beach-tas-7270-2016617659,290000,is-sold,Sold by private treaty 13 Jul 2020,20200713,55 Beach Crescent,GREENS BEACH,TAS,7270,-41.0895042,146.748413,2,1,,House,House,False,0,m2,False
2016617660,listing,/3537-west-tamar-highway-sidmouth-tas-7270-2016617660,635000,is-sold,Sold by private treaty 22 Jul 2020,20200722,3537 West Tamar Highway,SIDMOUTH,TAS,7270,-41.2338638,146.857529,4,2,5,House,House,True,13.03,ha,False
2014973727,listing,/4426-west-tamar-highway-beauty-point-tas-7270-2014973727,,is-sold,Sold by private treaty 19 May 2020,20200519,4426 West Tamar Highway,BEAUTY POINT,TAS,7270,-41.1687737,146.818832,3,2,3,House,House,False,0,m2,False
2015142687,listing,/6-william-street-beaconsfield-tas-7270-2015142687,,is-sold,Sold by private treaty 05 May 2020,20200505,6 William Street,BEACONSFIELD,TAS,7270,-41.1987343,146.813721,,,,VacantLand,Vacant land,False,6189,m2,False
2015937687,listing,/130-flinders-street-beauty-point-tas-7270-2015937687,395500,is-sold,Sold by private treaty 01 Jun 2020,20200601,130 Flinders Street,BEAUTY POINT,TAS,7270,-41.1572876,146.822052,3,3,1,House,House,False,610,m2,False
2015992441,listing,/86-paranaple-road-big4-kelso-sands-holiday-park-kelso-tas-7270-2015992441,,is-sold,Sold by private treaty 06 May 2020,20200506,86 Paranaple Road BIG4 Kelso Sands Holiday Park,KELSO,TAS,7270,-41.0926781,146.78096,1,1,1,House,House,False,0,m2,False
2016032787,listing,/18-beatty-street-beauty-point-tas-7270-2016032787,330000,is-sold,Sold by private treaty 25 Jun 2020,20200625,18 Beatty Street,BEAUTY POINT,TAS,7270,-41.14821,146.816452,5,2,8,House,House,False,908,m2,False
2016106600,listing,/5-pars-road-greens-beach-tas-7270-2016106600,380000,is-sold,Sold by private treaty 22 May 2020,20200522,5 Pars Road,GREENS BEACH,TAS,7270,-41.0851364,146.738968,2,2,2,House,House,False,0,m2,False
2016122795,listing,/26-scott-street-beauty-point-tas-7270-2016122795,95000,is-sold,Sold by private treaty 08 Jun 2020,20200608,26 Scott Street,BEAUTY POINT,TAS,7270,-41.1497726,146.818222,,,,VacantLand,Vacant land,False,944,m2,False
2016143032,listing,/7-cosgrove-court-beauty-point-tas-7270-2016143032,80000,is-sold,Sold by private treaty 11 May 2020,20200511,7 Cosgrove Court,BEAUTY POINT,TAS,7270,-41.15294,146.819214,,,,VacantLand,Vacant land,False,829,m2,False
2016146604,listing,/4399-west-tamar-highway-beauty-point-tas-7270-2016146604,262000,is-sold,Sold by private treaty 19 Jun 2020,20200619,4399 West Tamar Highway,BEAUTY POINT,TAS,7270,-41.1704636,146.817383,,1,2,VacantLand,Vacant land,False,3393,m2,False
2016165126,listing,/3329-west-tamar-highway-sidmouth-tas-7270-2016165126,275000,is-sold,Sold by private treaty 12 May 2020,20200512,3329 West Tamar Highway,SIDMOUTH,TAS,7270,-41.2407379,146.881119,3,1,1,House,House,False,1475,m2,False
2016182556,listing,/77-foreshore-road-kelso-tas-7270-2016182556,400000,is-sold,Sold by private treaty 02 Jul 2020,20200702,77 Foreshore Road,KELSO,TAS,7270,-41.10027,146.791321,4,1,2,House,House,False,800,m2,False
2016187420,listing,/4-1a-west-arm-road-beauty-point-tas-7270-2016187420,,is-sold,Sold by private treaty 21 May 2020,20200521,4/1a West Arm Road,BEAUTY POINT,TAS,7270,-41.14738,146.81424,2,1,3,ApartmentUnitFlat,Apartment / Unit / Flat,False,0,m2,False
2016208749,listing,/14-20-south-high-street-beaconsfield-tas-7270-2016208749,395000,is-sold,Sold by private treaty 13 Jun 2020,20200613,14-20 South High Street,BEACONSFIELD,TAS,7270,-41.2074738,146.81955,3,2,2,House,House,False,4736,m2,False
2016241767,listing,/86-paranaple-road-kelso-tas-7270-2016241767,,is-sold,Sold by private treaty 10 May 2020,20200510,86 Paranaple Road,KELSO,TAS,7270,-41.0928078,146.781158,2,1,2,House,House,False,0,m2,False
2016245670,listing,/177-weld-street-beaconsfield-tas-7270-2016245670,345000,is-sold,Sold by private treaty 07 May 2020,20200507,177 Weld Street,BEACONSFIELD,TAS,7270,-41.1966248,146.812469,3,2,1,House,House,False,2023,m2,False
2016259063,listing,/86-paranaple-road-kelso-tas-7270-2016259063,,is-sold,Sold by private treaty 18 May 2020,20200518,86 Paranaple Road,KELSO,TAS,7270,-41.0928078,146.781158,1,1,1,House,House,False,0,m2,False
2016265654,listing,/145-oxford-street-beauty-point-tas-7270-2016265654,435000,is-sold,Sold by private treaty 21 May 2020,20200521,145 Oxford Street,BEAUTY POINT,TAS,7270,-41.1534843,146.819626,3,2,2,House,House,False,968,m2,False
2016280962,listing,/3740-west-tamar-hwy-beaconsfield-tas-7270-2016280962,245000,is-sold,Sold by private treaty 10 Jun 2020,20200610,3740 West Tamar Hwy,BEACONSFIELD,TAS,7270,-41.22009,146.8437,3,1,2,House,House,False,1985,m2,False
2016298069,listing,/7-ross-lane-beauty-point-tas-7270-2016298069,265000,is-sold,Sold by private treaty 06 Jun 2020,20200606,7 Ross Lane,BEAUTY POINT,TAS,7270,-41.1548576,146.8212,2,1,5,House,House,False,779,m2,False
2016328119,listing,/542-rowella-road-rowella-tas-7270-2016328119,560000,is-sold,Sold by private treaty 01 Jul 2020,20200701,542 Rowella Road,ROWELLA,TAS,7270,-41.17451,146.90155,3,2,2,House,House,False,66500,m2,False
2014545686,listing,/6-kelso-jetty-road-kelso-tas-7270-2014545686,385000,is-sold,Sold by private treaty 18 Mar 2020,20200318,6 Kelso Jetty Road,KELSO,TAS,7270,-41.1077232,146.79335,3,1,2,House,House,False,2961,m2,False
2014672345,listing,/272-weld-street-beaconsfield-tas-7270-2014672345,,is-sold,Sold by private treaty 28 Mar 2020,20200328,272 Weld Street,BEACONSFIELD,TAS,7270,-41.1862564,146.813919,,,,VacantLand,Vacant land,False,4061,m2,False
2015112281,listing,/8-manion-close-beaconsfield-tas-7270-2015112281,33000,is-sold,Sold by private treaty 17 Apr 2020,20200417,8 Manion Close,BEACONSFIELD,TAS,7270,-41.1953163,146.8098,,,,VacantLand,Vacant land,False,572,m2,False
2015112282,listing,/6-manion-close-beaconsfield-tas-7270-2015112282,38000,is-sold,Sold by private treaty 29 Apr 2020,20200429,6 Manion Close,BEACONSFIELD,TAS,7270,-41.195137,146.809662,,,,VacantLand,Vacant land,False,666,m2,False
2015142106,listing,/980-greens-beach-road-clarence-point-tas-7270-2015142106,150000,is-sold,Sold by private treaty 01 May 2020,20200501,980 Greens Beach Road,CLARENCE POINT,TAS,7270,-41.13216,146.777359,,,,VacantLand,Vacant land,True,18.3,ha,False
2015488328,listing,/34-pars-road-greens-beach-tas-7270-2015488328,108000,is-sold,Sold by private treaty 23 Apr 2020,20200423,34 Pars Road,GREENS BEACH,TAS,7270,-41.0839081,146.736511,,,,VacantLand,Vacant land,False,2198,m2,False
2015511287,listing,/22-rowella-road-sidmouth-tas-7270-2015511287,487000,is-sold,Sold by private treaty 23 Mar 2020,20200323,22 Rowella Road,SIDMOUTH,TAS,7270,-41.217968,146.903549,4,2,2,House,House,True,8.06,ha,False
2015675520,listing,/42-44-shaw-street-beaconsfield-tas-7270-2015675520,170000,is-sold,Sold by private treaty 25 Apr 2020,20200425,42-44 Shaw Street,BEACONSFIELD,TAS,7270,-41.19744,146.81897,2,1,1,House,House,False,2021,m2,False
2015695851,listing,/3-scott-street-beauty-point-tas-7270-2015695851,345000,is-sold,Sold by private treaty 19 Mar 2020,20200319,3 Scott Street,BEAUTY POINT,TAS,7270,-41.1503143,146.820221,4,2,2,House,House,False,821,m2,False
2015992448,listing,/big4-kelso-sands-holiday-park-86-paranaple-road-kelso-tas-7270-2015992448,,is-sold,Sold by private treaty 30 Apr 2020,20200430,"BIG4 Kelso Sands Holiday Park, 86 Paranaple Road",KELSO,TAS,7270,-41.0926781,146.78096,1,1,2,House,House,False,0,m2,False
2016028861,listing,/21-beatty-street-beauty-point-tas-7270-2016028861,,is-sold,Sold by private treaty 17 Mar 2020,20200317,21 Beatty Street,BEAUTY POINT,TAS,7270,-41.14874,146.815964,,,,VacantLand,Vacant land,False,911,m2,False
2016061273,listing,/86-paranaple-road-kelso-tas-7270-2016061273,35000,is-sold,Sold by private treaty 30 Apr 2020,20200430,86 Paranaple Road,KELSO,TAS,7270,-41.0928078,146.781158,2,1,2,House,House,False,0,m2,False
2016071601,listing,/33-kellys-lookout-road-beaconsfield-tas-7270-2016071601,185000,is-sold,Sold by private treaty 20 Apr 2020,20200420,33 Kellys Lookout Road,BEACONSFIELD,TAS,7270,-41.1910973,146.80658,3,1,2,House,House,False,637,m2,False
2016088521,listing,/66-beach-crescent-greens-beach-tas-7270-2016088521,135000,is-sold,Sold by private treaty 09 Apr 2020,20200409,66 Beach Crescent,GREENS BEACH,TAS,7270,-41.0900154,146.749786,,,,VacantLand,Vacant land,False,0,m2,False
2016101660,listing,/93-possum-road-beauty-point-tas-7270-2016101660,95000,is-sold,Sold by private treaty 04 Apr 2020,20200404,93 Possum Road,BEAUTY POINT,TAS,7270,-41.177887,146.812286,,,,VacantLand,Vacant land,False,6200,m2,False
2016127404,listing,/402-badger-head-road-badger-head-tas-7270-2016127404,158000,is-sold,Sold by private treaty 12 Apr 2020,20200412,402 Badger Head Road,BADGER HEAD,TAS,7270,-41.1250229,146.727692,,,,VacantLand,Vacant land,True,4.04,ha,False
2016143256,listing,/2-2-lempriere-avenue-beauty-point-tas-7270-2016143256,280000,is-sold,Sold by private treaty 01 Apr 2020,20200401,2/2 Lempriere Avenue,BEAUTY POINT,TAS,7270,-41.1495,146.8139,2,1,1,ApartmentUnitFlat,Apartment / Unit / Flat,False,430,m2,False
2016147033,listing,/8-ernest-street-beauty-point-tas-7270-2016147033,250000,is-sold,Sold by private treaty 03 Apr 2020,20200403,8 Ernest Street,BEAUTY POINT,TAS,7270,-41.1523056,146.816666,3,1,2,House,House,False,920,m2,False
2016153826,listing,/15-kitchener-avenue-beauty-point-tas-7270-2016153826,120000,is-sold,Sold by private treaty 23 Mar 2020,20200323,15 Kitchener Avenue,BEAUTY POINT,TAS,7270,-41.1459846,146.8161,,,,VacantLand,Vacant land,False,1012,m2,False
2016171404,listing,/48-chisholm-avenue-clarence-point-tas-7270-2016171404,304000,is-sold,Sold by private treaty 09 Apr 2020,20200409,48 Chisholm Avenue,CLARENCE POINT,TAS,7270,-41.1291924,146.803,2,1,6,House,House,False,8093,m2,False
2013235316,listing,/lot-18-inglis-road-clarence-point-tas-7270-2013235316,,is-sold,Sold by private treaty 21 Feb 2020,20200221,Lot 18 Inglis Road,CLARENCE POINT,TAS,7270,-41.1303329,146.805511,,,,VacantLand,Vacant land,False,0,m2,False
2014543790,listing,/147-gardners-road-greens-beach-tas-7270-2014543790,149000,is-sold,Sold by private treaty 14 Feb 2020,20200214,147 Gardners Road,GREENS BEACH,TAS,7270,-41.07858,146.734161,,,,VacantLand,Vacant land,False,789,m2,False
2014640492,listing,/92-sunset-boulevard-clarence-point-tas-7270-2014640492,65000,is-sold,Sold by private treaty 04 Feb 2020,20200204,92 Sunset Boulevard,CLARENCE POINT,TAS,7270,-41.1333961,146.810257,,,,VacantLand,Vacant land,False,837,m2,False
2014903557,listing,/18-ross-beauty-point-tas-7270-2014903557,350000,is-sold,Sold by private treaty 02 Mar 2020,20200302,18 Ross,BEAUTY POINT,TAS,7270,-41.1535339,146.818146,3,1,1,House,House,False,1417,m2,False
2015332583,listing,/1-211-mainwaring-street-beauty-point-tas-7270-2015332583,,is-sold,Sold by private treaty 10 Mar 2020,20200310,1/211 Mainwaring Street,BEAUTY POINT,TAS,7270,-41.147747,146.814209,2,1,2,ApartmentUnitFlat,Apartment / Unit / Flat,False,0,m2,False
2015420593,listing,/37-kellys-lookout-road-beaconsfield-tas-7270-2015420593,185000,is-sold,Sold by private treaty 10 Mar 2020,20200310,37 Kellys Lookout Road,BEACONSFIELD,TAS,7270,-41.1913338,146.806274,3,1,1,House,House,False,840,m2,False
2015429368,listing,/17-ernest-street-beauty-point-tas-7270-2015429368,83500,is-sold,Sold by private treaty 17 Feb 2020,20200217,17 Ernest Street,BEAUTY POINT,TAS,7270,-41.1527176,146.815338,,,,VacantLand,Vacant land,False,971,m2,False
2015498649,listing,/93-weld-street-beaconsfield-tas-7270-2015498649,35000,is-sold,Sold by private treaty 20 Feb 2020,20200220,93 Weld Street,BEACONSFIELD,TAS,7270,-41.204277,146.819031,,,,VacantLand,Vacant land,False,809,m2,False
2015527491,listing,/lot-6-29-foreshore-road-kelso-tas-7270-2015527491,130000,is-sold,Sold by private treaty 03 Mar 2020,20200303,Lot 6 29 Foreshore Road,KELSO,TAS,7270,-41.1041222,146.794373,,,,VacantLand,Vacant land,False,822,m2,False
2015632081,listing,/95-sunset-boulevard-clarence-point-tas-7270-2015632081,,is-sold,Sold by private treaty 04 Feb 2020,20200204,95 Sunset Boulevard,CLARENCE POINT,TAS,7270,-41.1350975,146.81572,3,2,5,House,House,False,1777,m2,False
2015817805,listing,/66-sunset-boulevard-clarence-point-tas-7270-2015817805,375000,is-sold,Sold by private treaty 30 Jan 2020,20200130,66 Sunset Boulevard,CLARENCE POINT,TAS,7270,-41.1317024,146.809357,4,2,3,House,House,False,1012,m2,False
2015892599,listing,/70-beach-crescent-greens-beach-tas-7270-2015892599,437500,is-sold,Sold by private treaty 03 Feb 2020,20200203,70 Beach Crescent,GREENS BEACH,TAS,7270,-41.090023,146.7501,5,3,2,House,House,False,1224,m2,False
