id,listingType,url,price,tagClassName,tagText,date,street,suburb,state,postcode,lat,lng,beds,baths,parking,propertyType,propertyTypeFormatted,isRural,landSize,landUnit,isRetirement
2018248295,listing,/8-nautilus-lane-port-sorell-tas-7307-2018248295,,is-sold,Sold by private treaty 28 Feb 2023,20230228,8 Nautilus Lane,PORT SORELL,TAS,7307,-41.16282,146.5518,4,4,4,House,House,False,1450.0,m2,False
2018334527,listing,/4-beer-street-wesley-vale-tas-7307-2018334527,780000,is-sold,Sold by private treaty 01 Mar 2023,20230301,4 Beer Street,WESLEY VALE,TAS,7307,-41.2019844,146.4184,4,4,4,House,House,True,1.21,ha,False
2018334682,listing,/2-40-wilmot-street-port-sorell-tas-7307-2018334682,275000,is-sold,Sold by private treaty 02 Mar 2023,20230302,2/40 Wilmot Street,PORT SORELL,TAS,7307,-41.1666756,146.553848,2,2,2,ApartmentUnitFlat,Apartment / Unit / Flat,False,149.0,m2,False
2018099267,listing,/384-port-sorell-road-port-sorell-tas-7307-2018099267,,is-sold,Sold by private treaty 03 Mar 2023,20230303,384 Port Sorell Road,PORT SORELL,TAS,7307,-41.18727,146.431427,,,,Rural,Rural,True,40.1,ha,False
2018350201,listing,/8-the-avenue-latrobe-tas-7307-2018350201,319000,is-sold,Sold by private treaty 07 Mar 2023,20230307,8 The Avenue,LATROBE,TAS,7307,-41.2338829,146.424271,3,1,,House,House,False,719,m2,False
2017713852,listing,/2-3-12-14-garnet-place-hawley-beach-tas-7307-2017713852,,is-sold,Sold by private treaty 10 Feb 2023,20230210,2 & 3/12-14 Garnet Place,HAWLEY BEACH,TAS,7307,-41.14807,146.540451,2,2,2,Villa,Villa,False,390,m2,False
2017990823,listing,/125-marana-drive-bakers-beach-tas-7307-2017990823,675000,is-sold,Sold by private treaty 10 Feb 2023,20230210,125 Marana Drive,BAKERS BEACH,TAS,7307,-41.1660767,146.596191,2,2,4,House,House,False,6040,m2,False
2018047041,listing,/114-joyce-street-hawley-beach-tas-7307-2018047041,,is-sold,Sold by private treaty 21 Feb 2023,20230221,114 Joyce Street,HAWLEY BEACH,TAS,7307,-41.1412659,146.540451,4,3,2,House,House,False,852,m2,False
2018055840,listing,/38-hampden-street-latrobe-tas-7307-2018055840,,is-sold,Sold by private treaty 24 Feb 2023,20230224,38 Hampden Street,LATROBE,TAS,7307,-41.2354431,146.416779,4,2,3,House,House,False,736,m2,False
2018140607,listing,/4-diamond-way-hawley-beach-tas-7307-2018140607,250000,is-sold,Sold by private treaty 25 Feb 2023,20230225,4 Diamond Way,HAWLEY BEACH,TAS,7307,-41.1480942,146.540421,,,,VacantLand,Vacant land,False,655,m2,False
2018171399,listing,/50-george-street-latrobe-tas-7307-2018171399,470000,is-sold,Sold by private treaty 10 Feb 2023,20230210,50 George Street,LATROBE,TAS,7307,-41.23768,146.418015,3,1,1,House,House,False,0,m2,False
2018206348,listing,/17-breteeca-close-port-sorell-tas-7307-2018206348,,is-sold,Sold by private treaty 16 Feb 2023,20230216,17 Breteeca Close,PORT SORELL,TAS,7307,-41.165554,146.539139,3,2,2,House,House,False,694,m2,False
2018233981,listing,/50-chardonnay-drive-hawley-beach-tas-7307-2018233981,226000,is-sold,Sold by private treaty 10 Feb 2023,20230210,50 Chardonnay Drive,HAWLEY BEACH,TAS,7307,-41.1450081,146.538116,,,,VacantLand,Vacant land,False,417,m2,False
2018236604,listing,/39-shannon-drive-port-sorell-tas-7307-2018236604,,is-sold,Sold by private treaty 14 Feb 2023,20230214,39 Shannon Drive,PORT SORELL,TAS,7307,-41.1783524,146.561874,4,2,3,House,House,False,4729,m2,False
2018303980,listing,/88-92-wilmot-street-port-sorell-tas-7307-2018303980,,is-sold,Sold by private treaty 17 Feb 2023,20230217,88-92 Wilmot Street,PORT SORELL,TAS,7307,-41.16641,146.5472,3,2,2,House,House,False,3007,m2,False
2018309718,listing,/114-stanley-street-south-latrobe-tas-7307-2018309718,,is-sold,Sold by private treaty 24 Feb 2023,20230224,114 Stanley Street South,LATROBE,TAS,7307,-41.2465858,146.425262,2,1,1,House,House,False,671,m2,False
2018321266,listing,/lot-22-abeys-road-latrobe-tas-7307-2018321266,,is-sold,Sold by private treaty 21 Feb 2023,20230221,Lot 22 Abeys Road,LATROBE,TAS,7307,-41.2435532,146.446655,,,,VacantLand,Vacant land,True,2.19,ha,False
2018326857,listing,/9-walpole-crescent-latrobe-tas-7307-2018326857,,is-sold,Sold by private treaty 24 Feb 2023,20230224,9 Walpole Crescent,LATROBE,TAS,7307,-41.2352142,146.427185,3,1,2,House,House,False,556,m2,False
2018338769,listing,/51-benny-street-latrobe-tas-7307-2018338769,535000,is-sold,Sold by private treaty 23 Feb 2023,20230223,51 Benny Street,LATROBE,TAS,7307,-41.24551,146.422791,3,1,4,House,House,False,1835,m2,False
2018396657,listing,/227-mill-road-wesley-vale-tas-7307-2018396657,1400000,is-sold,Sold by private treaty 02 Mar 2023,20230302,227 Mill Road,WESLEY VALE,TAS,7307,-41.1758347,146.449982,,,,VacantLand,Vacant land,True,34.28,ha,False
2017824890,listing,/7-jade-place-hawley-beach-tas-7307-2017824890,260000,is-sold,Sold by private treaty 24 Jan 2023,20230124,7 Jade Place,HAWLEY BEACH,TAS,7307,-41.1482468,146.540176,,,,VacantLand,Vacant land,False,725,m2,False
2017968531,listing,/lot-5-benny-street-latrobe-tas-7307-2017968531,550000,is-sold,Sold by private treaty 08 Feb 2023,20230208,Lot 5 Benny Street,LATROBE,TAS,7307,-41.245388,146.420471,,,,VacantLand,Vacant land,True,7.28,ha,False
2018036708,listing,/7-lapwing-close-shearwater-tas-7307-2018036708,245000,is-sold,Sold by private treaty 16 Jan 2023,20230116,7 Lapwing Close,SHEARWATER,TAS,7307,-41.1612549,146.533356,,,,VacantLand,Vacant land,False,733,m2,False
2018091246,listing,/21-estuary-views-shearwater-tas-7307-2018091246,605000,is-sold,Sold by private treaty 16 Jan 2023,20230116,21 Estuary Views,SHEARWATER,TAS,7307,-41.15913,146.535629,3,2,1,House,House,False,571,m2,False
2018141413,listing,/10-perrin-court-latrobe-tas-7307-2018141413,630000,is-sold,Sold by private treaty 23 Jan 2023,20230123,10 Perrin Court,LATROBE,TAS,7307,-41.23039,146.4153,3,2,2,House,House,False,1162,m2,False
2018175803,listing,/2-45-stanley-street-latrobe-tas-7307-2018175803,,is-sold,Sold by private treaty 11 Jan 2023,20230111,2/45 Stanley Street,LATROBE,TAS,7307,-41.24039,146.427353,3,1,3,ApartmentUnitFlat,Apartment / Unit / Flat,False,353,m2,False
2018177870,listing,/4-poyston-drive-shearwater-tas-7307-2018177870,,is-sold,Sold by private treaty 27 Jan 2023,20230127,4 Poyston Drive,SHEARWATER,TAS,7307,-41.1610374,146.534943,4,2,2,House,House,False,881,m2,False
2018183682,listing,/12-club-drive-shearwater-tas-7307-2018183682,500000,is-sold,Sold by private treaty 17 Jan 2023,20230117,12 Club Drive,SHEARWATER,TAS,7307,-41.160717,146.5389,3,1,2,House,House,False,693,m2,False
2018202965,listing,/1-66-alexander-street-shearwater-tas-7307-2018202965,330000,is-sold,Sold by private treaty 02 Feb 2023,20230202,1/66 Alexander Street,SHEARWATER,TAS,7307,-41.1560745,146.534546,2,1,1,ApartmentUnitFlat,Apartment / Unit / Flat,False,296,m2,False
2018212914,listing,/3-14-beechwood-close-port-sorell-tas-7307-2018212914,660000,is-sold,Sold by private treaty 10 Feb 2023,20230210,3/14 Beechwood Close,PORT SORELL,TAS,7307,-41.16977,146.534882,4,2,2,House,House,False,1590,m2,False
2018213155,listing,/176-percival-street-latrobe-tas-7307-2018213155,412000,is-sold,Sold by private treaty 12 Jan 2023,20230112,176 Percival Street,LATROBE,TAS,7307,-41.2427139,146.420853,3,1,,House,House,False,703,m2,False
2018215519,listing,/28-1-seahaven-crescent-shearwater-tas-7307-2018215519,,is-sold,Sold by private treaty 27 Jan 2023,20230127,28/1 Seahaven Crescent,SHEARWATER,TAS,7307,-41.159668,146.537064,3,1,2,ApartmentUnitFlat,Apartment / Unit / Flat,False,441,m2,True
2018226615,listing,/1-72-quinlan-crescent-shearwater-tas-7307-2018226615,315000,is-sold,Sold by private treaty 25 Jan 2023,20230125,1/72 Quinlan Crescent,SHEARWATER,TAS,7307,-41.15587,146.5359,2,1,1,ApartmentUnitFlat,Apartment / Unit / Flat,False,350,m2,False
2018235122,listing,/35-freer-street-shearwater-tas-7307-2018235122,,is-sold,Sold by private treaty 20 Jan 2023,20230120,35 Freer Street,SHEARWATER,TAS,7307,-41.1556,146.540085,3,1,,House,House,False,726,m2,False
2018250348,listing,/140-milldam-road-port-sorell-tas-7307-2018250348,,is-sold,Sold by private treaty 07 Feb 2023,20230207,140 Milldam Road,PORT SORELL,TAS,7307,-41.17879,146.558563,4,2,2,House,House,False,6924,m2,False
2018256785,listing,/10-reibey-street-latrobe-tas-7307-2018256785,,is-sold,Sold by private treaty 23 Jan 2023,20230123,10 Reibey Street,LATROBE,TAS,7307,-41.2434464,146.414215,2,1,2,House,House,False,483,m2,False
2018265187,listing,/14-hawley-place-hawley-beach-tas-7307-2018265187,,is-sold,Sold by private treaty 20 Jan 2023,20230120,14 Hawley Place,HAWLEY BEACH,TAS,7307,-41.15169,146.53978,3,2,4,House,House,False,595,m2,False
2018291263,listing,/4-calthorpe-street-latrobe-tas-7307-2018291263,635000,is-sold,Sold by private treaty 08 Feb 2023,20230208,4 Calthorpe Street,LATROBE,TAS,7307,-41.24588,146.4132,3,2,1,House,House,False,721,m2,False
2018321225,listing,/lot-23-abeys-road-latrobe-tas-7307-2018321225,,is-sold,Sold by private treaty 10 Feb 2023,20230210,Lot 23 Abeys Road,LATROBE,TAS,7307,-41.2435532,146.446655,,,,VacantLand,Vacant land,True,2.01,ha,False
2018323334,listing,/6-21-stanley-street-latrobe-tas-7307-2018323334,,is-sold,Sold by private treaty 06 Feb 2023,20230206,6/21 Stanley Street,LATROBE,TAS,7307,-41.23686,146.428757,2,1,1,ApartmentUnitFlat,Apartment / Unit / Flat,False,273,m2,False
2017476642,listing,/5-elliston-drive-latrobe-tas-7307-2017476642,962000,is-sold,Sold by private treaty 05 Dec 2022,20221205,5 Elliston Drive,LATROBE,TAS,7307,-41.24771,146.445175,4,2,,House,House,True,8.4,ha,False
2017713912,listing,/7-garnet-place-hawley-beach-tas-7307-2017713912,250000,is-sold,Sold by private treaty 22 Dec 2022,20221222,7 Garnet Place,HAWLEY BEACH,TAS,7307,-41.1482468,146.540176,,,,VacantLand,Vacant land,False,705,m2,False
2017889023,listing,/209-stanley-street-south-latrobe-tas-7307-2017889023,,is-sold,Sold by private treaty 15 Dec 2022,20221215,209 Stanley Street South,LATROBE,TAS,7307,-41.24638,146.425949,,,,VacantLand,Vacant land,False,780,m2,False
2018029464,listing,/57-shearwater-boulevard-shearwater-tas-7307-2018029464,,is-sold,Sold by private treaty 21 Dec 2022,20221221,57 Shearwater Boulevard,SHEARWATER,TAS,7307,-41.1573029,146.539368,3,2,3,House,House,False,668,m2,False
2018043888,listing,/25-alexander-st-shearwater-tas-7307-2018043888,,is-sold,Sold by private treaty 02 Jan 2023,20230102,25 Alexander St,SHEARWATER,TAS,7307,-41.1527023,146.536224,4,2,4,House,House,False,675,m2,False
2018057306,listing,/20-spring-grove-latrobe-tas-7307-2018057306,595000,is-sold,Sold by private treaty 16 Dec 2022,20221216,20 Spring Grove,LATROBE,TAS,7307,-41.22685,146.4226,3,2,1,House,House,False,735,m2,False
2018088868,listing,/2-61-james-street-latrobe-tas-7307-2018088868,400000,is-sold,Sold by private treaty 20 Dec 2022,20221220,2/61 James Street,LATROBE,TAS,7307,-41.24293,146.413483,2,1,1,ApartmentUnitFlat,Apartment / Unit / Flat,False,173,m2,False
2018109943,listing,/60-fenton-street-latrobe-tas-7307-2018109943,699000,is-sold,Sold by private treaty 06 Dec 2022,20221206,60 Fenton Street,LATROBE,TAS,7307,-41.24201,146.42572,3,2,4,House,House,False,701,m2,False
2018155803,listing,/lot-101-joseph-street-latrobe-tas-7307-2018155803,178000,is-sold,Sold by private treaty 14 Dec 2022,20221214,Lot 101 Joseph Street,LATROBE,TAS,7307,-41.24551,146.422791,,,,VacantLand,Vacant land,False,708,m2,False
2018161104,listing,/17-the-avenue-latrobe-tas-7307-2018161104,565000,is-sold,Sold by private treaty 03 Jan 2023,20230103,17 The Avenue,LATROBE,TAS,7307,-41.23402,146.424744,3,2,1,House,House,False,871,m2,False
2018198613,listing,/-lochner-street-latrobe-tas-7307-2018198613,190000,is-sold,Sold at auction 19 Dec 2022,20221219,. Lochner Street,LATROBE,TAS,7307,-41.2249947,146.4002,,,,AcreageSemiRural,Acreage / Semi-Rural,True,4047,m2,False
2018203819,listing,/-quicksand-road-latrobe-tas-7307-2018203819,50000,is-sold,Sold at auction 19 Dec 2022,20221219,. Quicksand Road,LATROBE,TAS,7307,-41.26602,146.415512,,,,VacantLand,Vacant land,False,0,m2,False
2018216514,listing,/4-pitcairn-street-port-sorell-tas-7307-2018216514,,is-sold,Sold by private treaty 08 Dec 2022,20221208,4 Pitcairn Street,PORT SORELL,TAS,7307,-41.163372,146.550751,4,1,2,House,House,False,892,m2,False
2018219547,listing,/18-twiss-street-latrobe-tas-7307-2018219547,400000,is-sold,Sold by private treaty 22 Dec 2022,20221222,18 Twiss Street,LATROBE,TAS,7307,-41.2328568,146.40564,3,1,2,House,House,False,708,m2,False
2018225797,listing,/2-glyde-street-hawley-beach-tas-7307-2018225797,,is-sold,Sold by private treaty 14 Dec 2022,20221214,2 Glyde Street,HAWLEY BEACH,TAS,7307,-41.14807,146.540451,4,3,3,House,House,False,825,m2,False
2018227932,listing,/1-148-cotton-street-latrobe-tas-7307-2018227932,410000,is-sold,Sold by private treaty 10 Jan 2023,20230110,1/148 Cotton Street,LATROBE,TAS,7307,-41.24016,146.429459,3,1,2,ApartmentUnitFlat,Apartment / Unit / Flat,False,315,m2,False
2018240617,listing,/11-bradshaw-street-latrobe-tas-7307-2018240617,685000,is-sold,Sold by private treaty 22 Dec 2022,20221222,11 Bradshaw Street,LATROBE,TAS,7307,-41.2312126,146.418991,4,2,2,House,House,False,1346,m2,False
2018243461,listing,/36-hampden-street-latrobe-tas-7307-2018243461,445000,is-sold,Sold by private treaty 14 Dec 2022,20221214,36 Hampden Street,LATROBE,TAS,7307,-41.2353935,146.416519,3,1,1,House,House,False,736,m2,False
2018253154,listing,/54-calthorpe-street-latrobe-tas-7307-2018253154,,is-sold,Sold by private treaty 13 Dec 2022,20221213,54 Calthorpe Street,LATROBE,TAS,7307,-41.24606,146.4162,3,2,2,House,House,False,622,m2,False
2018264024,listing,/10-12-anderson-street-port-sorell-tas-7307-2018264024,,is-sold,Sold by private treaty 23 Dec 2022,20221223,10-12 Anderson Street,PORT SORELL,TAS,7307,-41.16178,146.550583,4,2,5,House,House,False,1552,m2,False
2017485914,listing,/40-shannon-drive-port-sorell-tas-7307-2017485914,945000,is-sold,Sold by private treaty 28 Oct 2022,20221028,40 Shannon Drive,PORT SORELL,TAS,7307,-41.17924,146.5626,4,3,8,House,House,False,5064,m2,False
2017916485,listing,/lot-148-36-chardonnay-drive-hawley-beach-tas-7307-2017916485,,is-sold,Sold by private treaty 18 Oct 2022,20221018,Lot 148/36 Chardonnay Drive,HAWLEY BEACH,TAS,7307,-41.1450081,146.538116,,,,VacantLand,Vacant land,False,730,m2,False
2017928480,listing,/lot-165-bushland-grove-hawley-beach-tas-7307-2017928480,260000,is-sold,Sold by private treaty 24 Nov 2022,20221124,Lot 165 Bushland Grove,HAWLEY BEACH,TAS,7307,-41.1480865,146.540451,,,,VacantLand,Vacant land,False,945,m2,False
2017962129,listing,/lot-33-8-mason-place-shearwater-tas-7307-2017962129,,is-sold,Sold by private treaty 08 Nov 2022,20221108,Lot 33/8 Mason Place,SHEARWATER,TAS,7307,-41.1611824,146.533737,,,,VacantLand,Vacant land,False,464,m2,False
2017979291,listing,/19-spring-grove-latrobe-tas-7307-2017979291,490000,is-sold,Sold by private treaty 21 Oct 2022,20221021,19 Spring Grove,LATROBE,TAS,7307,-41.2277679,146.422684,3,1,3,House,House,False,838,m2,False
2018045802,listing,/4-paulownia-street-latrobe-tas-7307-2018045802,565500,is-sold,Sold by private treaty 07 Nov 2022,20221107,4 Paulownia Street,LATROBE,TAS,7307,-41.24205,146.428757,3,2,2,House,House,False,453,m2,False
2018058269,listing,/112-wilmot-street-port-sorell-tas-7307-2018058269,,is-sold,Sold by private treaty 02 Dec 2022,20221202,112 Wilmot Street,PORT SORELL,TAS,7307,-41.16683,146.544388,2,1,1,House,House,False,1006,m2,False
2018088630,listing,/2-18-tranquil-place-shearwater-tas-7307-2018088630,560000,is-sold,Sold by private treaty 29 Nov 2022,20221129,2/18 Tranquil Place,SHEARWATER,TAS,7307,-41.1612053,146.537216,3,2,1,Villa,Villa,False,396,m2,False
2018089902,listing,/176-milldam-road-port-sorell-tas-7307-2018089902,665000,is-sold,Sold by private treaty 19 Oct 2022,20221019,176 Milldam Road,PORT SORELL,TAS,7307,-41.17591,146.559418,3,2,2,House,House,False,4729,m2,False
2018095855,listing,/29-earl-grove-latrobe-tas-7307-2018095855,,is-sold,Sold by private treaty 21 Oct 2022,20221021,29 Earl Grove,LATROBE,TAS,7307,-41.2398529,146.431213,3,2,,House,House,False,693,m2,False
2018098479,listing,/27-arnold-drive-port-sorell-tas-7307-2018098479,,is-sold,Sold by private treaty 22 Nov 2022,20221122,27 Arnold Drive,PORT SORELL,TAS,7307,-41.17065,146.530685,4,2,2,House,House,True,1.17,ha,False
2018109090,listing,/13-marana-drive-bakers-beach-tas-7307-2018109090,550000,is-sold,Sold by private treaty 23 Nov 2022,20221123,13 Marana Drive,BAKERS BEACH,TAS,7307,-41.1662865,146.607071,2,2,2,House,House,False,7287,m2,False
2018109221,listing,/14-topaz-place-hawley-beach-tas-7307-2018109221,315000,is-sold,Sold by private treaty 30 Nov 2022,20221130,14 Topaz Place,HAWLEY BEACH,TAS,7307,-41.1482468,146.540176,,,,VacantLand,Vacant land,False,850,m2,False
2018121066,listing,/2-4-maple-street-latrobe-tas-7307-2018121066,,is-sold,Sold by private treaty 30 Nov 2022,20221130,2/4 Maple Street,LATROBE,TAS,7307,-41.24111,146.4278,2,1,1,ApartmentUnitFlat,Apartment / Unit / Flat,False,0,m2,False
2018125192,listing,/2-151-percival-street-latrobe-tas-7307-2018125192,440000,is-sold,Sold by private treaty 18 Nov 2022,20221118,2/151 Percival Street,LATROBE,TAS,7307,-41.240593,146.422,2,1,1,ApartmentUnitFlat,Apartment / Unit / Flat,False,455,m2,False
2018126063,listing,/1-scully-street-latrobe-tas-7307-2018126063,,is-sold,Sold by private treaty 21 Oct 2022,20221021,1 Scully Street,LATROBE,TAS,7307,-41.2419853,146.425,2,2,1,ApartmentUnitFlat,Apartment / Unit / Flat,False,338,m2,False
2018144798,listing,/3-25-27-bluewater-crescent-shearwater-tas-7307-2018144798,,is-sold,Sold by private treaty 25 Oct 2022,20221025,3/25-27 Bluewater Crescent,SHEARWATER,TAS,7307,-41.15353,146.539963,2,1,1,ApartmentUnitFlat,Apartment / Unit / Flat,False,163,m2,False
2018148589,listing,/99-joyce-street-hawley-beach-tas-7307-2018148589,705000,is-sold,Sold by private treaty 03 Nov 2022,20221103,99 Joyce Street,HAWLEY BEACH,TAS,7307,-41.14076,146.540146,3,2,2,House,House,False,573,m2,False
2018155063,listing,/16-mountain-view-rise-latrobe-tas-7307-2018155063,545000,is-sold,Sold by private treaty 08 Nov 2022,20221108,16 Mountain View Rise,LATROBE,TAS,7307,-41.22738,146.426147,3,1,1,House,House,False,670,m2,False
2018209536,listing,/1-201-last-street-latrobe-tas-7307-2018209536,330000,is-sold,Sold by private treaty 23 Nov 2022,20221123,1/201 Last Street,LATROBE,TAS,7307,-41.23592,146.429413,2,1,1,ApartmentUnitFlat,Apartment / Unit / Flat,False,276,m2,False
2017586043,listing,/24-bundarra-drive-squeaking-point-tas-7307-2017586043,1050000,is-sold,Sold by private treaty 06 Oct 2022,20221006,24 Bundarra Drive,SQUEAKING POINT,TAS,7307,-41.1906128,146.545013,4,2,4,House,House,True,2.71,ha,False
2017670436,listing,/7-herbert-place-port-sorell-tas-7307-2017670436,920000,is-sold,Sold by private treaty 02 Sep 2022,20220902,7 Herbert Place,PORT SORELL,TAS,7307,-41.17179,146.524918,4,2,2,House,House,True,1.04,ha,False
2017717411,listing,/5-forth-street-latrobe-tas-7307-2017717411,425000,is-sold,Sold by private treaty 11 Oct 2022,20221011,5 Forth Street,LATROBE,TAS,7307,-41.23258,146.419891,3,1,1,House,House,False,671,m2,False
2017795896,listing,/10-phillips-court-latrobe-tas-7307-2017795896,605555,is-sold,Sold by private treaty 05 Sep 2022,20220905,10 Phillips Court,LATROBE,TAS,7307,-41.23612,146.429642,3,2,2,House,House,False,0,m2,False
2017804535,listing,/11-bundarra-drive-squeaking-point-tas-7307-2017804535,,is-sold,Sold by private treaty 28 Sep 2022,20220928,11 Bundarra Drive,SQUEAKING POINT,TAS,7307,-41.18928,146.54686,2,1,5,House,House,False,8522,m2,False
2017871273,listing,/66-joyce-street-hawley-beach-tas-7307-2017871273,785000,is-sold,Sold by private treaty 05 Sep 2022,20220905,66 Joyce Street,HAWLEY BEACH,TAS,7307,-41.14521,146.540009,3,4,3,House,House,False,0,m2,False
2017900694,listing,/37-hamilton-street-latrobe-tas-7307-2017900694,500000,is-sold,Sold by private treaty 26 Sep 2022,20220926,37 Hamilton Street,LATROBE,TAS,7307,-41.23971,146.413208,3,1,,House,House,False,747,m2,False
2017906330,listing,/34-gerrand-street-latrobe-tas-7307-2017906330,725000,is-sold,Sold by private treaty 20 Sep 2022,20220920,34 Gerrand Street,LATROBE,TAS,7307,-41.2425079,146.422379,4,2,3,House,House,False,776,m2,False
2017924200,listing,/40-jefkins-drive-port-sorell-tas-7307-2017924200,975000,is-sold,Sold by private treaty 23 Sep 2022,20220923,40 Jefkins Drive,PORT SORELL,TAS,7307,-41.18109,146.559784,3,2,4,House,House,False,7844,m2,False
2017953040,listing,/24-calthorpe-street-latrobe-tas-7307-2017953040,708000,is-sold,Sold by private treaty 12 Sep 2022,20220912,24 Calthorpe Street,LATROBE,TAS,7307,-41.24606,146.4162,3,2,4,House,House,False,620,m2,False
2018005378,listing,/6-herbert-place-port-sorell-tas-7307-2018005378,727000,is-sold,Sold by private treaty 05 Oct 2022,20221005,6 Herbert Place,PORT SORELL,TAS,7307,-41.170887,146.525787,2,2,1,House,House,True,1.01,ha,False
2018016094,listing,/1-69-stanley-street-latrobe-tas-7307-2018016094,445000,is-sold,Sold by private treaty 05 Oct 2022,20221005,1/69 Stanley Street,LATROBE,TAS,7307,-41.2430153,146.426376,3,1,3,ApartmentUnitFlat,Apartment / Unit / Flat,False,249,m2,False
2018032772,listing,/177-last-street-latrobe-tas-7307-2018032772,,is-sold,Sold by private treaty 14 Sep 2022,20220914,177 Last Street,LATROBE,TAS,7307,-41.23539,146.4259,3,1,2,House,House,False,991,m2,False
2018040912,listing,/28-calthorpe-street-latrobe-tas-7307-2018040912,635000,is-sold,Sold by private treaty 18 Oct 2022,20221018,28 Calthorpe Street,LATROBE,TAS,7307,-41.24606,146.4162,3,2,2,House,House,False,703,m2,False
2018048182,listing,/15-moriarty-road-latrobe-tas-7307-2018048182,520000,is-sold,Sold by private treaty 19 Sep 2022,20220919,15 Moriarty Road,LATROBE,TAS,7307,-41.233387,146.4196,3,2,1,House,House,False,624,m2,False
2018079004,listing,/28-robert-street-latrobe-tas-7307-2018079004,665000,is-sold,Sold by private treaty 26 Sep 2022,20220926,28 Robert Street,LATROBE,TAS,7307,-41.2420845,146.429016,4,2,3,House,House,False,737,m2,False
2018092332,listing,/2-138-cotton-street-latrobe-tas-7307-2018092332,470000,is-sold,Sold by private treaty 07 Sep 2022,20220907,2/138 Cotton Street,LATROBE,TAS,7307,-41.2399,146.427612,2,2,2,ApartmentUnitFlat,Apartment / Unit / Flat,False,0,m2,False
2018110412,listing,/1-arthur-court-shearwater-tas-7307-2018110412,340000,is-sold,Sold by private treaty 11 Oct 2022,20221011,1 Arthur Court,SHEARWATER,TAS,7307,-41.15255,146.533722,,,,VacantLand,Vacant land,False,727,m2,False
2018112286,listing,/104-joyce-street-hawley-beach-tas-7307-2018112286,690000,is-sold,Sold by private treaty 14 Oct 2022,20221014,104 Joyce Street,HAWLEY BEACH,TAS,7307,-41.1426,146.5401,3,2,2,House,House,False,709,m2,False
2018124463,listing,/1-9-callista-court-port-sorell-tas-7307-2018124463,410000,is-sold,Sold by private treaty 18 Oct 2022,20221018,1/9 Callista Court,PORT SORELL,TAS,7307,-41.1674461,146.5402,2,1,1,ApartmentUnitFlat,Apartment / Unit / Flat,False,251,m2,False
2016236951,listing,/stages-5-mill-park-squeaking-point-tas-7307-2016236951,,is-sold,Sold by private treaty 17 Aug 2022,20220817,"Stages 5, Mill Park",SQUEAKING POINT,TAS,7307,-41.19107,146.556122,,,,VacantLand,Vacant land,False,0,m2,False
2017525409,listing,/133-skelbrook-lane-sassafras-tas-7307-2017525409,840000,is-sold,Sold by private treaty 13 Aug 2022,20220813,133 Skelbrook Lane,SASSAFRAS,TAS,7307,-41.29178,146.520935,4,2,2,House,House,False,7537,m2,False
2017622375,listing,/32-bluewater-crescent-shearwater-tas-7307-2017622375,1185000,is-sold,Sold by private treaty 02 Sep 2022,20220902,32 Bluewater Crescent,SHEARWATER,TAS,7307,-41.1546173,146.540024,3,2,2,House,House,False,770,m2,False
2017748975,listing,/lot-1-wesley-vale-road-wesley-vale-tas-7307-2017748975,,is-sold,Sold by private treaty 26 Aug 2022,20220826,Lot 1 Wesley Vale Road,WESLEY VALE,TAS,7307,-41.1911278,146.455872,,,,VacantLand,Vacant land,True,1.09,ha,False
2017829707,listing,/50-quinlan-crescent-shearwater-tas-7307-2017829707,565000,is-sold,Sold by private treaty 17 Aug 2022,20220817,50 Quinlan Crescent,SHEARWATER,TAS,7307,-41.1569,146.537567,4,2,1,House,House,False,670,m2,False
2017855339,listing,/7-hawley-place-hawley-beach-tas-7307-2017855339,720000,is-sold,Sold by private treaty 28 Aug 2022,20220828,7 Hawley Place,HAWLEY BEACH,TAS,7307,-41.15197,146.539078,4,2,1,House,House,False,594,m2,False
2017891338,listing,/18-cherry-grove-latrobe-tas-7307-2017891338,690000,is-sold,Sold by private treaty 23 Aug 2022,20220823,18 Cherry Grove,LATROBE,TAS,7307,-41.2389,146.432617,5,2,4,House,House,False,928,m2,False
2017898592,listing,/129-chardonnay-drive-hawley-beach-tas-7307-2017898592,,is-sold,Sold by private treaty 23 Aug 2022,20220823,129 Chardonnay Drive,HAWLEY BEACH,TAS,7307,-41.1441269,146.539063,,,,VacantLand,Vacant land,False,684,m2,False
2017922697,listing,/3-1-3-palmers-road-latrobe-tas-7307-2017922697,280018,is-sold,Sold by private treaty 31 Aug 2022,20220831,3/1-3 Palmers Road,LATROBE,TAS,7307,-41.22895,146.424744,3,1,1,Villa,Villa,False,324,m2,False
2017937519,listing,/2a-haven-drive-shearwater-tas-7307-2017937519,,is-sold,Sold by private treaty 23 Aug 2022,20220823,2A Haven Drive,SHEARWATER,TAS,7307,-41.1604538,146.535492,2,2,2,Townhouse,Townhouse,False,332,m2,False
2017937972,listing,/194-beer-street-wesley-vale-tas-7307-2017937972,741783,is-sold,Sold by private treaty 17 Aug 2022,20220817,194 Beer Street,WESLEY VALE,TAS,7307,-41.18716,146.416229,4,2,2,House,House,True,2.04,ha,False
2017938588,listing,/1-inlet-court-shearwater-tas-7307-2017938588,740000,is-sold,Sold by private treaty 30 Aug 2022,20220830,1 Inlet Court,SHEARWATER,TAS,7307,-41.1590233,146.536224,4,2,2,House,House,False,625,m2,False
2017952903,listing,/85-shannon-drive-port-sorell-tas-7307-2017952903,1100000,is-sold,Sold by private treaty 15 Aug 2022,20220815,85 Shannon Drive,PORT SORELL,TAS,7307,-41.17893,146.567734,5,3,6,House,House,False,6657,m2,False
2017965687,listing,/49-lewis-street-latrobe-tas-7307-2017965687,420000,is-sold,Sold by private treaty 29 Aug 2022,20220829,49 Lewis Street,LATROBE,TAS,7307,-41.24162,146.415146,3,1,4,House,House,False,867,m2,False
2017977067,listing,/1-2-2-diamond-way-hawley-beach-tas-7307-2017977067,629000,is-sold,Sold by private treaty 19 Aug 2022,20220819,1 & 2/2 Diamond Way,HAWLEY BEACH,TAS,7307,-41.1482468,146.540176,3,2,,House,House,False,0,m2,False
2017977992,listing,/35-archer-street-port-sorell-tas-7307-2017977992,523400,is-sold,Sold by private treaty 17 Aug 2022,20220817,35 Archer Street,PORT SORELL,TAS,7307,-41.1693344,146.556366,3,2,4,House,House,False,713,m2,False
2017979278,listing,/39-cotton-street-latrobe-tas-7307-2017979278,532000,is-sold,Sold by private treaty 16 Aug 2022,20220816,39 Cotton Street,LATROBE,TAS,7307,-41.23823,146.417664,4,2,2,House,House,False,722,m2,False
2018008716,listing,/13-cornelius-road-sassafras-tas-7307-2018008716,515000,is-sold,Sold by private treaty 27 Aug 2022,20220827,13 Cornelius Road,SASSAFRAS,TAS,7307,-41.2851524,146.492783,3,1,5,House,House,False,1026,m2,False
2018095526,listing,/lot-7-bakers-beach-road-bakers-beach-tas-7307-2018095526,,is-sold,Sold by private treaty 12 Aug 2022,20220812,Lot 7 Bakers Beach Road,BAKERS BEACH,TAS,7307,-41.1905746,146.608612,,,,VacantLand,Vacant land,True,21.57,ha,False
2018227462,listing,/49-lewis-street-latrobe-tas-7307-2018227462,420000,is-sold,Sold by private treaty 29 Aug 2022,20220829,49 Lewis Street,LATROBE,TAS,7307,-41.24162,146.415146,3,1,4,House,House,False,867,m2,False
2017617294,listing,/bakers-beach-harford-tas-7307-2017617294,,is-sold,Sold by private treaty 30 Jun 2022,20220630,Bakers Beach,HARFORD,TAS,7307,-41.2288,146.612839,,,,VacantLand,Vacant land,True,40.14,ha,False
2017733871,listing,/lot-4-jefkins-drive-port-sorell-tas-7307-2017733871,,is-sold,Sold by private treaty 22 Jul 2022,20220722,Lot 4 Jefkins Drive,PORT SORELL,TAS,7307,-41.18142,146.557266,,,,VacantLand,Vacant land,False,5718,m2,False
2017744180,listing,/136-cotton-street-latrobe-tas-7307-2017744180,630000,is-sold,Sold by private treaty 11 Aug 2022,20220811,136 Cotton Street,LATROBE,TAS,7307,-41.2399,146.427612,4,2,2,House,House,False,1000,m2,False
2017795604,listing,/1-lucinda-court-latrobe-tas-7307-2017795604,542500,is-sold,Sold by private treaty 01 Jul 2022,20220701,1 Lucinda Court,LATROBE,TAS,7307,-41.2323341,146.416061,3,1,2,House,House,False,739,m2,False
2017796744,listing,/194-gilbert-street-latrobe-tas-7307-2017796744,405000,is-sold,Sold by private treaty 15 Jul 2022,20220715,194 Gilbert Street,LATROBE,TAS,7307,-41.2365952,146.417587,2,1,,House,House,False,370,m2,False
2017820452,listing,/74-hamilton-street-latrobe-tas-7307-2017820452,400000,is-sold,Sold by private treaty 18 Jul 2022,20220718,74 Hamilton Street,LATROBE,TAS,7307,-41.2439346,146.4123,3,2,1,House,House,False,809,m2,False
2017840483,listing,/13-glyde-street-hawley-beach-tas-7307-2017840483,300000,is-sold,Sold by private treaty 29 Jun 2022,20220629,13 Glyde Street,HAWLEY BEACH,TAS,7307,-41.1480942,146.540421,,,,VacantLand,Vacant land,False,684,m2,False
2017841153,listing,/221-moriarty-road-latrobe-tas-7307-2017841153,831100,is-sold,Sold by private treaty 20 Jul 2022,20220720,221 Moriarty Road,LATROBE,TAS,7307,-41.22719,146.440857,3,1,4,House,House,True,2.34,ha,False
2017849863,listing,/3-franklin-drive-shearwater-tas-7307-2017849863,940000,is-sold,Sold by private treaty 14 Jul 2022,20220714,3 Franklin Drive,SHEARWATER,TAS,7307,-41.1567039,146.53241,4,2,2,House,House,False,773,m2,False
2017850177,listing,/4-banksia-rise-shearwater-tas-7307-2017850177,845000,is-sold,Sold by private treaty 20 Jul 2022,20220720,4 Banksia Rise,SHEARWATER,TAS,7307,-41.1538277,146.534653,4,2,4,House,House,False,727,m2,False
2017859415,listing,/39-laura-street-latrobe-tas-7307-2017859415,410000,is-sold,Sold by private treaty 18 Jul 2022,20220718,39 Laura Street,LATROBE,TAS,7307,-41.24213,146.417725,3,1,1,House,House,False,880,m2,False
2017870592,listing,/9-ayrshire-avenue-latrobe-tas-7307-2017870592,727000,is-sold,Sold by private treaty 13 Jul 2022,20220713,9 Ayrshire Avenue,LATROBE,TAS,7307,-41.2452354,146.4164,3,2,2,House,House,False,649,m2,False
2017894561,listing,/1-william-street-latrobe-tas-7307-2017894561,432000,is-sold,Sold by private treaty 26 Jul 2022,20220726,1 William Street,LATROBE,TAS,7307,-41.23514,146.415421,2,1,1,House,House,False,283,m2,False
2017896542,listing,/54-shaw-street-latrobe-tas-7307-2017896542,,is-sold,Sold by private treaty 22 Jul 2022,20220722,54 Shaw Street,LATROBE,TAS,7307,-41.23247,146.44249,4,3,3,House,House,False,9864,m2,False
2017900693,listing,/1-200-last-street-latrobe-tas-7307-2017900693,335000,is-sold,Sold by private treaty 27 Jul 2022,20220727,1/200 Last Street,LATROBE,TAS,7307,-41.236248,146.429337,2,1,1,ApartmentUnitFlat,Apartment / Unit / Flat,False,276,m2,False
2017938659,listing,/9-pitcairn-street-port-sorell-tas-7307-2017938659,480000,is-sold,Sold by private treaty 29 Jul 2022,20220729,9 Pitcairn Street,PORT SORELL,TAS,7307,-41.1639633,146.5512,3,2,4,House,House,False,1020,m2,False
2017943642,listing,/1-12-links-court-shearwater-tas-7307-2017943642,405000,is-sold,Sold by private treaty 21 Jul 2022,20220721,1/12 Links Court,SHEARWATER,TAS,7307,-41.16369,146.540588,2,1,1,Villa,Villa,False,307,m2,False
2017956971,listing,/23-1-seahaven-crescent-shearwater-tas-7307-2017956971,305000,is-sold,Sold by private treaty 04 Aug 2022,20220804,23/1 Seahaven Crescent,SHEARWATER,TAS,7307,-41.1591454,146.537689,2,1,1,ApartmentUnitFlat,Apartment / Unit / Flat,False,321,m2,True
2017961508,listing,/11-new-street-latrobe-tas-7307-2017961508,341796,is-sold,Sold by private treaty 02 Aug 2022,20220802,11 New Street,LATROBE,TAS,7307,-41.23367,146.420914,3,1,,House,House,False,673,m2,False
2018050759,listing,/9-pitcairn-street-port-sorell-tas-7307-2018050759,480000,is-sold,Sold by private treaty 29 Jul 2022,20220729,9 Pitcairn Street,PORT SORELL,TAS,7307,-41.1639633,146.5512,3,2,4,House,House,False,1020,m2,False
2017435503,listing,/5-22-alberta-street-latrobe-tas-7307-2017435503,422000,is-sold,Sold by private treaty 20 May 2022,20220520,5/22 Alberta Street,LATROBE,TAS,7307,-41.24024,146.420578,2,2,1,ApartmentUnitFlat,Apartment / Unit / Flat,False,0,m2,False
2017544391,listing,/54-calthorpe-street-latrobe-tas-7307-2017544391,,is-sold,Sold by private treaty 24 Jun 2022,20220624,54 Calthorpe Street,LATROBE,TAS,7307,-41.24606,146.4162,3,2,2,House,House,False,622,m2,False
2017578497,listing,/19-gilbert-street-latrobe-tas-7307-2017578497,375000,is-sold,Sold by private treaty 25 Jun 2022,20220625,19 Gilbert Street,LATROBE,TAS,7307,-41.23446,146.405182,3,2,1,House,House,False,790,m2,False
2017594085,listing,/1-20-alberta-street-latrobe-tas-7307-2017594085,385000,is-sold,Sold by private treaty 20 May 2022,20220520,1/20 Alberta Street,LATROBE,TAS,7307,-41.2401581,146.4202,3,1,,ApartmentUnitFlat,Apartment / Unit / Flat,False,300,m2,False
2017628282,listing,/2-6-meredith-street-port-sorell-tas-7307-2017628282,420000,is-sold,Sold by private treaty 01 Jun 2022,20220601,2/6 Meredith Street,PORT SORELL,TAS,7307,-41.1645241,146.551041,2,1,1,ApartmentUnitFlat,Apartment / Unit / Flat,False,0,m2,False
2017644842,listing,/13-palmers-road-latrobe-tas-7307-2017644842,420800,is-sold,Sold by private treaty 17 Jun 2022,20220617,13 Palmers Road,LATROBE,TAS,7307,-41.228096,146.424942,2,1,4,House,House,False,684,m2,False
2017670611,listing,/62a-milldam-road-squeaking-point-tas-7307-2017670611,850000,is-sold,Sold by private treaty 28 Jun 2022,20220628,62a Milldam Road,SQUEAKING POINT,TAS,7307,-41.18457,146.55835,5,2,4,House,House,True,6.22,ha,False
2017671008,listing,/13-lucinda-court-latrobe-tas-7307-2017671008,655000,is-sold,Sold by private treaty 31 May 2022,20220531,13 Lucinda Court,LATROBE,TAS,7307,-41.2328873,146.416656,4,2,2,House,House,False,1095,m2,False
2017671312,listing,/33-hawkins-street-latrobe-tas-7307-2017671312,700000,is-sold,Sold by private treaty 07 Jun 2022,20220607,33 Hawkins Street,LATROBE,TAS,7307,-41.22938,146.416489,4,2,2,House,House,False,8700,m2,False
2017757117,listing,/1-134-136-shearwater-boulevard-shearwater-tas-7307-2017757117,582000,is-sold,Sold by private treaty 23 Jun 2022,20220623,1/134-136 Shearwater Boulevard,SHEARWATER,TAS,7307,-41.151535,146.537109,3,2,2,ApartmentUnitFlat,Apartment / Unit / Flat,False,332,m2,False
2017758251,listing,/98-moorings-drive-squeaking-point-tas-7307-2017758251,1300000,is-sold,Sold by private treaty 29 Jun 2022,20220629,98 Moorings Drive,SQUEAKING POINT,TAS,7307,-41.19043,146.557434,4,3,2,House,House,False,6449,m2,False
2017775337,listing,/27-spring-grove-latrobe-tas-7307-2017775337,560000,is-sold,Sold by private treaty 23 Jun 2022,20220623,27 Spring Grove,LATROBE,TAS,7307,-41.2272644,146.422058,3,2,1,House,House,False,966,m2,False
2017784299,listing,/15-woodland-rise-northdown-tas-7307-2017784299,,is-sold,Sold by private treaty 09 Jun 2022,20220609,15 Woodland Rise,NORTHDOWN,TAS,7307,-41.17036,146.513184,,,,VacantLand,Vacant land,True,1.12,ha,False
2017800499,listing,/1-5-chablis-court-latrobe-tas-7307-2017800499,,is-sold,Sold by private treaty 28 Jun 2022,20220628,1/5 Chablis Court,LATROBE,TAS,7307,-41.24336,146.418869,2,1,1,ApartmentUnitFlat,Apartment / Unit / Flat,False,268,m2,False
2017821912,listing,/8-torquay-road-latrobe-tas-7307-2017821912,1825000,is-sold,Sold by private treaty 03 Jun 2022,20220603,8 Torquay Road,LATROBE,TAS,7307,-41.2297478,146.420181,3,2,3,House,House,True,2.44,ha,False
2017824891,listing,/169-bushland-grove-hawley-beach-tas-7307-2017824891,295000,is-sold,Sold by private treaty 24 Jun 2022,20220624,169 Bushland Grove,HAWLEY BEACH,TAS,7307,-41.1482468,146.540176,,,,VacantLand,Vacant land,False,945,m2,False
2017839420,listing,/110-panatana-drive-port-sorell-tas-7307-2017839420,845000,is-sold,Sold by private treaty 28 Jun 2022,20220628,110 Panatana Drive,PORT SORELL,TAS,7307,-41.1738625,146.550949,3,2,3,AcreageSemiRural,Acreage / Semi-Rural,True,1.06,ha,False
2017858036,listing,/3-paulownia-street-latrobe-tas-7307-2017858036,715000,is-sold,Sold by private treaty 23 Jun 2022,20220623,3 Paulownia Street,LATROBE,TAS,7307,-41.24205,146.428757,3,2,4,House,House,False,727,m2,False
2017888225,listing,/1-138-cotton-street-latrobe-tas-7307-2017888225,,is-sold,Sold by private treaty 16 Jun 2022,20220616,1/138 Cotton Street,LATROBE,TAS,7307,-41.2399,146.427612,2,2,2,ApartmentUnitFlat,Apartment / Unit / Flat,False,0,m2,False
2018227460,listing,/1-138-cotton-street-latrobe-tas-7307-2018227460,,is-sold,Sold by private treaty 16 Jun 2022,20220616,1/138 Cotton Street,LATROBE,TAS,7307,-41.2399,146.427612,2,2,2,ApartmentUnitFlat,Apartment / Unit / Flat,False,0,m2,False
2017375023,listing,/30-rubicon-rise-northdown-tas-7307-2017375023,258000,is-sold,Sold by private treaty 17 May 2022,20220517,30 Rubicon Rise,NORTHDOWN,TAS,7307,-41.17283,146.512558,,,,VacantLand,Vacant land,False,6951,m2,False
2017444628,listing,/99-wesley-vale-road-wesley-vale-tas-7307-2017444628,646000,is-sold,Sold by private treaty 20 Apr 2022,20220420,99 Wesley Vale Road,WESLEY VALE,TAS,7307,-41.19965,146.455246,4,1,2,House,House,False,5015,m2,False
2017547149,listing,/2-87a-gilbert-street-latrobe-tas-7307-2017547149,450000,is-sold,Sold by private treaty 06 May 2022,20220506,2/87A Gilbert Street,LATROBE,TAS,7307,-41.2348,146.410156,2,1,1,ApartmentUnitFlat,Apartment / Unit / Flat,False,0,m2,False
2017586196,listing,/3-cowrie-court-port-sorell-tas-7307-2017586196,222000,is-sold,Sold by private treaty 12 Apr 2022,20220412,3 Cowrie Court,PORT SORELL,TAS,7307,-41.1684341,146.5406,,,,VacantLand,Vacant land,False,724,m2,False
2017606268,listing,/67-moriarty-road-latrobe-tas-7307-2017606268,450000,is-sold,Sold by private treaty 12 Apr 2022,20220412,67 Moriarty Road,LATROBE,TAS,7307,-41.2292061,146.426041,3,1,3,House,House,False,1129,m2,False
2017622634,listing,/1-6-felina-way-port-sorell-tas-7307-2017622634,485000,is-sold,Sold by private treaty 05 May 2022,20220505,1/6 Felina Way,PORT SORELL,TAS,7307,-41.1682358,146.541412,3,2,2,Villa,Villa,False,362,m2,False
2017622850,listing,/83-hamilton-street-latrobe-tas-7307-2017622850,710000,is-sold,Sold by private treaty 03 May 2022,20220503,83 Hamilton Street,LATROBE,TAS,7307,-41.2450027,146.4127,3,2,5,House,House,False,800,m2,False
2017623633,listing,/96-shannon-drive-port-sorell-tas-7307-2017623633,880000,is-sold,Sold by private treaty 29 Apr 2022,20220429,96 Shannon Drive,PORT SORELL,TAS,7307,-41.1799965,146.5661,3,2,3,House,House,False,8126,m2,False
2017633219,listing,/37-gerrand-street-latrobe-tas-7307-2017633219,450000,is-sold,Sold by private treaty 14 Apr 2022,20220414,37 Gerrand Street,LATROBE,TAS,7307,-41.2425079,146.422379,3,1,2,House,House,False,677,m2,False
2017639447,listing,/7-22-alberta-street-latrobe-tas-7307-2017639447,450000,is-sold,Sold by private treaty 26 Apr 2022,20220426,7/22 Alberta Street,LATROBE,TAS,7307,-41.2402077,146.4205,3,1,1,House,House,False,589,m2,False
2017654616,listing,/12-ponsonby-court-port-sorell-tas-7307-2017654616,,is-sold,Sold by private treaty 17 May 2022,20220517,12 Ponsonby Court,PORT SORELL,TAS,7307,-41.16737,146.550751,4,3,3,House,House,False,780,m2,False
2017658071,listing,/12-opal-mews-hawley-beach-tas-7307-2017658071,252000,is-sold,Sold by private treaty 11 Apr 2022,20220411,12 Opal Mews,HAWLEY BEACH,TAS,7307,-41.1371155,146.536667,,,,VacantLand,Vacant land,False,548,m2,False
2017663782,listing,/31-hampden-street-latrobe-tas-7307-2017663782,487000,is-sold,Sold by private treaty 12 Apr 2022,20220412,31 Hampden Street,LATROBE,TAS,7307,-41.23499,146.416077,2,1,1,House,House,False,974,m2,False
2017684696,listing,/5-diamond-way-hawley-beach-tas-7307-2017684696,261000,is-sold,Sold by private treaty 11 Apr 2022,20220411,5 Diamond Way,HAWLEY BEACH,TAS,7307,-41.1480942,146.540421,,,,VacantLand,Vacant land,False,678,m2,False
2017690129,listing,/11-stanley-street-latrobe-tas-7307-2017690129,385000,is-sold,Sold by private treaty 29 Apr 2022,20220429,11 Stanley Street,LATROBE,TAS,7307,-41.23548,146.428543,4,1,3,House,House,False,740,m2,False
2017726526,listing,/shearwater-tas-7307-2017726526,355000,is-sold,Sold by private treaty 10 May 2022,20220510,,SHEARWATER,TAS,7307,-41.1532059,146.535934,2,1,1,ApartmentUnitFlat,Apartment / Unit / Flat,False,280,m2,False
2017729174,listing,/16-arthur-street-shearwater-tas-7307-2017729174,805000,is-sold,Sold by private treaty 26 Apr 2022,20220426,16 Arthur Street,SHEARWATER,TAS,7307,-41.15223,146.533112,3,2,2,House,House,False,0,m2,False
2017734815,listing,/7-shannon-drive-port-sorell-tas-7307-2017734815,,is-sold,Sold by private treaty 10 May 2022,20220510,7 Shannon Drive,PORT SORELL,TAS,7307,-41.179493,146.558411,3,2,4,House,House,True,10011,m2,False
2017740860,listing,/61a-hawley-esplanade-hawley-beach-tas-7307-2017740860,,is-sold,Sold by private treaty 17 May 2022,20220517,61A Hawley Esplanade,HAWLEY BEACH,TAS,7307,-41.14193,146.541626,2,2,2,Villa,Villa,False,574,m2,False
2017750255,listing,/2-221-stanley-street-south-latrobe-tas-7307-2017750255,455000,is-sold,Sold by private treaty 28 Apr 2022,20220428,2/221 Stanley Street South,LATROBE,TAS,7307,-41.2474632,146.425873,3,1,5,ApartmentUnitFlat,Apartment / Unit / Flat,False,296,m2,False
2017213360,listing,/185-gilbert-st-latrobe-tas-7307-2017213360,,is-sold,Sold by private treaty 21 Mar 2022,20220321,185 Gilbert St,LATROBE,TAS,7307,-41.23605,146.416672,4,3,6,House,House,False,1071,m2,False
2017485908,listing,/2-42-stanley-street-latrobe-tas-7307-2017485908,491600,is-sold,Sold by private treaty 21 Mar 2022,20220321,2/42 Stanley Street,LATROBE,TAS,7307,-41.2395477,146.427216,2,2,2,ApartmentUnitFlat,Apartment / Unit / Flat,False,0,m2,False
2017490391,listing,/6-vincent-crescent-latrobe-tas-7307-2017490391,545000,is-sold,Sold by private treaty 06 Apr 2022,20220406,6 Vincent Crescent,LATROBE,TAS,7307,-41.2281265,146.4272,3,2,2,House,House,False,713,m2,False
2017493294,listing,/87-moorings-drive-squeaking-point-tas-7307-2017493294,380000,is-sold,Sold by private treaty 11 Mar 2022,20220311,87 Moorings Drive,SQUEAKING POINT,TAS,7307,-41.19043,146.557434,,,,VacantLand,Vacant land,False,4535,m2,False
2017509633,listing,/2-14-beechwood-close-port-sorell-tas-7307-2017509633,775000,is-sold,Sold by private treaty 24 Mar 2022,20220324,2/14 Beechwood Close,PORT SORELL,TAS,7307,-41.1695328,146.534714,4,3,4,House,House,False,2009,m2,False
2017547085,listing,/1-18-gerrand-street-latrobe-tas-7307-2017547085,475000,is-sold,Sold by private treaty 06 Apr 2022,20220406,1/18 Gerrand Street,LATROBE,TAS,7307,-41.24195,146.419922,3,2,1,House,House,False,378,m2,False
2017560655,listing,/7-forth-street-latrobe-tas-7307-2017560655,493000,is-sold,Sold by private treaty 21 Mar 2022,20220321,7 Forth Street,LATROBE,TAS,7307,-41.23235,146.419159,3,1,2,House,House,False,673,m2,False
2017575495,listing,/4-hawk-hill-road-shearwater-tas-7307-2017575495,575000,is-sold,Sold by private treaty 31 Mar 2022,20220331,4 Hawk Hill Road,SHEARWATER,TAS,7307,-41.157383,146.533478,3,2,1,House,House,False,721,m2,False
2017588606,listing,/3-50-laura-street-south-latrobe-tas-7307-2017588606,350000,is-sold,Sold by private treaty 30 Mar 2022,20220330,3/50 Laura Street South,LATROBE,TAS,7307,-41.2427444,146.416687,3,1,1,ApartmentUnitFlat,Apartment / Unit / Flat,False,0,m2,False
2017591252,listing,/53-alexander-street-shearwater-tas-7307-2017591252,560000,is-sold,Sold by private treaty 22 Mar 2022,20220322,53 Alexander Street,SHEARWATER,TAS,7307,-41.1554527,146.535431,4,3,3,House,House,False,668,m2,False
2017605864,listing,/66-maxwell-drive-latrobe-tas-7307-2017605864,700000,is-sold,Sold by private treaty 15 Mar 2022,20220315,66 Maxwell Drive,LATROBE,TAS,7307,-41.2426529,146.439255,4,1,2,House,House,True,1.21,ha,False
2017606482,listing,/5-douglas-court-port-sorell-tas-7307-2017606482,820000,is-sold,Sold by private treaty 04 Apr 2022,20220404,5 Douglas Court,PORT SORELL,TAS,7307,-41.16844,146.554153,3,2,1,House,House,False,732,m2,False
2017607668,listing,/8-blackwood-avenue-latrobe-tas-7307-2017607668,570000,is-sold,Sold by private treaty 08 Apr 2022,20220408,8 Blackwood Avenue,LATROBE,TAS,7307,-41.2265053,146.424057,4,2,2,House,House,False,671,m2,False
2017611427,listing,/1-12-douglas-court-port-sorell-tas-7307-2017611427,437000,is-sold,Sold by private treaty 11 Mar 2022,20220311,1/12 Douglas Court,PORT SORELL,TAS,7307,-41.1674767,146.5537,2,1,1,ApartmentUnitFlat,Apartment / Unit / Flat,False,231,m2,False
2017643633,listing,/22-forth-street-latrobe-tas-7307-2017643633,371000,is-sold,Sold by private treaty 16 Mar 2022,20220316,22 Forth Street,LATROBE,TAS,7307,-41.232563,146.416519,2,1,2,House,House,False,943,m2,False
2017664838,listing,/34-george-street-latrobe-tas-7307-2017664838,520000,is-sold,Sold by private treaty 19 Mar 2022,20220319,34 George Street,LATROBE,TAS,7307,-41.23751,146.416031,3,1,4,House,House,False,683,m2,False
2017678767,listing,/113-last-street-latrobe-tas-7307-2017678767,445000,is-sold,Sold by private treaty 28 Mar 2022,20220328,113 Last Street,LATROBE,TAS,7307,-41.23415,146.417267,2,1,3,House,House,False,768,m2,False
2017681314,listing,/101-shearwater-boulevard-shearwater-tas-7307-2017681314,771000,is-sold,Sold by private treaty 01 Apr 2022,20220401,101 Shearwater Boulevard,SHEARWATER,TAS,7307,-41.1527443,146.537308,4,2,2,House,House,False,853,m2,False
2017693646,listing,/arthur-street-shearwater-tas-7307-2017693646,1000000,is-sold,Sold by private treaty 11 Apr 2022,20220411,Arthur Street,SHEARWATER,TAS,7307,-41.1525078,146.532715,,,,VacantLand,Vacant land,True,1.98,ha,False
2017696737,listing,/3-72-quinlan-crescent-shearwater-tas-7307-2017696737,397500,is-sold,Sold by private treaty 08 Apr 2022,20220408,3/72 Quinlan Crescent,SHEARWATER,TAS,7307,-41.15565,146.53569,3,1,1,ApartmentUnitFlat,Apartment / Unit / Flat,False,379,m2,False
2017357063,listing,/1181-port-sorell-road-port-sorell-tas-7307-2017357063,760000,is-sold,Sold by private treaty 18 Feb 2022,20220218,1181 Port Sorell Road,PORT SORELL,TAS,7307,-41.1672249,146.515442,3,1,4,House,House,False,21448,m2,False
2017482844,listing,/84-coal-hill-road-latrobe-tas-7307-2017482844,985000,is-sold,Sold by private treaty 04 Mar 2022,20220304,84 Coal Hill Road,LATROBE,TAS,7307,-41.2486877,146.395508,4,2,4,House,House,False,4550,m2,False
2017510031,listing,/1-6-meredith-street-port-sorell-tas-7307-2017510031,435000,is-sold,Sold by private treaty 16 Feb 2022,20220216,1/6 Meredith Street,PORT SORELL,TAS,7307,-41.1645241,146.551041,2,1,1,ApartmentUnitFlat,Apartment / Unit / Flat,False,290,m2,False
2017522888,listing,/77-stanley-street-latrobe-tas-7307-2017522888,750000,is-sold,Sold by private treaty 21 Feb 2022,20220221,77 Stanley Street,LATROBE,TAS,7307,-41.2430153,146.426376,3,2,4,House,House,False,1004,m2,False
2017525391,listing,/72-east-glen-drive-port-sorell-tas-7307-2017525391,720000,is-sold,Sold by private treaty 03 Mar 2022,20220303,72 East Glen Drive,PORT SORELL,TAS,7307,-41.1636734,146.5169,3,2,2,House,House,False,9450,m2,False
2017532972,listing,/16-chablis-court-latrobe-tas-7307-2017532972,460000,is-sold,Sold by private treaty 18 Feb 2022,20220218,16 Chablis Court,LATROBE,TAS,7307,-41.2438469,146.420029,3,1,2,House,House,False,846,m2,False
2017551974,listing,/2-4-chardonnay-drive-hawley-beach-tas-7307-2017551974,556000,is-sold,Sold by private treaty 22 Feb 2022,20220222,2/4 Chardonnay Drive,HAWLEY BEACH,TAS,7307,-41.14335,146.539352,4,2,1,Villa,Villa,False,430,m2,False
2017564723,listing,/3-17-hampden-street-latrobe-tas-7307-2017564723,399950,is-sold,Sold by private treaty 24 Feb 2022,20220224,3/17 Hampden Street,LATROBE,TAS,7307,-41.23465,146.4144,3,1,1,House,House,False,0,m2,False
2017572974,listing,/20-blackwood-court-port-sorell-tas-7307-2017572974,710000,is-sold,Sold by private treaty 17 Feb 2022,20220217,20 Blackwood Court,PORT SORELL,TAS,7307,-41.1677322,146.544067,4,3,2,House,House,False,909,m2,False
2017573001,listing,/124-summerhill-drive-port-sorell-tas-7307-2017573001,1100000,is-sold,Sold by private treaty 01 Mar 2022,20220301,124 Summerhill Drive,PORT SORELL,TAS,7307,-41.15854,146.515,4,2,6,House,House,True,1.94,ha,False
2017574697,listing,/1-205-last-street-latrobe-tas-7307-2017574697,475000,is-sold,Sold by private treaty 28 Feb 2022,20220228,1/205 Last Street,LATROBE,TAS,7307,-41.236,146.430145,3,2,1,House,House,False,0,m2,False
2017576139,listing,/12-earl-grove-latrobe-tas-7307-2017576139,733000,is-sold,Sold by private treaty 17 Feb 2022,20220217,12 Earl Grove,LATROBE,TAS,7307,-41.2395477,146.430725,6,2,3,House,House,False,987,m2,False
2017582328,listing,/41-chardonnay-drive-hawley-beach-tas-7307-2017582328,,is-sold,Sold by private treaty 18 Feb 2022,20220218,41 Chardonnay Drive,HAWLEY BEACH,TAS,7307,-41.1450081,146.538116,,,,VacantLand,Vacant land,False,684,m2,False
2017585544,listing,/9-maple-street-latrobe-tas-7307-2017585544,762500,is-sold,Sold by private treaty 22 Feb 2022,20220222,9 Maple Street,LATROBE,TAS,7307,-41.24067,146.42865,4,2,4,House,House,False,0,m2,False
2017589145,listing,/122-joyce-street-hawley-beach-tas-7307-2017589145,1300000,is-sold,Sold by private treaty 05 Mar 2022,20220305,122 Joyce Street,HAWLEY BEACH,TAS,7307,-41.1411667,146.539276,3,2,2,House,House,False,551,m2,False
2017593239,listing,/48-george-st-latrobe-tas-7307-2017593239,560000,is-sold,Sold by private treaty 22 Feb 2022,20220222,48 George St,LATROBE,TAS,7307,-41.23766,146.417847,4,2,,House,House,False,625,m2,False
2017601326,listing,/2-11-hawley-place-hawley-beach-tas-7307-2017601326,599000,is-sold,Sold by private treaty 28 Feb 2022,20220228,2/11 Hawley Place,HAWLEY BEACH,TAS,7307,-41.1522179,146.539627,2,1,1,ApartmentUnitFlat,Apartment / Unit / Flat,False,413,m2,False
2017604867,listing,/43-bluegum-drive-port-sorell-tas-7307-2017604867,1250000,is-sold,Sold by private treaty 27 Feb 2022,20220227,43 Bluegum Drive,PORT SORELL,TAS,7307,-41.16033,146.509674,4,2,5,House,House,True,1.06,ha,False
2017609709,listing,/56-laura-street-south-latrobe-tas-7307-2017609709,620000,is-sold,Sold by private treaty 03 Mar 2022,20220303,56 Laura Street South,LATROBE,TAS,7307,-41.24383,146.416733,3,2,2,House,House,False,665,m2,False
2017615260,listing,/34-ayrshire-avenue-latrobe-tas-7307-2017615260,206500,is-sold,Sold by private treaty 03 Mar 2022,20220303,34 Ayrshire Avenue,LATROBE,TAS,7307,-41.2455521,146.416321,,,,VacantLand,Vacant land,False,675,m2,False
2017010140,listing,/52-club-drive-shearwater-tas-7307-2017010140,645000,is-sold,Sold by private treaty 02 Feb 2022,20220202,52 Club Drive,SHEARWATER,TAS,7307,-41.1598969,146.534134,4,2,2,SemiDetached,Semi-Detached,False,668,m2,False
2017241766,listing,/17-seabreeze-avenue-shearwater-tas-7307-2017241766,,is-sold,Sold by private treaty 04 Feb 2022,20220204,17 Seabreeze Avenue,SHEARWATER,TAS,7307,-41.1569862,146.540863,3,2,1,House,House,False,690,m2,False
2017275697,listing,/60-milldam-road-squeaking-point-tas-7307-2017275697,808000,is-sold,Sold by private treaty 21 Jan 2022,20220121,60 Milldam Road,SQUEAKING POINT,TAS,7307,-41.1853752,146.5552,4,2,4,House,House,True,2.03,ha,False
2017349870,listing,/34-moorings-drive-squeaking-point-tas-7307-2017349870,425000,is-sold,Sold by private treaty 14 Feb 2022,20220214,34 Moorings Drive,SQUEAKING POINT,TAS,7307,-41.19043,146.557434,,,,VacantLand,Vacant land,False,5460,m2,False
2017374912,listing,/59-jefkins-drive-port-sorell-tas-7307-2017374912,760000,is-sold,Sold by private treaty 04 Feb 2022,20220204,59 Jefkins Drive,PORT SORELL,TAS,7307,-41.1808243,146.562149,3,2,4,House,House,False,6349,m2,False
2017409037,listing,/25-gardams-road-port-sorell-tas-7307-2017409037,950000,is-sold,Sold by private treaty 24 Jan 2022,20220124,25 Gardams Road,PORT SORELL,TAS,7307,-41.181,146.539856,4,2,2,House,House,True,10000,m2,False
2017454807,listing,/port-sorell-tas-7307-2017454807,781000,is-sold,Sold by private treaty 02 Feb 2022,20220202,,PORT SORELL,TAS,7307,-41.1668129,146.55304,3,2,3,House,House,False,8038,m2,False
2017463183,listing,/3-wilmot-street-port-sorell-tas-7307-2017463183,,is-sold,Sold by private treaty 09 Feb 2022,20220209,3 Wilmot Street,PORT SORELL,TAS,7307,-41.16763,146.558746,,,,VacantLand,Vacant land,False,518,m2,False
2017476641,listing,/106-marana-drive-bakers-beach-tas-7307-2017476641,398000,is-sold,Sold by private treaty 21 Jan 2022,20220121,106 Marana Drive,BAKERS BEACH,TAS,7307,-41.1640739,146.598465,,,,VacantLand,Vacant land,True,1.06,ha,False
2017481575,listing,/1255-port-sorell-rd-port-sorell-tas-7307-2017481575,650000,is-sold,Sold by private treaty 31 Jan 2022,20220131,1255 Port Sorell Rd,PORT SORELL,TAS,7307,-41.1679459,146.523788,1,1,6,House,House,True,2.31,ha,False
2017487639,listing,/63-65-gilbert-street-latrobe-tas-7307-2017487639,800000,is-sold,Sold by private treaty 22 Jan 2022,20220122,63-65 Gilbert Street,LATROBE,TAS,7307,-41.2349129,146.408981,6,4,5,House,House,False,679,m2,False
2017528602,listing,/6144-frankford-road-wesley-vale-tas-7307-2017528602,1150000,is-sold,Sold by private treaty 14 Feb 2022,20220214,6144 Frankford Road,WESLEY VALE,TAS,7307,-41.1960258,146.409882,5,3,3,House,House,True,8.97,ha,False
2017535116,listing,/55-alexander-street-shearwater-tas-7307-2017535116,545000,is-sold,Sold by private treaty 31 Jan 2022,20220131,55 Alexander Street,SHEARWATER,TAS,7307,-41.1556129,146.535385,4,1,3,House,House,False,770,m2,False
2017544365,listing,/12-pitcairn-street-port-sorell-tas-7307-2017544365,535000,is-sold,Sold by private treaty 01 Feb 2022,20220201,12 Pitcairn Street,PORT SORELL,TAS,7307,-41.1635551,146.551544,3,2,2,House,House,False,892,m2,False
2017550610,listing,/22-estuary-views-shearwater-tas-7307-2017550610,570000,is-sold,Sold by private treaty 29 Jan 2022,20220129,22 Estuary Views,SHEARWATER,TAS,7307,-41.15872,146.5354,3,2,2,House,House,False,620,m2,False
2017552509,listing,/11-gerrand-street-latrobe-tas-7307-2017552509,375000,is-sold,Sold by private treaty 11 Feb 2022,20220211,11 Gerrand Street,LATROBE,TAS,7307,-41.24235,146.419189,3,1,,House,House,False,1123,m2,False
2017557706,listing,/42-haven-drive-shearwater-tas-7307-2017557706,629000,is-sold,Sold by private treaty 11 Feb 2022,20220211,42 Haven Drive,SHEARWATER,TAS,7307,-41.1624031,146.537231,3,2,2,House,House,False,669,m2,False
2017561517,listing,/125-wilmot-street-port-sorell-tas-7307-2017561517,451000,is-sold,Sold by private treaty 10 Feb 2022,20220210,125 Wilmot Street,PORT SORELL,TAS,7307,-41.1672,146.542786,3,1,2,House,House,False,908,m2,False
2017563901,listing,/12-northdown-lane-northdown-tas-7307-2017563901,1010000,is-sold,Sold by private treaty 15 Feb 2022,20220215,12 Northdown Lane,NORTHDOWN,TAS,7307,-41.17546,146.486084,4,2,3,House,House,False,49200,m2,False
2017647000,listing,/9-mackenzie-crescent-latrobe-tas-7307-2017647000,150000,is-sold,Sold by private treaty 10 Feb 2022,20220210,9 MacKenzie Crescent,LATROBE,TAS,7307,-41.2454948,146.413315,,,,VacantLand,Vacant land,False,668,m2,False
2014703983,listing,/1050-bakers-beach-road-bakers-beach-tas-7307-2014703983,1000000,is-sold,Sold by private treaty 17 Jan 2022,20220117,1050 Bakers Beach Road,BAKERS BEACH,TAS,7307,-41.17179,146.616455,4,2,2,AcreageSemiRural,Acreage / Semi-Rural,True,459.84,ha,False
2016423652,listing,/15-wilmot-street-port-sorell-tas-7307-2016423652,250000,is-sold,Sold by private treaty 14 Dec 2021,20211214,15 Wilmot Street,PORT SORELL,TAS,7307,-41.1672668,146.55629,,,,VacantLand,Vacant land,False,865,m2,False
2017036269,listing,/7-9-shearwater-boulevard-shearwater-tas-7307-2017036269,1275000,is-sold,Sold by private treaty 16 Dec 2021,20211216,7-9 Shearwater Boulevard,SHEARWATER,TAS,7307,-41.16147,146.541534,9,9,8,BlockOfUnits,Block of Units,False,1633,m2,False
2017164577,listing,/7-9-shearwater-boulevard-shearwater-tas-7307-2017164577,1275000,is-sold,Sold by private treaty 10 Jan 2022,20220110,7-9 Shearwater Boulevard,SHEARWATER,TAS,7307,-41.1614761,146.541412,9,9,8,BlockOfUnits,Block of Units,False,1702,m2,False
2017276365,listing,/40-dumbleton-street-hawley-beach-tas-7307-2017276365,710000,is-sold,Sold by private treaty 17 Dec 2021,20211217,40 Dumbleton Street,HAWLEY BEACH,TAS,7307,-41.15046,146.538574,4,2,2,House,House,False,658,m2,False
2017319541,listing,/209-percival-street-latrobe-tas-7307-2017319541,623000,is-sold,Sold by private treaty 14 Dec 2021,20211214,209 Percival Street,LATROBE,TAS,7307,-41.24568,146.420761,4,2,5,House,House,False,2306,m2,False
2017352709,listing,/17-wilmot-street-port-sorell-tas-7307-2017352709,250000,is-sold,Sold by private treaty 22 Dec 2021,20211222,17 Wilmot Street,PORT SORELL,TAS,7307,-41.1684,146.55719,,,,VacantLand,Vacant land,False,848,m2,False
2017352864,listing,/23-wilmot-street-port-sorell-tas-7307-2017352864,250000,is-sold,Sold by private treaty 14 Dec 2021,20211214,23 Wilmot Street,PORT SORELL,TAS,7307,-41.16718,146.555618,,,,VacantLand,Vacant land,False,755,m2,False
2017381664,listing,/lot-10-wilmot-street-port-sorell-tas-7307-2017381664,,is-sold,Sold by private treaty 16 Dec 2021,20211216,Lot 10 Wilmot Street,PORT SORELL,TAS,7307,-41.166832,146.5577,,,,VacantLand,Vacant land,False,589,m2,False
2017395466,listing,/13-shannon-drive-port-sorell-tas-7307-2017395466,1124000,is-sold,Sold by private treaty 20 Dec 2021,20211220,13 Shannon Drive,PORT SORELL,TAS,7307,-41.17876,146.559082,4,3,5,AcreageSemiRural,Acreage / Semi-Rural,True,5160,m2,False
2017404791,listing,/41-elphin-drive-squeaking-point-tas-7307-2017404791,790000,is-sold,Sold by private treaty 21 Jan 2022,20220121,41 Elphin Drive,SQUEAKING POINT,TAS,7307,-41.1896858,146.550339,3,2,5,House,House,False,4898,m2,False
2017407715,listing,/19-alberta-street-latrobe-tas-7307-2017407715,385000,is-sold,Sold by private treaty 29 Dec 2021,20211229,19 Alberta Street,LATROBE,TAS,7307,-41.2397,146.4202,3,1,2,House,House,False,1032,m2,False
2017409896,listing,/11-inlet-court-shearwater-tas-7307-2017409896,625000,is-sold,Sold by private treaty 10 Jan 2022,20220110,11 Inlet Court,SHEARWATER,TAS,7307,-41.1593475,146.535736,3,1,5,House,House,False,779,m2,False
2017426913,listing,/25-charles-street-squeaking-point-tas-7307-2017426913,775000,is-sold,Sold by private treaty 10 Jan 2022,20220110,25 Charles Street,SQUEAKING POINT,TAS,7307,-41.1899643,146.552612,3,2,,House,House,False,5990,m2,False
2017466556,listing,/6-briar-court-latrobe-tas-7307-2017466556,615000,is-sold,Sold by private treaty 21 Dec 2021,20211221,6 Briar Court,LATROBE,TAS,7307,-41.24492,146.418488,4,2,2,House,House,False,813,m2,False
2017472751,listing,/11-seahorse-lane-port-sorell-tas-7307-2017472751,750000,is-sold,Sold by private treaty 14 Dec 2021,20211214,11 Seahorse Lane,PORT SORELL,TAS,7307,-41.1628265,146.553284,4,2,2,House,House,False,875,m2,False
2017492742,listing,/11-thomas-street-latrobe-tas-7307-2017492742,449000,is-sold,Sold by private treaty 20 Dec 2021,20211220,11 Thomas Street,LATROBE,TAS,7307,-41.2399445,146.415054,3,1,2,House,House,False,788,m2,False
2017494650,listing,/11-pepik-street-hawley-beach-tas-7307-2017494650,275000,is-sold,Sold by private treaty 19 Jan 2022,20220119,11 Pepik Street,HAWLEY BEACH,TAS,7307,-41.1480942,146.540421,,,,VacantLand,Vacant land,False,928,m2,False
2017495623,listing,/8-maple-street-latrobe-tas-7307-2017495623,760000,is-sold,Sold by private treaty 14 Jan 2022,20220114,8 Maple Street,LATROBE,TAS,7307,-41.2410851,146.428284,4,3,6,House,House,False,733,m2,False
2017498815,listing,/185-last-street-latrobe-tas-7307-2017498815,362000,is-sold,Sold by private treaty 06 Jan 2022,20220106,185 Last Street,LATROBE,TAS,7307,-41.2355156,146.426971,3,1,1,House,House,False,669,m2,False
2017171815,listing,/1-13-breteeca-close-port-sorell-tas-7307-2017171815,620000,is-sold,Sold by private treaty 19 Nov 2021,20211119,1/13 Breteeca Close,PORT SORELL,TAS,7307,-41.16587,146.538483,3,2,4,ApartmentUnitFlat,Apartment / Unit / Flat,False,656,m2,False
2017206988,listing,/4937-frankford-road-thirlstane-tas-7307-2017206988,670000,is-sold,Sold by private treaty 06 Dec 2021,20211206,4937 Frankford Road,THIRLSTANE,TAS,7307,-41.21561,146.537933,3,1,,House,House,False,9712,m2,False
2017281243,listing,/3-12-links-court-shearwater-tas-7307-2017281243,,is-sold,Sold by private treaty 25 Nov 2021,20211125,3/12 Links Court,SHEARWATER,TAS,7307,-41.16369,146.540634,2,1,1,ApartmentUnitFlat,Apartment / Unit / Flat,False,292,m2,False
2017294774,listing,/14-alexander-street-shearwater-tas-7307-2017294774,595000,is-sold,Sold by private treaty 17 Nov 2021,20211117,14 Alexander Street,SHEARWATER,TAS,7307,-41.1513557,146.535431,3,2,3,House,House,False,2024,m2,False
2017318340,listing,/29-fleetwood-drive-port-sorell-tas-7307-2017318340,850000,is-sold,Sold by private treaty 09 Dec 2021,20211209,29 Fleetwood Drive,PORT SORELL,TAS,7307,-41.1709366,146.5382,3,2,8,AcreageSemiRural,Acreage / Semi-Rural,True,7236,m2,False
2017326635,listing,/126-joyce-street-hawley-beach-tas-7307-2017326635,1160000,is-sold,Sold by private treaty 06 Dec 2021,20211206,126 Joyce Street,HAWLEY BEACH,TAS,7307,-41.14114,146.53891,4,2,4,House,House,False,583,m2,False
2017327351,listing,/11-sankey-street-hawley-beach-tas-7307-2017327351,1320000,is-sold,Sold by private treaty 30 Nov 2021,20211130,11 Sankey Street,HAWLEY BEACH,TAS,7307,-41.14678,146.54184,3,2,3,House,House,False,771,m2,False
2017349871,listing,/1-11-fairway-cres-shearwater-tas-7307-2017349871,475000,is-sold,Sold by private treaty 15 Nov 2021,20211115,1/11 Fairway Cres,SHEARWATER,TAS,7307,-41.1614761,146.540192,2,1,3,Villa,Villa,False,311,m2,False
2017349878,listing,/108-milldam-road-port-sorell-tas-7307-2017349878,875000,is-sold,Sold by private treaty 18 Nov 2021,20211118,108 Milldam Road,PORT SORELL,TAS,7307,-41.1805458,146.555969,3,2,10,House,House,True,1.3,ha,False
2017366602,listing,/6-the-dunes-port-sorell-tas-7307-2017366602,1200000,is-sold,Sold by private treaty 25 Nov 2021,20211125,6 The Dunes,PORT SORELL,TAS,7307,-41.161972,146.5517,4,2,2,House,House,False,899,m2,False
2017370065,listing,/22-glyde-street-hawley-beach-tas-7307-2017370065,850000,is-sold,Sold by private treaty 16 Nov 2021,20211116,22 Glyde Street,HAWLEY BEACH,TAS,7307,-41.1482468,146.540176,4,2,2,House,House,False,766,m2,False
2017377484,listing,/35-shearwater-esplanade-shearwater-tas-7307-2017377484,1390000,is-sold,Sold by private treaty 26 Nov 2021,20211126,35 Shearwater Esplanade,SHEARWATER,TAS,7307,-41.15692,146.5424,4,2,2,House,House,False,698,m2,False
2017393553,listing,/107-panatana-drive-port-sorell-tas-7307-2017393553,390000,is-sold,Sold by private treaty 16 Nov 2021,20211116,107 Panatana Drive,PORT SORELL,TAS,7307,-41.17248,146.55101,,,,VacantLand,Vacant land,False,6368,m2,False
2017432394,listing,/1-paradise-place-hawley-beach-tas-7307-2017432394,900000,is-sold,Sold by private treaty 08 Dec 2021,20211208,1 Paradise Place,HAWLEY BEACH,TAS,7307,-41.1478577,146.541061,4,2,3,House,House,False,768,m2,False
2017435388,listing,/12-frederick-street-hawley-beach-tas-7307-2017435388,630000,is-sold,Sold by private treaty 16 Nov 2021,20211116,12 Frederick Street,HAWLEY BEACH,TAS,7307,-41.1491241,146.542419,4,1,2,House,House,False,725,m2,False
2017455866,listing,/1-29-broadwater-court-shearwater-tas-7307-2017455866,292000,is-sold,Sold by private treaty 04 Dec 2021,20211204,1/29 Broadwater Court,SHEARWATER,TAS,7307,-41.1505165,146.531982,3,1,1,House,House,False,476,m2,False
2017472052,listing,/23-palmers-road-latrobe-tas-7307-2017472052,295000,is-sold,Sold by private treaty 02 Dec 2021,20211202,23 Palmers Road,LATROBE,TAS,7307,-41.2272,146.42514,3,1,,House,House,False,0,m2,False
2017475436,listing,/98-shearwater-boulevard-shearwater-tas-7307-2017475436,740000,is-sold,Sold by private treaty 14 Dec 2021,20211214,98 Shearwater Boulevard,SHEARWATER,TAS,7307,-41.15421,146.536926,4,2,2,House,House,False,742,m2,False
2017481409,listing,/85-alexander-street-shearwater-tas-7307-2017481409,489000,is-sold,Sold by private treaty 24 Nov 2021,20211124,85 Alexander Street,SHEARWATER,TAS,7307,-41.1580734,146.534576,,,,House,House,False,0,m2,False
2018051949,listing,/lot-54-moorings-drive-squeaking-point-tas-7307-2018051949,,is-sold,Sold by private treaty 01 Dec 2021,20211201,Lot 54 Moorings Drive,SQUEAKING POINT,TAS,7307,-41.1905,146.5568,,,,VacantLand,Vacant land,True,7.5,ha,False
2016335273,listing,/lot-20-broadwater-court-shearwater-tas-7307-2016335273,,is-sold,Sold by private treaty 30 Oct 2021,20211030,Lot 20 Broadwater Court,SHEARWATER,TAS,7307,-41.15039,146.5333,,,,VacantLand,Vacant land,False,724,m2,False
2016920785,listing,/4-highwater-lane-port-sorell-tas-7307-2016920785,463000,is-sold,Sold by private treaty 28 Oct 2021,20211028,4 Highwater Lane,PORT SORELL,TAS,7307,-41.1623039,146.552719,2,1,,VacantLand,Vacant land,False,744,m2,False
2017057655,listing,/23-ayrshire-avenue-latrobe-tas-7307-2017057655,673000,is-sold,Sold by private treaty 03 Nov 2021,20211103,23 Ayrshire Avenue,LATROBE,TAS,7307,-41.2364159,146.41745,4,2,2,House,House,False,714,m2,False
2017130556,listing,/43-archer-street-port-sorell-tas-7307-2017130556,570000,is-sold,Sold by private treaty 28 Oct 2021,20211028,43 Archer Street,PORT SORELL,TAS,7307,-41.16966,146.557236,3,1,3,House,House,False,713,m2,False
2017148372,listing,/100-cotton-street-latrobe-tas-7307-2017148372,445000,is-sold,Sold by private treaty 03 Nov 2021,20211103,100 Cotton Street,LATROBE,TAS,7307,-41.23987,146.425583,4,1,,House,House,False,830,m2,False
2017206850,listing,/2-edward-street-port-sorell-tas-7307-2017206850,545000,is-sold,Sold by private treaty 18 Oct 2021,20211018,2 Edward Street,PORT SORELL,TAS,7307,-41.169,146.545578,3,2,2,House,House,False,662,m2,False
2017221506,listing,/10-tranquil-place-shearwater-tas-7307-2017221506,550000,is-sold,Sold by private treaty 20 Oct 2021,20211020,10 Tranquil Place,SHEARWATER,TAS,7307,-41.162178,146.5378,3,2,2,House,House,False,697,m2,False
2017241280,listing,/21-hawkins-street-latrobe-tas-7307-2017241280,420555,is-sold,Sold by private treaty 15 Oct 2021,20211015,21 Hawkins Street,LATROBE,TAS,7307,-41.2301559,146.418045,2,1,4,House,House,False,1449,m2,False
2017256309,listing,/104-bradshaw-street-latrobe-tas-7307-2017256309,355000,is-sold,Sold by private treaty 20 Oct 2021,20211020,104 Bradshaw Street,LATROBE,TAS,7307,-41.2417068,146.415878,3,1,1,House,House,False,881,m2,False
2017284767,listing,/188-milldam-road-port-sorell-tas-7307-2017284767,930000,is-sold,Sold by private treaty 27 Oct 2021,20211027,188 Milldam Road,PORT SORELL,TAS,7307,-41.17503,146.559677,5,4,4,House,House,False,6474,m2,False
2017284819,listing,/1-1-paulownia-street-latrobe-tas-7307-2017284819,470000,is-sold,Sold by private treaty 18 Oct 2021,20211018,1/1 Paulownia Street,LATROBE,TAS,7307,-41.2433319,146.428741,2,2,2,ApartmentUnitFlat,Apartment / Unit / Flat,False,364,m2,False
2017289657,listing,/22-joyce-street-hawley-beach-tas-7307-2017289657,268000,is-sold,Sold by private treaty 17 Oct 2021,20211017,22 Joyce Street,HAWLEY BEACH,TAS,7307,-41.147747,146.540253,,,,VacantLand,Vacant land,False,721,m2,False
2017296512,listing,/1-16-dumbleton-street-hawley-beach-tas-7307-2017296512,330000,is-sold,Sold by private treaty 27 Oct 2021,20211027,1/16 Dumbleton Street,HAWLEY BEACH,TAS,7307,-41.1507339,146.54039,2,1,1,ApartmentUnitFlat,Apartment / Unit / Flat,False,139,m2,False
2017299109,listing,/6-hawk-hill-road-shearwater-tas-7307-2017299109,622000,is-sold,Sold by private treaty 15 Oct 2021,20211015,6 Hawk Hill Road,SHEARWATER,TAS,7307,-41.1573563,146.533234,3,2,2,House,House,False,721,m2,False
2017302387,listing,/20-darling-street-port-sorell-tas-7307-2017302387,1000000,is-sold,Sold by private treaty 28 Oct 2021,20211028,20 Darling Street,PORT SORELL,TAS,7307,-41.1678,146.55513,4,3,2,House,House,False,691,m2,False
2017305575,listing,/91-coal-hill-road-latrobe-tas-7307-2017305575,875000,is-sold,Sold by private treaty 18 Oct 2021,20211018,91 Coal Hill Road,LATROBE,TAS,7307,-41.2494621,146.396942,3,2,5,House,House,True,4.7,ha,False
2017312919,listing,/121-charles-street-squeaking-point-tas-7307-2017312919,570000,is-sold,Sold by private treaty 20 Oct 2021,20211020,121 Charles Street,SQUEAKING POINT,TAS,7307,-41.18926,146.565277,5,3,1,House,House,False,1346,m2,False
2017329629,listing,/22-breteeca-close-port-sorell-tas-7307-2017329629,593000,is-sold,Sold by private treaty 12 Nov 2021,20211112,22 Breteeca Close,PORT SORELL,TAS,7307,-41.1663742,146.5387,4,2,1,House,House,False,1491,m2,False
2017347768,listing,/236-gilbert-street-latrobe-tas-7307-2017347768,520000,is-sold,Sold by private treaty 03 Nov 2021,20211103,236 Gilbert Street,LATROBE,TAS,7307,-41.2381172,146.428009,3,2,2,House,House,False,904,m2,False
2017920521,listing,/lot-17-broadwater-court-shearwater-tas-7307-2017920521,,is-sold,Sold by private treaty 30 Oct 2021,20211030,Lot 17 Broadwater Court,SHEARWATER,TAS,7307,-41.15088,146.533264,,,,House,House,False,0,m2,False
2016887805,listing,/2-8-ayrshire-avenue-latrobe-tas-7307-2016887805,,is-sold,Sold by private treaty 30 Sep 2021,20210930,2/8 Ayrshire Avenue,LATROBE,TAS,7307,-41.2364159,146.41745,3,1,,ApartmentUnitFlat,Apartment / Unit / Flat,False,0,m2,False
2017044169,listing,/122-kays-road-sassafras-tas-7307-2017044169,,is-sold,Sold by private treaty 08 Oct 2021,20211008,122 Kays Road,SASSAFRAS,TAS,7307,-41.2644463,146.475281,3,2,4,House,House,False,5897,m2,False
2017161235,listing,/5-shearwater-boulevard-shearwater-tas-7307-2017161235,420000,is-sold,Sold by private treaty 14 Oct 2021,20211014,5 Shearwater Boulevard,SHEARWATER,TAS,7307,-41.15612,146.537918,3,2,1,House,House,False,0,m2,False
2017205537,listing,/134-bradshaw-street-latrobe-tas-7307-2017205537,600000,is-sold,Sold by private treaty 24 Sep 2021,20210924,134 Bradshaw Street,LATROBE,TAS,7307,-41.24598,146.415176,4,2,2,House,House,False,616,m2,False
2017221219,listing,/121-alexander-street-shearwater-tas-7307-2017221219,449000,is-sold,Sold by private treaty 05 Oct 2021,20211005,121 Alexander Street,SHEARWATER,TAS,7307,-41.1611824,146.533737,4,1,1,House,House,False,711,m2,False
2017223861,listing,/2-4-arthur-street-shearwater-tas-7307-2017223861,400000,is-sold,Sold by private treaty 27 Sep 2021,20210927,2/4 Arthur Street,SHEARWATER,TAS,7307,-41.1526337,146.534973,3,1,2,Villa,Villa,False,425,m2,False
2017228902,listing,/12-tranquil-place-shearwater-tas-7307-2017228902,590000,is-sold,Sold by private treaty 13 Oct 2021,20211013,12 Tranquil Place,SHEARWATER,TAS,7307,-41.16204,146.5382,4,2,2,House,House,False,879,m2,False
2017235881,listing,/27-alexander-street-shearwater-tas-7307-2017235881,405000,is-sold,Sold by private treaty 04 Oct 2021,20211004,27 Alexander Street,SHEARWATER,TAS,7307,-41.1528625,146.536148,2,2,2,House,House,False,675,m2,False
2017241291,listing,/1-1-sunrise-court-shearwater-tas-7307-2017241291,485000,is-sold,Sold by private treaty 10 Oct 2021,20211010,1/1 Sunrise Court,SHEARWATER,TAS,7307,-41.1589546,146.537949,2,1,2,Villa,Villa,False,283,m2,False
2017247142,listing,/55-stanley-street-latrobe-tas-7307-2017247142,585000,is-sold,Sold by private treaty 07 Oct 2021,20211007,55 Stanley Street,LATROBE,TAS,7307,-41.2410965,146.42717,3,2,2,House,House,False,718,m2,False
2017257678,listing,/8-25-27-bluewater-crescent-shearwater-tas-7307-2017257678,301000,is-sold,Sold by private treaty 06 Oct 2021,20211006,8/25-27 Bluewater Crescent,SHEARWATER,TAS,7307,-41.1537743,146.5401,2,1,1,ApartmentUnitFlat,Apartment / Unit / Flat,False,114,m2,False
2017260503,listing,/32-george-street-latrobe-tas-7307-2017260503,715000,is-sold,Sold by private treaty 28 Sep 2021,20210928,32 George Street,LATROBE,TAS,7307,-41.23746,146.415436,13,3,1,House,House,False,1366,m2,False
2017270276,listing,/16-alexander-street-shearwater-tas-7307-2017270276,551000,is-sold,Sold by private treaty 29 Sep 2021,20210929,16 Alexander Street,SHEARWATER,TAS,7307,-41.1515121,146.535355,2,1,3,House,House,False,2031,m2,False
2017274132,listing,/125-palmers-road-latrobe-tas-7307-2017274132,545000,is-sold,Sold by private treaty 12 Oct 2021,20211012,125 Palmers Road,LATROBE,TAS,7307,-41.2188148,146.425491,3,1,5,House,House,True,2.08,ha,False
2017284824,listing,/2-49-stanley-street-latrobe-tas-7307-2017284824,364000,is-sold,Sold by private treaty 30 Sep 2021,20210930,2/49 Stanley Street,LATROBE,TAS,7307,-41.24056,146.42746,2,1,1,ApartmentUnitFlat,Apartment / Unit / Flat,False,0,m2,False
2017286961,listing,/harford-tas-7307-2017286961,,is-sold,Sold by private treaty 12 Oct 2021,20211012,,HARFORD,TAS,7307,-41.2257919,146.58902,,,,Rural,Rural,True,2.02,ha,False
2017288805,listing,/8-kermode-street-port-sorell-tas-7307-2017288805,440000,is-sold,Sold by private treaty 06 Oct 2021,20211006,8 Kermode Street,PORT SORELL,TAS,7307,-41.1669922,146.549423,2,1,2,House,House,False,612,m2,False
2017294645,listing,/103-joyce-street-hawley-beach-tas-7307-2017294645,410000,is-sold,Sold by private treaty 08 Oct 2021,20211008,103 Joyce Street,HAWLEY BEACH,TAS,7307,-41.1407623,146.539658,,,,VacantLand,Vacant land,False,576,m2,False
2017295198,listing,/10-cabernet-court-hawley-beach-tas-7307-2017295198,925000,is-sold,Sold by private treaty 05 Oct 2021,20211005,10 Cabernet Court,HAWLEY BEACH,TAS,7307,-41.1442871,146.5369,4,2,4,House,House,False,992,m2,False
2016932053,listing,/101-coal-hill-road-latrobe-tas-7307-2016932053,640000,is-sold,Sold by private treaty 03 Sep 2021,20210903,101 Coal Hill Road,LATROBE,TAS,7307,-41.25018,146.3963,5,2,2,House,House,False,15000,m2,False
2017050409,listing,/sherwood-drive-latrobe-tas-7307-2017050409,,is-sold,Sold by private treaty 01 Sep 2021,20210901,Sherwood Drive,LATROBE,TAS,7307,-41.28072,146.412186,,,,VacantLand,Vacant land,True,11.69,ha,False
2017065816,listing,/30-maxwell-drive-latrobe-tas-7307-2017065816,540000,is-sold,Sold by private treaty 15 Sep 2021,20210915,30 Maxwell Drive,LATROBE,TAS,7307,-41.2427444,146.444244,2,1,2,House,House,False,5930,m2,False
2017122202,listing,/11-club-drive-shearwater-tas-7307-2017122202,645000,is-sold,Sold by private treaty 14 Sep 2021,20210914,11 Club Drive,SHEARWATER,TAS,7307,-41.1602135,146.539017,4,2,3,House,House,False,710,m2,False
2017156688,listing,/83-hamilton-street-latrobe-tas-7307-2017156688,620000,is-sold,Sold by private treaty 13 Sep 2021,20210913,83 Hamilton Street,LATROBE,TAS,7307,-41.2450027,146.4127,3,2,4,House,House,False,800,m2,False
2017177588,listing,/1-arthur-court-shearwater-tas-7307-2017177588,260000,is-sold,Sold by private treaty 09 Sep 2021,20210909,1 Arthur Court,SHEARWATER,TAS,7307,-41.15255,146.533722,2,1,,VacantLand,Vacant land,False,727,m2,False
2017179453,listing,/27-quinlan-crescent-shearwater-tas-7307-2017179453,469000,is-sold,Sold by private treaty 23 Sep 2021,20210923,27 Quinlan Crescent,SHEARWATER,TAS,7307,-41.15812,146.537888,5,2,1,House,House,False,650,m2,False
2017182148,listing,/26-club-drive-shearwater-tas-7307-2017182148,450000,is-sold,Sold by private treaty 31 Aug 2021,20210831,26 Club Drive,SHEARWATER,TAS,7307,-41.1604538,146.537186,3,2,1,House,House,False,669,m2,False
2017191131,listing,/4-dukes-court-latrobe-tas-7307-2017191131,500000,is-sold,Sold by private treaty 09 Sep 2021,20210909,4 Dukes Court,LATROBE,TAS,7307,-41.24111,146.425446,4,2,1,House,House,False,0,m2,False
2017196347,listing,/47-stanley-street-latrobe-tas-7307-2017196347,585000,is-sold,Sold by private treaty 27 Aug 2021,20210827,47 Stanley Street,LATROBE,TAS,7307,-41.24039,146.427292,3,2,2,House,House,False,736,m2,False
2017211679,listing,/97-alexander-street-shearwater-tas-7307-2017211679,462500,is-sold,Sold by private treaty 31 Aug 2021,20210831,97 Alexander Street,SHEARWATER,TAS,7307,-41.15909,146.534378,3,1,,House,House,False,686,m2,False
2017215807,listing,/7-tranquil-place-shearwater-tas-7307-2017215807,786450,is-sold,Sold by private treaty 06 Sep 2021,20210906,7 Tranquil Place,SHEARWATER,TAS,7307,-41.162014,146.537079,4,2,4,House,House,False,712,m2,False
2017216837,listing,/4-150-wilmot-street-port-sorell-tas-7307-2017216837,350000,is-sold,Sold by private treaty 22 Sep 2021,20210922,4/150 Wilmot Street,PORT SORELL,TAS,7307,-41.1658,146.5397,3,2,1,ApartmentUnitFlat,Apartment / Unit / Flat,False,435,m2,False
2017217134,listing,/12-paulownia-street-latrobe-tas-7307-2017217134,607100,is-sold,Sold by private treaty 03 Sep 2021,20210903,12 Paulownia Street,LATROBE,TAS,7307,-41.24205,146.428757,3,2,2,House,House,False,720,m2,False
2017218769,listing,/5-lockwood-street-shearwater-tas-7307-2017218769,225000,is-sold,Sold by private treaty 14 Sep 2021,20210914,5 Lockwood Street,SHEARWATER,TAS,7307,-41.1612549,146.533356,,,,VacantLand,Vacant land,False,845,m2,False
2017219124,listing,/32-dumbleton-street-hawley-beach-tas-7307-2017219124,670000,is-sold,Sold by private treaty 27 Aug 2021,20210827,32 Dumbleton Street,HAWLEY BEACH,TAS,7307,-41.15046,146.538574,3,2,2,House,House,False,662,m2,False
2017219264,listing,/2-129-shearwater-boulevard-shearwater-tas-7307-2017219264,500000,is-sold,Sold by private treaty 21 Sep 2021,20210921,2/129 Shearwater Boulevard,SHEARWATER,TAS,7307,-41.1513939,146.538467,2,2,1,Villa,Villa,False,379,m2,False
2017234050,listing,/238-gilbert-street-latrobe-tas-7307-2017234050,475000,is-sold,Sold by private treaty 08 Sep 2021,20210908,238 Gilbert Street,LATROBE,TAS,7307,-41.2380333,146.4283,3,1,3,House,House,False,915,m2,False
2017241663,listing,/71-stanley-street-latrobe-tas-7307-2017241663,599000,is-sold,Sold by private treaty 22 Sep 2021,20210922,71 Stanley Street,LATROBE,TAS,7307,-41.24181,146.427017,3,2,6,House,House,False,730,m2,False
2017243159,listing,/20-mountain-view-rise-latrobe-tas-7307-2017243159,460000,is-sold,Sold by private treaty 14 Sep 2021,20210914,20 Mountain View Rise,LATROBE,TAS,7307,-41.22697,146.4263,3,2,2,House,House,False,0,m2,False
2016006673,listing,/1-wesley-vale-road-wesley-vale-tas-7307-2016006673,435000,is-sold,Sold by private treaty 09 Aug 2021,20210809,1 Wesley Vale Road,WESLEY VALE,TAS,7307,-41.19133,146.455566,,,,SpecialistFarm,Specialist Farm,True,12.32,ha,False
2016804021,listing,/59-beer-street-wesley-vale-tas-7307-2016804021,612500,is-sold,Sold by private treaty 26 Aug 2021,20210826,59 Beer Street,WESLEY VALE,TAS,7307,-41.1966324,146.41777,4,2,1,House,House,True,1.66,ha,False
2017042737,listing,/1-herbert-place-port-sorell-tas-7307-2017042737,850000,is-sold,Sold by private treaty 23 Aug 2021,20210823,1 Herbert Place,PORT SORELL,TAS,7307,-41.1694832,146.5232,3,2,3,House,House,False,9214,m2,False
2017069340,listing,/75-gumbowie-drive-port-sorell-tas-7307-2017069340,720000,is-sold,Sold by private treaty 24 Aug 2021,20210824,75 Gumbowie Drive,PORT SORELL,TAS,7307,-41.1759834,146.527039,3,2,7,House,House,False,9670,m2,False
2017078603,listing,/port-sorell-tas-7307-2017078603,367000,is-sold,Sold by private treaty 25 Aug 2021,20210825,,PORT SORELL,TAS,7307,-41.1785,146.5658,,,,VacantLand,Vacant land,False,6199,m2,False
2017090512,listing,/5-150-wilmot-street-port-sorell-tas-7307-2017090512,365000,is-sold,Sold by private treaty 12 Aug 2021,20210812,5/150 Wilmot Street,PORT SORELL,TAS,7307,-41.16583,146.5399,3,2,1,ApartmentUnitFlat,Apartment / Unit / Flat,False,218,m2,False
2017092601,listing,/6027-frankford-road-wesley-vale-tas-7307-2017092601,435000,is-sold,Sold by private treaty 26 Aug 2021,20210826,6027 Frankford Road,WESLEY VALE,TAS,7307,-41.203022,146.418365,3,1,1,House,House,False,2109,m2,False
2017104256,listing,/302-appleby-road-thirlstane-tas-7307-2017104256,675000,is-sold,Sold by private treaty 27 Aug 2021,20210827,302 Appleby Road,THIRLSTANE,TAS,7307,-41.1953964,146.524292,3,1,2,House,House,True,1.68,ha,False
2017116790,listing,/49-cotton-street-latrobe-tas-7307-2017116790,270000,is-sold,Sold by private treaty 04 Aug 2021,20210804,49 Cotton Street,LATROBE,TAS,7307,-41.2384,146.418747,2,1,1,House,House,False,683,m2,False
2017132136,listing,/1-eagle-point-road-bakers-beach-tas-7307-2017132136,,is-sold,Sold by private treaty 06 Aug 2021,20210806,1 Eagle Point Road,BAKERS BEACH,TAS,7307,-41.1957,146.585312,,,,VacantLand,Vacant land,False,0,m2,False
2017144074,listing,/24-pitcairn-street-port-sorell-tas-7307-2017144074,380000,is-sold,Sold by private treaty 02 Aug 2021,20210802,24 Pitcairn Street,PORT SORELL,TAS,7307,-41.1637955,146.552841,3,1,1,House,House,False,892,m2,False
2017151556,listing,/117-wilmot-street-port-sorell-tas-7307-2017151556,610000,is-sold,Sold by private treaty 16 Aug 2021,20210816,117 Wilmot Street,PORT SORELL,TAS,7307,-41.1672935,146.5437,3,1,2,House,House,False,827,m2,False
2017152124,listing,/29-archer-street-port-sorell-tas-7307-2017152124,455000,is-sold,Sold by private treaty 06 Aug 2021,20210806,29 Archer Street,PORT SORELL,TAS,7307,-41.16913,146.555725,3,1,1,House,House,False,713,m2,False
2017158946,listing,/25-earl-grove-latrobe-tas-7307-2017158946,465000,is-sold,Sold by private treaty 02 Aug 2021,20210802,25 Earl Grove,LATROBE,TAS,7307,-41.2397881,146.431686,3,1,1,House,House,False,1109,m2,False
2017190691,listing,/4-50-laura-street-latrobe-tas-7307-2017190691,275000,is-sold,Sold by private treaty 12 Aug 2021,20210812,4/50 Laura Street,LATROBE,TAS,7307,-41.2425728,146.416687,3,1,1,ApartmentUnitFlat,Apartment / Unit / Flat,False,0,m2,False
2017190745,listing,/2-3-dukes-court-latrobe-tas-7307-2017190745,,is-sold,Sold by private treaty 18 Aug 2021,20210818,2-3 Dukes Court,LATROBE,TAS,7307,-41.241333,146.425415,3,2,2,House,House,False,1278,m2,False
2017193426,listing,/84-benny-street-latrobe-tas-7307-2017193426,550000,is-sold,Sold by private treaty 18 Aug 2021,20210818,84 Benny Street,LATROBE,TAS,7307,-41.24632,146.42485,4,1,3,House,House,False,2092,m2,False
2017194339,listing,/6-spring-grove-latrobe-tas-7307-2017194339,607000,is-sold,Sold by private treaty 25 Aug 2021,20210825,6 Spring Grove,LATROBE,TAS,7307,-41.22747,146.423828,4,2,2,House,House,False,1205,m2,False
2017217049,listing,/6-150-wilmot-street-port-sorell-tas-7307-2017217049,350000,is-sold,Sold by private treaty 26 Aug 2021,20210826,6/150 Wilmot Street,PORT SORELL,TAS,7307,-41.1658974,146.539963,3,2,1,ApartmentUnitFlat,Apartment / Unit / Flat,False,252,m2,False
2017255978,listing,/163-percival-street-latrobe-tas-7307-2017255978,379000,is-sold,Sold by private treaty 25 Aug 2021,20210825,163 Percival Street,LATROBE,TAS,7307,-41.2419548,146.421616,3,1,,House,House,False,0,m2,False
2016343533,listing,/3-lockwood-street-shearwater-tas-7307-2016343533,,is-sold,Sold by private treaty 02 Aug 2021,20210802,3 Lockwood Street,SHEARWATER,TAS,7307,-41.1593475,146.531937,,,,NewLand,New land,False,860,m2,False
2016656476,listing,/19-woodland-rise-northdown-tas-7307-2016656476,275000,is-sold,Sold by private treaty 07 Jul 2021,20210707,19 Woodland Rise,NORTHDOWN,TAS,7307,-41.1695328,146.514114,,,,VacantLand,Vacant land,True,1.23,ha,False
2016656499,listing,/40-rubicon-rise-northdown-tas-7307-2016656499,250000,is-sold,Sold by private treaty 16 Jul 2021,20210716,40 Rubicon Rise,NORTHDOWN,TAS,7307,-41.17409,146.513962,,,,VacantLand,Vacant land,True,1.3,ha,False
2016808096,listing,/0-kermode-st-port-sorell-tas-7307-2016808096,,is-sold,Sold by private treaty 05 Jul 2021,20210705,0 Kermode St,PORT SORELL,TAS,7307,-41.1658669,146.549622,4,3,3,House,House,False,754,m2,False
2016887157,listing,/24-chardonnay-drive-hawley-beach-tas-7307-2016887157,630000,is-sold,Sold by private treaty 20 Jul 2021,20210720,24 Chardonnay Drive,HAWLEY BEACH,TAS,7307,-41.144825,146.537811,3,2,2,House,House,False,633,m2,False
2016994375,listing,/7-vincent-crescent-latrobe-tas-7307-2016994375,470000,is-sold,Sold by private treaty 16 Jul 2021,20210716,7 Vincent Crescent,LATROBE,TAS,7307,-41.2276955,146.427673,3,1,3,House,House,False,916,m2,False
2017014820,listing,/12-arthur-street-shearwater-tas-7307-2017014820,595000,is-sold,Sold by private treaty 28 Jul 2021,20210728,12 Arthur Street,SHEARWATER,TAS,7307,-41.15251,146.533478,3,2,2,House,House,False,742,m2,False
2017048641,listing,/1-wilmot-street-port-sorell-tas-7307-2017048641,435000,is-sold,Sold by private treaty 14 Jul 2021,20210714,1 Wilmot Street,PORT SORELL,TAS,7307,-41.16783,146.5587,3,2,2,House,House,False,621,m2,False
2017056961,listing,/108-shearwater-boulevard-shearwater-tas-7307-2017056961,620000,is-sold,Sold by private treaty 09 Jul 2021,20210709,108 Shearwater Boulevard,SHEARWATER,TAS,7307,-41.1535263,146.5368,3,2,2,House,House,False,703,m2,False
2017074571,listing,/2-hudson-court-shearwater-tas-7307-2017074571,535000,is-sold,Sold by private treaty 05 Jul 2021,20210705,2 Hudson Court,SHEARWATER,TAS,7307,-41.1612549,146.533356,2,1,1,House,House,False,453,m2,False
2017084239,listing,/4-40-wilmot-street-port-sorell-tas-7307-2017084239,276000,is-sold,Sold by private treaty 14 Jul 2021,20210714,4/40 Wilmot Street,PORT SORELL,TAS,7307,-41.1664276,146.553909,2,1,1,ApartmentUnitFlat,Apartment / Unit / Flat,False,207,m2,False
2017090053,listing,/4-134-wilmot-street-port-sorell-tas-7307-2017090053,360000,is-sold,Sold by private treaty 13 Jul 2021,20210713,4/134 Wilmot Street,PORT SORELL,TAS,7307,-41.16663,146.541077,3,1,1,ApartmentUnitFlat,Apartment / Unit / Flat,False,435,m2,False
2017098852,listing,/port-sorell-tas-7307-2017098852,1110000,is-sold,Sold by private treaty 16 Jul 2021,20210716,,PORT SORELL,TAS,7307,-41.1668129,146.55304,3,2,6,House,House,False,7860,m2,False
2017104119,listing,/2-12-links-court-shearwater-tas-7307-2017104119,415000,is-sold,Sold by private treaty 12 Jul 2021,20210712,2/12 Links Court,SHEARWATER,TAS,7307,-41.16369,146.540634,3,1,1,ApartmentUnitFlat,Apartment / Unit / Flat,False,310,m2,False
2017106790,listing,/2-49-edward-street-port-sorell-tas-7307-2017106790,365000,is-sold,Sold by private treaty 06 Jul 2021,20210706,2/49 Edward Street,PORT SORELL,TAS,7307,-41.1696243,146.54538,2,1,1,ApartmentUnitFlat,Apartment / Unit / Flat,False,546,m2,False
2017107356,listing,/9-broadwater-court-shearwater-tas-7307-2017107356,231000,is-sold,Sold by private treaty 14 Jul 2021,20210714,9 Broadwater Court,SHEARWATER,TAS,7307,-41.151844,146.532791,,,,VacantLand,Vacant land,False,751,m2,False
2017108387,listing,/6-hudson-court-shearwater-tas-7307-2017108387,600000,is-sold,Sold by private treaty 15 Jul 2021,20210715,6 Hudson Court,SHEARWATER,TAS,7307,-41.1612549,146.533356,3,2,3,House,House,False,661,m2,False
2017131309,listing,/197-wescombes-road-moriarty-tas-7307-2017131309,555000,is-sold,Sold by private treaty 30 Jul 2021,20210730,197 Wescombes Road,MORIARTY,TAS,7307,-41.23407,146.4794,4,1,,House,House,True,1.01,ha,False
2017150511,listing,/14-ponsonby-court-port-sorell-tas-7307-2017150511,275000,is-sold,Sold by private treaty 29 Jul 2021,20210729,14 Ponsonby Court,PORT SORELL,TAS,7307,-41.167244,146.550278,,,,VacantLand,Vacant land,False,1126,m2,False
2017161744,listing,/1-2-roland-view-rise-latrobe-tas-7307-2017161744,,is-sold,Sold by private treaty 29 Jul 2021,20210729,1/2 Roland View Rise,LATROBE,TAS,7307,-41.2273827,146.423477,3,2,1,NewApartments,New Apartments / Off the Plan,False,0,m2,False
2016656478,listing,/32-rubicon-rise-northdown-tas-7307-2016656478,115000,is-sold,Sold by private treaty 11 Jun 2021,20210611,32 Rubicon Rise,NORTHDOWN,TAS,7307,-41.17324,146.512833,,,,VacantLand,Vacant land,False,4890,m2,False
2016756464,listing,/44-dumbleton-street-hawley-beach-tas-7307-2016756464,,is-sold,Sold by private treaty 25 Jun 2021,20210625,44 Dumbleton Street,HAWLEY BEACH,TAS,7307,-41.15046,146.538574,,,,VacantLand,Vacant land,False,665,m2,False
2016781770,listing,/43-squeaking-point-esplanade-squeaking-point-tas-7307-2016781770,825000,is-sold,Sold by private treaty 09 Jun 2021,20210609,43 Squeaking Point Esplanade,SQUEAKING POINT,TAS,7307,-41.1857376,146.568665,2,2,3,House,House,False,1937,m2,False
2016936584,listing,/2-spring-grove-latrobe-tas-7307-2016936584,475000,is-sold,Sold by private treaty 11 Jun 2021,20210611,2 Spring Grove,LATROBE,TAS,7307,-41.2277451,146.423981,3,2,2,House,House,False,0,m2,False
2016947505,listing,/2-15-club-drive-shearwater-tas-7307-2016947505,405000,is-sold,Sold by private treaty 01 Jul 2021,20210701,2/15 Club Drive,SHEARWATER,TAS,7307,-41.1600533,146.538391,2,1,2,ApartmentUnitFlat,Apartment / Unit / Flat,False,256,m2,False
2016961895,listing,/unit-2-1-fairway-crescent-shearwater-tas-7307-2016961895,435000,is-sold,Sold by private treaty 09 Jun 2021,20210609,Unit 2/1 Fairway Crescent,SHEARWATER,TAS,7307,-41.1607666,146.540237,2,1,1,ApartmentUnitFlat,Apartment / Unit / Flat,False,123,m2,False
2016963007,listing,/4-port-street-port-sorell-tas-7307-2016963007,470000,is-sold,Sold by private treaty 01 Jul 2021,20210701,4 Port Street,PORT SORELL,TAS,7307,-41.171032,146.5578,3,1,2,House,House,False,1163,m2,False
2016973107,listing,/unit-3-1-fairway-crescent-shearwater-tas-7307-2016973107,340000,is-sold,Sold by private treaty 09 Jun 2021,20210609,Unit 3/1 Fairway Crescent,SHEARWATER,TAS,7307,-41.1607666,146.540237,2,1,1,ApartmentUnitFlat,Apartment / Unit / Flat,False,123,m2,False
2017004527,listing,/12-palmers-road-latrobe-tas-7307-2017004527,367000,is-sold,Sold by private treaty 18 Jun 2021,20210618,12 Palmers Road,LATROBE,TAS,7307,-41.2283821,146.42421,3,1,4,House,House,False,758,m2,False
2017009388,listing,/2-41-wilmot-street-port-sorell-tas-7307-2017009388,350000,is-sold,Sold by private treaty 11 Jun 2021,20210611,2/41 Wilmot Street,PORT SORELL,TAS,7307,-41.167244,146.553635,2,1,1,Villa,Villa,False,210,m2,False
2017030079,listing,/259-eagle-point-road-bakers-beach-tas-7307-2017030079,170000,is-sold,Sold by private treaty 28 Jun 2021,20210628,259 Eagle Point Road,BAKERS BEACH,TAS,7307,-41.1973457,146.586441,,,,VacantLand,Vacant land,False,0,m2,False
2017044452,listing,/10-sunhaven-drive-port-sorell-tas-7307-2017044452,690000,is-sold,Sold by private treaty 17 Jun 2021,20210617,10 Sunhaven Drive,PORT SORELL,TAS,7307,-41.17344,146.536865,3,1,2,AcreageSemiRural,Acreage / Semi-Rural,True,5425,m2,False
2017045260,listing,/15-alexander-street-shearwater-tas-7307-2017045260,500000,is-sold,Sold by private treaty 14 Jun 2021,20210614,15 Alexander Street,SHEARWATER,TAS,7307,-41.15191,146.536438,3,2,1,House,House,False,675,m2,False
2017051402,listing,/13-twiss-street-latrobe-tas-7307-2017051402,305000,is-sold,Sold by private treaty 29 Jun 2021,20210629,13 Twiss Street,LATROBE,TAS,7307,-41.23313,146.405,2,2,1,House,House,False,518,m2,False
2017054789,listing,/125-charles-street-squeaking-point-tas-7307-2017054789,525250,is-sold,Sold by private treaty 17 Jun 2021,20210617,125 Charles Street,SQUEAKING POINT,TAS,7307,-41.1889954,146.565872,3,1,2,House,House,False,1346,m2,False
2017057157,listing,/24-club-drive-shearwater-tas-7307-2017057157,435000,is-sold,Sold by private treaty 11 Jun 2021,20210611,24 Club Drive,SHEARWATER,TAS,7307,-41.16046,146.53743,4,1,2,House,House,False,669,m2,False
2017086803,listing,/4-vincent-crescent-latrobe-tas-7307-2017086803,459000,is-sold,Sold by private treaty 29 Jun 2021,20210629,4 Vincent Crescent,LATROBE,TAS,7307,-41.22828,146.427414,3,1,1,House,House,False,670,m2,False
2017087725,listing,/10-palmers-road-latrobe-tas-7307-2017087725,389000,is-sold,Sold by private treaty 02 Jul 2021,20210702,10 Palmers Road,LATROBE,TAS,7307,-41.2285576,146.424179,3,1,2,House,House,False,898,m2,False
2017088782,listing,/10-squeaking-point-road-thirlstane-tas-7307-2017088782,510000,is-sold,Sold by private treaty 01 Jul 2021,20210701,10 Squeaking Point Road,THIRLSTANE,TAS,7307,-41.2099037,146.515778,4,1,2,House,House,True,2.06,ha,False
2017161748,listing,/5-spring-grove-latrobe-tas-7307-2017161748,499000,is-sold,Sold by private treaty 04 Jul 2021,20210704,5 Spring Grove,LATROBE,TAS,7307,-41.228447,146.4235,4,2,2,House,House,False,807,m2,False
2015127216,listing,/127-129-gilbert-street-latrobe-tas-7307-2015127216,,is-sold,Sold by private treaty 25 May 2021,20210525,127-129 Gilbert Street,LATROBE,TAS,7307,-41.2352753,146.412186,2,2,,House,House,False,740,m2,False
2016161915,listing,/76-alexander-street-shearwater-tas-7307-2016161915,192000,is-sold,Sold by private treaty 25 May 2021,20210525,76 Alexander Street,SHEARWATER,TAS,7307,-41.157032,146.534225,,,,VacantLand,Vacant land,False,736,m2,False
2016376742,listing,/2-91-hamilton-street-latrobe-tas-7307-2016376742,,is-sold,Sold by private treaty 07 May 2021,20210507,2/91 Hamilton Street,LATROBE,TAS,7307,-41.2459145,146.412613,2,2,3,ApartmentUnitFlat,Apartment / Unit / Flat,False,724,m2,False
2016656500,listing,/18-woodland-rise-northdown-tas-7307-2016656500,295000,is-sold,Sold by private treaty 03 May 2021,20210503,18 Woodland Rise,NORTHDOWN,TAS,7307,-41.169632,146.515091,,,,VacantLand,Vacant land,True,1.28,ha,False
2016745440,listing,/1-2-38-club-drive-shearwater-tas-7307-2016745440,175000,is-sold,Sold by private treaty 04 May 2021,20210504,1 & 2/38 Club Drive,SHEARWATER,TAS,7307,-41.15976,146.534241,,,,VacantLand,Vacant land,False,390,m2,False
2016793507,listing,/4-meadowsweet-close-hawley-beach-tas-7307-2016793507,745000,is-sold,Sold by private treaty 19 May 2021,20210519,4 Meadowsweet Close,HAWLEY BEACH,TAS,7307,-41.141674,146.539932,4,2,3,House,House,False,710,m2,False
2016825928,listing,/15-haven-drive-shearwater-tas-7307-2016825928,530000,is-sold,Sold by private treaty 26 May 2021,20210526,15 Haven Drive,SHEARWATER,TAS,7307,-41.16091,146.537888,4,2,2,House,House,False,691,m2,False
2016894858,listing,/53-george-street-latrobe-tas-7307-2016894858,400000,is-sold,Sold by private treaty 11 May 2021,20210511,53 George Street,LATROBE,TAS,7307,-41.23729,146.418442,3,2,3,House,House,False,615,m2,False
2016907446,listing,/4-138-wilmot-street-port-sorell-tas-7307-2016907446,350500,is-sold,Sold by private treaty 13 May 2021,20210513,4/138 Wilmot Street,PORT SORELL,TAS,7307,-41.16636,146.541351,3,2,1,ApartmentUnitFlat,Apartment / Unit / Flat,False,320,m2,False
2016933441,listing,/6-196-last-street-latrobe-tas-7307-2016933441,305000,is-sold,Sold by private treaty 03 May 2021,20210503,6/196 Last Street,LATROBE,TAS,7307,-41.23615,146.428726,2,1,1,ApartmentUnitFlat,Apartment / Unit / Flat,False,314,m2,False
2016965167,listing,/2-45-stanley-street-latrobe-tas-7307-2016965167,357000,is-sold,Sold by private treaty 03 May 2021,20210503,2/45 Stanley Street,LATROBE,TAS,7307,-41.2403526,146.427017,3,1,4,ApartmentUnitFlat,Apartment / Unit / Flat,False,353,m2,False
2016988194,listing,/1-221-stanley-street-south-latrobe-tas-7307-2016988194,370000,is-sold,Sold by private treaty 17 May 2021,20210517,1/221 Stanley Street South,LATROBE,TAS,7307,-41.24744,146.425583,3,1,1,ApartmentUnitFlat,Apartment / Unit / Flat,False,0,m2,False
2016994083,listing,/23-cotton-street-latrobe-tas-7307-2016994083,435000,is-sold,Sold by private treaty 02 Jun 2021,20210602,23 Cotton Street,LATROBE,TAS,7307,-41.2379379,146.415527,3,1,2,House,House,False,817,m2,False
2016999030,listing,/2-5-harmony-close-shearwater-tas-7307-2016999030,363000,is-sold,Sold by private treaty 20 May 2021,20210520,2/5 Harmony Close,SHEARWATER,TAS,7307,-41.162426,146.533737,2,1,1,House,House,False,300,m2,False
2017006114,listing,/23-the-avenue-latrobe-tas-7307-2017006114,560000,is-sold,Sold by private treaty 14 May 2021,20210514,23 The Avenue,LATROBE,TAS,7307,-41.234005,146.424759,3,1,5,House,House,False,0,m2,False
2017009087,listing,/6-banksia-rise-shearwater-tas-7307-2017009087,587000,is-sold,Sold by private treaty 25 May 2021,20210525,6 Banksia Rise,SHEARWATER,TAS,7307,-41.1538353,146.534454,4,2,2,House,House,False,720,m2,False
2017028939,listing,/21-alexander-street-shearwater-tas-7307-2017028939,363000,is-sold,Sold by private treaty 08 Jun 2021,20210608,21 Alexander Street,SHEARWATER,TAS,7307,-41.1523857,146.5363,2,1,,House,House,False,674,m2,False
2017031156,listing,/74-alexander-street-shearwater-tas-7307-2017031156,405888,is-sold,Sold by private treaty 07 Jun 2021,20210607,74 Alexander Street,SHEARWATER,TAS,7307,-41.15686,146.534271,3,1,2,House,House,False,819,m2,False
2017031786,listing,/14-breteeca-close-port-sorell-tas-7307-2017031786,510000,is-sold,Sold by private treaty 03 Jun 2021,20210603,14 Breteeca Close,PORT SORELL,TAS,7307,-41.1651039,146.539352,3,2,2,House,House,False,671,m2,False
2017135803,listing,/87-wilmot-street-port-sorell-tas-7307-2017135803,395000,is-sold,Sold by private treaty 02 Jun 2021,20210602,87 Wilmot Street,PORT SORELL,TAS,7307,-41.16695,146.547379,3,2,1,House,House,False,637,m2,False
2014463070,listing,/62-marana-drive-bakers-beach-tas-7307-2014463070,320000,is-sold,Sold by private treaty 27 Apr 2021,20210427,62 Marana Drive,BAKERS BEACH,TAS,7307,-41.162014,146.607971,,,,VacantLand,Vacant land,True,45.05,ha,False
2016573611,listing,/1-91-hamilton-street-latrobe-tas-7307-2016573611,,is-sold,Sold by private treaty 23 Apr 2021,20210423,1/91 Hamilton Street,LATROBE,TAS,7307,-41.2459145,146.412613,2,2,2,ApartmentUnitFlat,Apartment / Unit / Flat,False,724,m2,False
2016614540,listing,/4003-frankford-road-harford-tas-7307-2016614540,650000,is-sold,Sold by private treaty 04 Apr 2021,20210404,4003 Frankford Road,HARFORD,TAS,7307,-41.2499466,146.60672,3,1,4,AcreageSemiRural,Acreage / Semi-Rural,True,0,m2,False
2016645054,listing,/part-229-percival-street-latrobe-tas-7307-2016645054,,is-sold,Sold by private treaty 21 Apr 2021,20210421,Part 229 Percival Street,LATROBE,TAS,7307,-41.2513733,146.424942,,,,VacantLand,Vacant land,True,1.55,ha,False
2016645294,listing,/5-the-avenue-latrobe-tas-7307-2016645294,490000,is-sold,Sold by private treaty 26 Mar 2021,20210326,5 The Avenue,LATROBE,TAS,7307,-41.2331238,146.424118,4,2,3,House,House,False,729,m2,False
2016726383,listing,/17-douglas-court-port-sorell-tas-7307-2016726383,650000,is-sold,Sold by private treaty 14 Apr 2021,20210414,17 Douglas Court,PORT SORELL,TAS,7307,-41.16766,146.55484,3,2,2,House,House,False,757,m2,False
2016816879,listing,/117-panatana-drive-port-sorell-tas-7307-2016816879,350000,is-sold,Sold by private treaty 08 Apr 2021,20210408,117 Panatana Drive,PORT SORELL,TAS,7307,-41.1728,146.5521,,,,VacantLand,Vacant land,False,8761,m2,False
2016827924,listing,/2-65-stanley-street-latrobe-tas-7307-2016827924,358000,is-sold,Sold by private treaty 27 Mar 2021,20210327,2/65 Stanley Street,LATROBE,TAS,7307,-41.24181,146.427,2,1,1,ApartmentUnitFlat,Apartment / Unit / Flat,False,360,m2,False
2016845793,listing,/14-darling-street-port-sorell-tas-7307-2016845793,515000,is-sold,Sold by private treaty 30 Mar 2021,20210330,14 Darling Street,PORT SORELL,TAS,7307,-41.1686478,146.554947,4,2,2,House,House,False,681,m2,False
2016845796,listing,/126-shannon-drive-port-sorell-tas-7307-2016845796,815000,is-sold,Sold by private treaty 03 May 2021,20210503,126 Shannon Drive,PORT SORELL,TAS,7307,-41.18282,146.565979,3,2,4,House,House,False,2,m2,False
2016846107,listing,/2-1-paulownia-street-latrobe-tas-7307-2016846107,449000,is-sold,Sold by private treaty 31 Mar 2021,20210331,2/1 Paulownia Street,LATROBE,TAS,7307,-41.2451439,146.403549,2,2,2,Villa,Villa,False,350,m2,False
2016852527,listing,/harford-tas-7307-2016852527,820000,is-sold,Sold by private treaty 25 Mar 2021,20210325,,HARFORD,TAS,7307,-41.22605,146.563171,4,2,2,House,House,False,60702,m2,False
2016859611,listing,/5-north-esplanade-port-sorell-tas-7307-2016859611,580000,is-sold,Sold by private treaty 19 Apr 2021,20210419,5 North Esplanade,PORT SORELL,TAS,7307,-41.163353,146.555115,3,1,1,House,House,False,498,m2,False
2016873357,listing,/2-72-quinlan-crescent-shearwater-tas-7307-2016873357,305000,is-sold,Sold by private treaty 06 Apr 2021,20210406,2/72 Quinlan Crescent,SHEARWATER,TAS,7307,-41.15571,146.535858,2,1,1,ApartmentUnitFlat,Apartment / Unit / Flat,False,350,m2,False
2016885068,listing,/173-cotton-street-latrobe-tas-7307-2016885068,462000,is-sold,Sold by private treaty 06 Apr 2021,20210406,173 Cotton Street,LATROBE,TAS,7307,-41.24033,146.4322,4,2,4,House,House,False,684,m2,False
2016895074,listing,/9-chardonnay-drive-hawley-beach-tas-7307-2016895074,736000,is-sold,Sold by private treaty 12 Apr 2021,20210412,9 Chardonnay Drive,HAWLEY BEACH,TAS,7307,-41.1446762,146.5385,4,2,2,House,House,False,757,m2,False
2016900645,listing,/51-rice-street-port-sorell-tas-7307-2016900645,460000,is-sold,Sold by private treaty 12 Apr 2021,20210412,51 Rice Street,PORT SORELL,TAS,7307,-41.16321,146.5545,3,2,,House,House,False,660,m2,False
